%time,field.header.seq,field.header.stamp,field.header.frame_id,field.position.x,field.position.y,field.position.z,field.velocity.x,field.velocity.y,field.velocity.z,field.acceleration.x,field.acceleration.y,field.acceleration.z,field.orientation.x,field.orientation.y,field.orientation.z,field.angular_velocity.x,field.angular_velocity.y,field.angular_velocity.z
1669909449185758895,14812,1669909448618250471,,0.28900539461771807,-3.3539978776612314,1.239968738001031,-0.08800145348328937,0.13799848369862258,-0.004999922944480467,0.0,0.0,0.0,0.04734051313866594,-0.013366911735603892,-0.1982362710558796,-3.99272665817087e-07,1.0960663483242261e-07,4.0223728595091215e-07
1669909449260822031,14813,1669909448887393442,,0.27626973643612424,-3.3098111150503224,1.239965092471477,-0.0830008513089108,0.1449988476933214,-0.00899934919779798,0.0,0.0,0.0,0.0688933764798989,-0.001918719458751994,-0.19501618311183755,-3.959304630616658e-07,1.1161972010455693e-07,4.0165546271382443e-07
1669909449670155048,14814,1669909449084283517,,0.2682535169277663,-3.2749032800066007,1.239969178961402,-0.08000033220427887,0.15199927793167228,-0.01199970161457729,6.249258640254817e-46,7.73165219620637e-45,9.727128338010296e-44,0.07981410841949099,0.006960262451034538,-0.19956749134509622,-3.9471155931203027e-07,1.131624947200603e-07,4.003645574507338e-07
1669909449670324810,14815,1669909449382491778,,0.2598187704564945,-3.2175982477084646,1.2326714162120689,-0.07300077355625191,0.1669983518091894,-0.016999870480759717,0.0,0.0,0.0,0.08722750730916573,0.022365011241312516,-0.21486682256017708,-3.943324469817697e-07,1.1522656204291135e-07,3.9725707726468894e-07
1669909450162802002,14816,1669909449587835855,,0.2541480598565461,-3.181379470343206,1.2295492461728117,-0.07099946528746713,0.16300185576749496,-0.023998921700999945,0.0,0.0,0.0,0.08066560219196894,0.03295524698362584,-0.23451094467305822,-3.967662149738917e-07,1.1688400865975644e-07,3.9307440699970503e-07
1669909450184559804,14817,1669909449817248901,,0.25020995140125857,-3.1460623515556394,1.2198843334459364,-0.06300134412059963,0.15400151269785353,-0.02400002398022931,0.0,0.0,0.0,0.058007214402174156,0.04383101739275652,-0.2619441593692926,-4.015330729811128e-07,1.1840570524611654e-07,3.879998889538094e-07
1669909450213803170,14818,1669909450016264356,,0.24673820976008562,-3.119484733512555,1.2192237128344572,-0.05900019879482324,0.14100129370409764,-0.02000038887014042,3.153741634770468e-220,-3.6880308159841356e-218,3.0045255938092404e-218,0.03408014801171255,0.05073204818890176,-0.28637862520966273,-4.0556979987528955e-07,1.1919285204939763e-07,3.838575666966829e-07
1669909450483014511,14819,1669909450215964761,,0.24351760004120643,-3.0927495466653054,1.2097570800174968,-0.057000180608257726,0.13300067519288153,-0.018000188147940886,2.1197879309511924e-168,8.280421605278095e-171,6.624337284222476e-170,0.010091362130001613,0.05386760745301089,-0.3162618377617701,-4.084197560571946e-07,1.1911367760962406e-07,3.789258152170971e-07
1669909450719880206,14820,1669909450453442899,,0.23615258564396926,-3.0690702644269607,1.200409859186096,-0.058999739588917556,0.11300277356050661,-0.0189998847768218,0.0,0.0,0.0,0.003580482334671231,0.04857958020092923,-0.3492676669097232,-4.073817159210159e-07,1.1748731407785134e-07,3.736116455168433e-07
1669909451021815394,14821,1669909450727289988,,0.22342812448032684,-3.0505557943624746,1.1980587082295442,-0.06299991851435742,0.07900162713721401,-0.02599964019836431,1.0647395974553906e-76,7.109109744443214e-77,7.177847068153706e-77,0.016479221284965817,0.029950046585771162,-0.38849016175254647,-4.0486177327798384e-07,1.1364338994704487e-07,3.676402253710961e-07
1669909451221793494,14822,1669909450970501687,,0.2142321024671038,-3.0300064538735856,1.1995204518903546,-0.06500001315178577,0.0720000137559911,-0.027000019394338475,0.0,0.0,0.0,0.022913173688516864,0.007247665075990284,-0.41872819032877295,-4.0434061951222237e-07,1.0925011927012121e-07,3.6309139253448036e-07
1669909451537962410,14823,1669909451227256927,,0.20323971948629607,-3.004040891824089,1.1906037430333023,-0.07200001318782893,0.07300001357030829,-0.02700001944748965,1.3693730577009177e-295,-1.2635315762125882e-294,-1.0080186778486465e-293,0.025644251662445328,-0.02091688469975317,-0.40365190217437963,-4.03714465652594e-07,1.0546863153846791e-07,3.7200969657527303e-07
1669909451650557843,14824,1669909451444744466,,0.1901780266372739,-3.0055691213017517,1.1905896540202119,-0.061001962923886335,0.029002873782105743,-0.0190010590764181,-1.462373784776986e-228,3.465924635417702e-230,-8.07003009588425e-233,0.03199210832771726,-0.03155245488049552,-0.34679722618585984,-4.019211302866705e-07,1.0479782261826163e-07,3.8430545058929045e-07
1669909451834871453,14825,1669909451654344775,,0.18755611354538468,-3.0035610814112035,1.1898374332815929,-0.040003577265213926,0.01900171324224558,-0.012001206967332284,7.888947743112723e-140,4.420367632273254e-139,2.0884349866391935e-139,0.03923895499598373,-0.03637680954065203,-0.27312118993657286,-4.0105583310464774e-07,1.0483688020102773e-07,3.9336327487860476e-07
1669909452078757302,14826,1669909451819297336,,0.1946204352744261,-2.9876762266559176,1.1891290746167593,-0.022001379217669797,0.04899774043580514,-0.012000018861299854,2.3374311520614664e-220,-9.385621934225846e-219,-2.0628008757380147e-217,0.042078725097656644,-0.0371191444156409,-0.23526335428728729,-4.0026901096716565e-07,1.0553412392890873e-07,4.002142368680848e-07
1669909452343363119,14827,1669909452089422576,,0.19792958128444063,-2.959363368680489,1.1823007921736157,-0.01700001306078951,0.07600001969039807,-0.011000019260150429,1.3004855382769173e-77,-8.442192112939003e-78,-1.0795210693868056e-78,0.047730351176829444,-0.027951298501047717,-0.1589622074952679,-3.9901104723868204e-07,1.0857165695375854e-07,4.1586125281464316e-07
1669909452598681554,14828,1669909452346430783,,0.19666739103308,-2.9497383072557426,1.1801314703485466,-0.01300370527890728,0.06101386588744516,-0.008002788573747107,-1.6584921387017586e-230,-6.784706973853378e-231,4.4429466288900145e-231,0.04969069633575174,-0.0111552712172589,-0.06553747312068126,-3.987506172656078e-07,1.1254793747765268e-07,4.315462545919214e-07
1669909452761574546,14829,1669909452580654414,,0.21041890831878712,-2.955689711667642,1.180063513627287,0.022999985620414165,0.03100002464700938,-2.1204919201036647e-08,1.4533426813462066e-120,-3.680467083803269e-121,1.4435314508167204e-120,0.05473696719085552,0.007328040956448234,0.01839156343530668,-3.978430009193949e-07,1.1592349938338004e-07,4.4179708445148043e-07
1669909452877550777,14830,1669909452765228089,,0.22123125412977926,-2.9378503771016855,1.1801637224476254,0.03799888746124826,0.05799804909877229,0.003999685645538084,0.0,0.0,0.0,0.05941562794857447,0.021887197642879386,0.059736626207218535,-3.973254923264062e-07,1.1893748096297783e-07,4.4764513968296336e-07
1669909453128225066,14831,1669909452881783694,,0.2273035022054258,-2.9209146758277753,1.1803989951101908,0.04299930182777763,0.0799970201201073,0.007999431479638327,1.7168959112311804e-64,2.2035129931814607e-63,8.051515514206492e-63,0.060989199946959616,0.02864636342228266,0.06720223823636928,-3.9718202987389397e-07,1.200134454630309e-07,4.465044653702239e-07
1669909453146460395,14832,1669909453006945498,,0.23678367954310367,-2.892809562467177,1.1809713326060678,0.05599604702354869,0.12098760769024672,0.009999371422707414,-1.4605979224977135e-232,-3.2902974576342546e-232,0.0,0.062001401158109815,0.04016112033008312,0.0626473754621788,-3.972795023674431e-07,1.2170289722785915e-07,4.4421473705525017e-07
1669909453292472384,14833,1669909453145805983,,0.2403243407909109,-2.8679938363513644,1.1888795172105213,0.049000112532518396,0.13999967794601792,0.012999921674997628,1.4102050256506484e-42,1.79826112942827e-42,2.9299083756306137e-41,0.06122056945044285,0.04861344527028777,0.05447533030256402,-3.9754723199304933e-07,1.226546000530677e-07,4.4233464075182545e-07
1669909453656055973,14834,1669909453298811726,,0.24337083763537487,-2.8444262431481686,1.190729330045768,0.040999983840097606,0.14500002603887371,0.011999976169729183,0.0,0.0,0.0,0.06053365820710255,0.05674346281508846,0.04335741777891933,-3.974903252364152e-07,1.2351077146136692e-07,4.405289688998702e-07
1669909453668240993,14835,1669909453427459978,,0.24362831068254331,-2.823027670625913,1.191179356357758,0.03200348925882078,0.15099768835398014,0.008001533970947567,2.1305306509946746e-295,-3.1942031040082184e-298,3.889476448181553e-296,0.060759074316388606,0.06022515512400339,0.0358025011560521,-3.973660782913309e-07,1.237539421404202e-07,4.393373537346395e-07
1669909453704506468,14836,1669909453571093641,,0.2462974138210743,-2.799248712619945,1.1903864833843705,0.028999983534412594,0.1560000243766753,0.0069999757189494445,3.0775690312635563e-152,7.711775510576911e-154,-4.0895482147657825e-155,0.06110921260919078,0.06228409726912254,0.02684651246493175,-3.972804610076393e-07,1.2363916054212807e-07,4.3781581015316106e-07
1669909453821518830,14837,1669909453702297272,,0.2490250461851271,-2.7699540192455476,1.1907353449061848,0.027999983497371577,0.17800002377135854,0.002999975664326751,0.0,0.0,0.0,0.06101715536075503,0.062487651553995605,0.0039737659508958245,-3.9708056303010925e-07,1.2306013611374846e-07,4.316379691550146e-07
1669909453866374594,14838,1669909453825551461,,0.2526406563626686,-2.7480908473499728,1.190914482974058,0.027999983497371577,0.17800002377135854,0.002999975664326751,0.0,0.0,0.0,0.060396637202696724,0.06178547146688729,-0.026358204793929474,-3.969190146514751e-07,1.2244342702793435e-07,4.2492821059827906e-07
1669909453897360472,14839,1669909453868962431,,0.2540834471634616,-2.7404198275081155,1.1901496152861606,0.027999983497371577,0.17800002377135854,0.002999975664326751,1.0039545945297292e-76,1.4396425511275603e-77,1.6867516709168837e-78,0.05988423902273965,0.061270035691128655,-0.0413200988312461,-3.969353860515422e-07,1.221539604835992e-07,4.223169720526816e-07
1669909454176336182,14840,1669909453901555996,,0.25470359356932143,-2.719490814672477,1.1906789303203276,0.027000035148895225,0.21199826581852685,0.00399992391879043,-3.901069248806574e-76,7.493081455241457e-77,-2.168543654860862e-78,0.059259882657794805,0.06064251444855273,-0.05484161764278639,-3.969923025371555e-07,1.218474868457482e-07,4.202273341134303e-07
1669909454246214857,14841,1669909454072020574,,0.2546265463325936,-2.6823680570183863,1.1901125430033173,0.011000814904814818,0.21499986685696598,0.006999819717684775,2.524068336570494e-76,6.0564467710311316e-77,9.633353320147111e-78,0.055988752168799394,0.057194503573487765,-0.09841725012477909,-3.975128331721066e-07,1.2065374664054846e-07,4.138135290626524e-07
1669909454396431735,14842,1669909454247103669,,0.249134904832852,-2.6459246129130394,1.1896211261983145,-0.012998769165511747,0.21200017780187952,0.005000079701483718,0.0,0.0,0.0,0.04800023180514579,0.04813679330528764,-0.15384205976410037,-3.9864278926496496e-07,1.1854152840880596e-07,4.0680891953541733e-07
1669909454716286995,14843,1669909454397554385,,0.2501867114346867,-2.615431135710727,1.193602684879278,-0.01699980581355246,0.20900017852256672,0.004000028652903047,0.0,0.0,0.0,0.0440336239803063,0.04172637369148369,-0.17843909378371947,-3.9908279280070365e-07,1.1736666578172367e-07,4.0411178383875155e-07
1669909454740898363,14844,1669909454559486143,,0.2504499940953196,-2.584306884995633,1.1996320862226055,-0.022999860720224096,0.20300017507688972,0.004999950639262997,-2.845434234386516e-141,-3.4877416496968086e-141,-5.120822717810304e-141,0.038771642211690605,0.03209398587278933,-0.20794009448793638,-3.9986220158098194e-07,1.1570995265599797e-07,4.0051860343267703e-07
1669909454907976376,14845,1669909454731297869,,0.2544301593275558,-2.547024518708992,1.2007794224092592,-0.02300001538778338,0.20799988855437082,0.004000003435686146,-8.981239056711548e-219,-8.750394963266949e-219,1.3274262189576248e-214,0.03480808775429978,0.023456687785190056,-0.21763675850509756,-4.0041842647892745e-07,1.1457462207839562e-07,4.0296214969071457e-07
1669909455222163926,14846,1669909454907928598,,0.251310028508467,-2.530457160724333,1.200383281331823,-0.027999879047136456,0.1670011336038354,0.005999923553232912,0.0,0.0,0.0,0.03251330209647918,0.015685384005267977,-0.19197779977870155,-4.007339093882969e-07,1.1386097346068332e-07,4.1082063858809715e-07
1669909455275637222,14847,1669909455068118827,,0.2505017992562075,-2.5240122509739376,1.1998206409071912,-0.02200017162084952,0.12800103966291054,0.004000030829147903,2.2948316969458598e-296,1.3561780356323108e-295,2.7184255656448196e-294,0.03100822710720763,0.012525702631197788,-0.15150483768906753,-4.012701120218009e-07,1.1417666303252576e-07,4.1829427848459086e-07
1669909455401872369,14848,1669909455223941620,,0.2583118567727749,-2.513478889057762,1.200414588900897,-0.0020000142349053257,0.11200001944459784,0.005999979008434541,-1.2747212370920875e-230,1.034998917548304e-230,6.220228918024944e-234,0.02566575416958017,0.012139057596069591,-0.10472958356156781,-4.0221320303143924e-07,1.1452057430868502e-07,4.238846365853643e-07
1669909455615427733,14849,1669909455407726627,,0.26617865413310093,-2.493340956631552,1.2008268802087754,0.008999985901414077,0.11300002031515964,0.008999979209458551,1.6287615649625993e-185,9.637552004874717e-185,3.461656621000207e-183,0.02515082955859249,0.012049619341960138,-0.07202273958519534,-4.018639796539134e-07,1.1466061118574902e-07,4.28912170088676e-07
1669909455770933433,14850,1669909455606397748,,0.27771070194267533,-2.458718217151783,1.2083568610417448,0.02199989224763844,0.13899908480508533,0.004000354937633127,-7.883802303535312e-66,-1.1733218657655953e-65,-3.159246151611791e-64,0.02998883414981357,0.011306421792870225,-0.055980736257517094,-4.0094024775717666e-07,1.14554515224841e-07,4.3058983592384394e-07
1669909455926697963,14851,1669909455775809267,,0.28540401385902336,-2.4291511947228743,1.209889768385293,0.026999986209141465,0.1530000238964765,0.004999979663250087,1.7384225348432906e-107,-5.747756893486444e-107,-2.479984842413168e-106,0.033143444694465174,0.010047208411700481,-0.04634863824768232,-4.010139827817611e-07,1.1439674348067552e-07,4.3126951902208096e-07
1669909456260357458,14852,1669909455924506645,,0.29185373315831387,-2.402452095598311,1.2104485252490693,0.029999986051436937,0.16400002452338852,0.006999979430690415,-5.508610535975397e-144,-1.2580267932788082e-143,-3.512602822442266e-143,0.03307066936984526,0.009471178517696188,-0.044297622432965866,-4.012252976141731e-07,1.1434980741483644e-07,4.3136032730495435e-07
1669909456294594161,14853,1669909456027417681,,0.2946454057851439,-2.386408792528682,1.2105125374760313,0.026999985869041343,0.1620000246937626,0.008999979161719953,-4.5870694401319416e-80,-1.0453570545260145e-80,1.3383441562208154e-81,0.031572207471656455,0.009046584412759628,-0.04396683875421914,-4.0180663764267725e-07,1.1432219349339362e-07,4.3118429541700077e-07
1669909456294763372,14854,1669909456133210345,,0.2982694966555574,-2.369444008178672,1.2111622295567939,0.026999985869041343,0.1620000246937626,0.008999979161719953,-1.924990386289304e-157,-3.514197170706354e-156,-1.475477564655696e-157,0.027953826261315484,0.008561100378436493,-0.04553952388324056,-4.027334177779171e-07,1.1422567070619879e-07,4.307160743960759e-07
1669909456345834251,14855,1669909456218135583,,0.3013407562093516,-2.361193033471273,1.2113683158388222,0.027999813867848364,0.1480024321044774,0.009999807137513179,1.0307888269882667e-154,1.880024854526074e-155,-3.3249581379210696e-156,0.023444794886588127,0.007882840147503956,-0.048281936410425885,-4.036934776828989e-07,1.140675967004041e-07,4.301467282903757e-07
1669909456396183674,14856,1669909456345628052,,0.3058384826325483,-2.34255056604269,1.2112833369246958,0.027999813867848364,0.1480024321044774,0.009999807137513179,-5.063417878385284e-298,-1.6923182548765465e-297,-4.0792172296022993e-296,0.01829205155869751,0.006870903465376443,-0.05182121406716611,-4.0472929616262385e-07,1.1381723613017855e-07,4.2950695777327164e-07
1669909456524326452,14857,1669909456389966828,,0.3071724365814819,-2.3413226539514462,1.2102022385308169,0.02799998586205779,0.1350000247639215,0.010999979151421624,9.588073174409622e-94,-2.3970182936024055e-94,1.1985091468012028e-94,0.015359327931019351,0.0061321053371976575,-0.05393712137741957,-4.0526667686665827e-07,1.1365365127452424e-07,4.291494155431864e-07
1669909456674225753,14858,1669909456520389824,,0.31049015437697736,-2.326988654013451,1.210475093694445,0.024999986048145555,0.12700002468195845,0.012999979425836765,0.0,0.0,0.0,0.009717722769943649,0.004284655465962572,-0.05827726199579786,-4.0623061157463176e-07,1.1325543142271879e-07,4.284345756608053e-07
1669909456829794450,14859,1669909456674748185,,0.31415109054436935,-2.3114847626072854,1.2096888796663023,0.021999986363757117,0.11700002458715389,0.01399997989125474,0.0,0.0,0.0,0.0021168464949727905,0.000335031286128995,-0.06521583728268432,-4.074340230910753e-07,1.12464098949343e-07,4.273743383812391e-07
1669909456883510333,14860,1669909456825475580,,0.31863819830200507,-2.2941119200749194,1.219302557067562,0.021999986363757117,0.11700002458715389,0.01399997989125474,0.0,0.0,0.0,-0.0033577203202774797,-0.004071163763665453,-0.07148198549425544,-4.0821049353238733e-07,1.1165447853604114e-07,4.2628154797565223e-07
1669909457039663634,14861,1669909456891584307,,0.3191027617536842,-2.290988322421044,1.219750521315033,0.01899998686123348,0.10600002449972257,0.014999980624860432,0.0,0.0,0.0,-0.0050395756488246235,-0.006512396672478715,-0.07530873749251299,-4.0817500894473644e-07,1.1123592055918862e-07,4.2549955609835246e-07
1669909457316373278,14862,1669909457033811363,,0.32272430113048955,-2.273687807260488,1.221484329810535,0.017999987270272626,0.11200002449238038,0.017999981228051798,0.0,0.0,0.0,-0.003797814670683408,-0.012671960840203056,-0.08494412805036688,-4.07127976308949e-07,1.1022167402261783e-07,4.240971067581317e-07
1669909457343201178,14863,1669909457151945514,,0.32470184241613875,-2.2575726389594415,1.2216276560199768,0.013999987679811018,0.12000002453410982,0.017999981831979383,1.7585417050852677e-220,4.1051494713846674e-222,2.5639820125666257e-219,0.001452840648344278,-0.01716994579928688,-0.09127630187599678,-4.0581774555351945e-07,1.0956962979919098e-07,4.232700701976389e-07
1669909457371468984,14864,1669909457289966034,,0.3281282744696171,-2.2412745120004027,1.2294537417661946,0.013999987679811018,0.12000002453410982,0.017999981831979383,-1.0163291330192743e-140,-5.1834197944331206e-141,-1.5436161392893677e-143,0.010021271018025857,-0.02156570289404769,-0.09762211426275336,-4.0425396378531925e-07,1.0899762353798647e-07,4.224031770113372e-07
1669909457496313623,14865,1669909457370719778,,0.3321491092122893,-2.2292597130976834,1.2289824100653082,0.017999987983577524,0.12600002458371407,0.020999982279929986,-1.7689389722515013e-140,-4.371359818878008e-141,-2.9411179276140226e-142,0.016213983809761245,-0.023360096701772193,-0.10155744323171234,-4.034167733872998e-07,1.0894571581334933e-07,4.2193769327331236e-07
1669909457724080782,14866,1669909457495462621,,0.33702704341317336,-2.211070513611313,1.2295301097027358,0.019999789127820338,0.13299932868162276,0.02299978343354868,-9.791038939015714e-232,-9.544208576948002e-231,-2.0754512401326167e-232,0.023533644879274007,-0.024488792334953047,-0.10633695184062475,-4.0233496057988947e-07,1.0901921849774352e-07,4.212204730965261e-07
1669909457795030994,14867,1669909457633807696,,0.3426228288237467,-2.191644314187972,1.2395617142976973,0.02199998771313361,0.13700002488396273,0.025999981881118694,-2.6777111901145393e-232,-5.705260938817667e-233,-5.254955610358553e-234,0.03135871352123232,-0.02318222755333821,-0.11428466433620521,-4.0195798704388063e-07,1.0951912043327132e-07,4.198935310286602e-07
1669909457944687207,14868,1669909457798392275,,0.3491975124554522,-2.1728593338577302,1.2395580244102218,0.023999987273701506,0.13000002490365584,0.028999981233108214,0.0,0.0,0.0,0.03143622670410551,-0.020027467208038274,-0.12213802303381449,-4.0266324888609303e-07,1.1022926384569902e-07,4.184771254785209e-07
1669909458058056366,14869,1669909457943351419,,0.3552343120260648,-2.157868342276773,1.2437866950235323,0.025999679869787323,0.12200125198567159,0.03499905990706715,1.0257689765015495e-147,4.6417786158389936e-147,-1.5486300452541544e-144,0.02744744694060053,-0.015509489197288673,-0.13090519782882382,-4.0377073390453995e-07,1.1110795638882546e-07,4.1701694348295657e-07
1669909458098138104,14870,1669909458058527842,,0.35999893383159,-2.144437143712267,1.2498786057494222,0.025999679869787323,0.12200125198567159,0.03499905990706715,7.32182202195943e-223,-5.291251349358905e-222,-9.723301501531378e-219,0.022280100049103524,-0.010831229563915912,-0.13889478748773598,-4.048827618569633e-07,1.1195529261509124e-07,4.1575224466259294e-07
1669909458356484862,14871,1669909458104042527,,0.36191625578500664,-2.139134514241871,1.2496847870084191,0.025999679869787323,0.12200125198567159,0.03499905990706715,0.0,0.0,0.0,0.01996629745753964,-0.00878888706382952,-0.14211065665518596,-4.052889610448532e-07,1.1231624405963833e-07,4.1524542401486796e-07
1669909458380451345,14872,1669909458130573272,,0.362283618636252,-2.13849847308045,1.2508574302234101,0.02500008062846285,0.11600058976264017,0.03899960298820114,-4.2168791772922093e-81,-4.2168791772922093e-81,-2.698802673467014e-79,0.019201432108339134,-0.00808975874972262,-0.14320175171940974,-4.05408188332608e-07,1.1244013422719164e-07,4.150705250437332e-07
1669909458380454736,14873,1669909458254593916,,0.36718017939473135,-2.129091092561209,1.252004954415551,0.025999890995608486,0.10500107366990792,0.04099978906931018,-5.1367556355271325e-77,-2.9299749522011196e-77,-1.3293976633396317e-78,0.013740850729064391,-0.0018977999666383027,-0.152510468397832,-4.060429041276404e-07,1.1346882786571958e-07,4.136716800659234e-07
1669909458414471356,14874,1669909458365439287,,0.371789219151364,-2.118087660154586,1.2587798900660017,0.025999890995608486,0.10500107366990792,0.04099978906931018,-2.001497817127545e-145,-5.775055393622408e-144,-5.370456460593661e-141,0.01252135900977791,0.0022259926148304743,-0.1589291851976764,-4.0586179068526574e-07,1.1407538326505685e-07,4.127038339743355e-07
1669909458548124222,14875,1669909458416361539,,0.372914377823303,-2.1116914079535296,1.2611045667616492,0.023000258089052966,0.10799975180518342,0.04299979914737799,-2.6497349136889905e-169,3.312168642111238e-170,2.587631751649405e-172,0.012737153091238795,0.00432116760006096,-0.1623415730408091,-4.0569805598489547e-07,1.1438449763118339e-07,4.1222402016403496e-07
1669909458754666930,14876,1669909458551973981,,0.37830473095129363,-2.095855176380072,1.2601222508033725,0.02199998675607285,0.11300002273303843,0.041999980469784856,-7.34886096743322e-154,3.32504311252928e-154,8.293694888184476e-155,0.014336075181230257,0.007680614943854636,-0.16790139443360985,-4.051297236186056e-07,1.1484249683608191e-07,4.11483651570451e-07
1669909458795897902,14877,1669909458682675001,,0.3848743661891743,-2.0813346689588244,1.2693774004361826,0.024999986876059255,0.11500002226894607,0.04199998064672333,-1.950945308591272e-144,-4.84096925636232e-143,-2.455298412397133e-143,0.01964852491384761,0.011270431326506625,-0.1761588786720445,-4.0374497735749083e-07,1.1529629454505271e-07,4.096950089981739e-07
1669909458849199250,14878,1669909458792672696,,0.3898688346517483,-2.069484089465339,1.2716890959244105,0.024999986876059255,0.11500002226894607,0.04199998064672333,2.728047295897391e-77,-1.136934734347864e-77,1.3960601047495066e-78,0.027478103662069486,0.013953684119282883,-0.1875097300498716,-4.019744560092689e-07,1.1565434221240314e-07,4.071700671046946e-07
1669909458965575102,14879,1669909458841321147,,0.4076199275491956,-2.060492834743442,1.2782566033569291,0.06399610063552434,0.13199832788367735,0.03800037914023906,7.816895714697676e-215,5.515011995043546e-215,1.237648577142242e-214,0.031061207280638214,0.014934947120627484,-0.19272254482987528,-4.012101834404857e-07,1.1579060087592123e-07,4.060787117347993e-07
1669909459027083912,14880,1669909458964139352,,0.4185404126820047,-2.0462998181305565,1.2805387367285508,0.06399610063552434,0.13199832788367735,0.03800037914023906,-3.2876321797032986e-65,-8.216891146093528e-65,-6.547286655228746e-64,0.04346703408175756,0.01805113370889977,-0.2110738440366262,-3.990332513059591e-07,1.1617095800796521e-07,4.028071346890448e-07
1669909459402356110,14881,1669909459029393970,,0.4422031411850629,-2.0358377078533048,1.28325129379917,0.10099379832199569,0.14599768002666738,0.03899981320716588,1.9322346580608644e-219,1.3682395746767603e-218,-4.999102738174434e-217,0.04897238664585224,0.01948095082239476,-0.21945062475685972,-3.977414325367946e-07,1.1641819844166878e-07,4.008413551840064e-07
1669909459460212790,14882,1669909459193804366,,0.4723659779862046,-2.015744671353263,1.2918270497784872,0.12099751200406407,0.1529991548478104,0.03999985581985738,3.9764569398443293e-144,4.31419000708907e-143,-4.754010578958899e-141,0.07042442447992237,0.026206366716749585,-0.25634245052558136,-3.943899499203014e-07,1.1727587401429506e-07,3.943687735823194e-07
1669909459471021540,14883,1669909459315502726,,0.4948503820340792,-2.0004782181767085,1.300669775028125,0.1289982286886083,0.1589987026372106,0.03900019802575366,0.0,0.0,0.0,0.08152000117780389,0.03295061132588728,-0.2870143257841633,-3.9345490374788506e-07,1.181171511053291e-07,3.8923597237255115e-07
1669909459529869647,14884,1669909459468937343,,0.5209236950588666,-1.9833892902287906,1.3006993835609266,0.1289982286886083,0.1589987026372106,0.03900019802575366,-2.2690449027955976e-42,-5.001793246818049e-42,-5.985279875383742e-41,0.08335544732927325,0.0383097083311803,-0.30884347734607687,-3.9388327474035767e-07,1.187541386267851e-07,3.8570409017448204e-07
1669909459666052606,14885,1669909459530413344,,0.5311105550873689,-1.9771728438899787,1.3018793631680015,0.12899998403293153,0.15600071365814197,0.017005076226375797,0.0,0.0,0.0,0.08228034708507792,0.04148598545945248,-0.3212176788739036,-3.9449696422035116e-07,1.1913925898124119e-07,3.8383224975255137e-07
1669909459820385808,14886,1669909459666992633,,0.5483435205931922,-1.959443779174585,1.2926458257209907,0.11300186645027299,0.1569999001539375,-0.014996258051042408,0.0,0.0,0.0,0.07414565040336818,0.04932362709882909,-0.34933791594091623,-3.966990505301175e-07,1.2017428374879644e-07,3.7946780352631543e-07
1669909459922042505,14887,1669909459800575185,,0.5620052907668112,-1.9468926759977963,1.2892165339191957,0.09699998350041082,0.1450000165381307,-0.031000024331191412,0.0,0.0,0.0,0.060705970164020684,0.05671646229080096,-0.37500218182079514,-3.992364281254181e-07,1.21091339255845e-07,3.755472599759601e-07
1669909459985034514,14888,1669909459925817084,,0.5799482788653699,-1.9343360500339295,1.2880033738013288,0.09699998350041082,0.1450000165381307,-0.031000024331191412,6.10661406940287e-153,3.6722535659829967e-152,-4.622717074276259e-153,0.046032081249013146,0.06266705774092785,-0.39724199332454013,-4.0168896782325435e-07,1.2180859589772315e-07,3.72079048536398e-07
1669909460140049058,14889,1669909459985355774,,0.5802845622226566,-1.930860953184568,1.2821695674400293,0.07899998349141824,0.13300001493751987,-0.016000024344452368,6.201126289543449e-78,2.6534336607490236e-78,1.3480183463184008e-78,0.03925175240416223,0.06493940219865202,-0.4069056489486069,-4.026902370189259e-07,1.2205043958485443e-07,3.70628186846707e-07
1669909460472614400,14890,1669909460145981951,,0.5952006809148798,-1.919669747758115,1.2800575899112212,0.0710024537734121,0.12300310194246711,-0.006003111723034069,-1.46360391211547e-294,-6.751236953603667e-296,-1.7201686260919555e-292,0.023786443197604257,0.06918697360872272,-0.43077785205457353,-4.0450708766227064e-07,1.2239956904635696e-07,3.6681736776970506e-07
1669909460567684862,14891,1669909460377624212,,0.6159826399515473,-1.9041468229224698,1.2797299307518333,0.06200027516413187,0.11200036830024665,-0.0050000553791890645,6.191756738282431e-79,2.55673400024567e-78,1.982010989473343e-79,0.01185938400114317,0.07046335556377414,-0.46818643869423937,-4.050840849993966e-07,1.2205189643874108e-07,3.612445656835014e-07
1669909461094963111,14892,1669909460569865841,,0.6454903373200048,-1.8972629420939982,1.2705348016657525,0.08299998508131183,0.10800001215979418,-0.006000021999908825,-9.524700769997829e-142,-8.911256390676496e-143,-2.5655670949589017e-141,0.008537509565288204,0.06836998002982853,-0.4950785454685658,-4.0489832351403686e-07,1.2161863258587296e-07,3.5732670174489844e-07
1669909461113824732,14893,1669909460893770152,,0.7071618283792387,-1.9086248856204147,1.2692951603187397,0.13499998603160893,0.08200001097469539,-0.004000020598549061,2.0625591858375527e-65,2.1409844852586194e-65,1.0808797687353676e-63,0.0136588323524105,0.06786909909109795,-0.5186287010864703,-4.034094407679969e-07,1.218664327734738e-07,3.5525442574671737e-07
1669909461564584112,14894,1669909461102412438,,0.7486785234199134,-1.9341081904469855,1.2694364634970299,0.171999986255628,0.04600001040623923,-2.026819834445669e-08,0.0,0.0,0.0,0.024091363573504054,0.07116020622679997,-0.5247863162670932,-4.012988419010285e-07,1.2265351621507106e-07,3.5451441366356554e-07
1669909461600220744,14895,1669909461277164543,,0.7811487535023574,-1.9442314709921544,1.2694505802591347,0.17899649759636246,0.04500050859284222,-2.0462540269720124e-08,4.2168791772922093e-81,1.6867516709168837e-80,1.0795210693868056e-78,0.035323383796654895,0.0751678441000152,-0.5313063829062319,-3.9931239721677506e-07,1.2339388381593686e-07,3.5332762339275156e-07
1669909461601367495,14896,1669909461404853560,,0.8050626121740698,-1.9536419852592177,1.269482409156423,0.1849976672608363,0.04100155517968826,-2.0849275335065384e-08,0.0,0.0,0.0,0.04543803373569055,0.07916056578221209,-0.5386504892413626,-3.975365363845729e-07,1.2406322773902218e-07,3.5206358138877283e-07
1669909461744252648,14897,1669909461565654653,,0.8357156825284129,-1.9653570637687467,1.2696082657684504,0.19099986213008796,0.03900005112389738,-2.1317068851195535e-08,-7.340012086233298e-64,6.585658865299365e-65,3.781987074042368e-63,0.053671841841214984,0.08266215519468467,-0.5456267625291815,-3.9633766372402884e-07,1.245723347951969e-07,3.509280083249448e-07
1669909462131748034,14898,1669909461752519116,,0.8716404522581885,-1.979381975475633,1.2702127478410095,0.1959570267226996,0.038008601453763835,-2.1968822471820787e-08,-4.2870252308414055e-230,3.900568112222197e-229,3.502484095547935e-230,0.06367006219860905,0.08772026850452974,-0.5563892301930782,-3.9486447079100203e-07,1.2535546889027552e-07,3.4916980502285467e-07
1669909462209617000,14899,1669909461879282248,,0.8975764714761382,-1.9914753876386473,1.262282748411929,0.20399812173115225,0.0350007061308669,-2.2594048398212396e-08,6.1436053430816416e-142,-5.477263878143992e-141,-6.282543465079655e-140,0.0680605143588,0.09141659244158618,-0.5603665363270984,-3.946900303255066e-07,1.2596529730657796e-07,3.4978814665500656e-07
1669909462254036504,14900,1669909462017544534,,0.9255167330337972,-2.0066005869686983,1.259378496803743,0.2129979339580222,0.02800160312268974,-2.3388147189671573e-08,-3.3932538178207413e-77,2.04702228649744e-76,1.4857754057145884e-76,0.07011950939843814,0.0952135109857366,-0.5537063452070541,-3.949183386574112e-07,1.2670947874958952e-07,3.520838776448863e-07
1669909462303385890,14901,1669909462163285333,,0.9501817150103136,-2.0276678243829798,1.2593201899060709,0.21599895144967618,0.007007230866639465,-0.001999335991515131,-2.1227798902494154e-64,-6.193065042993496e-65,-1.325692205096539e-63,0.07103886547062466,0.09727887639986577,-0.5443172422330509,-3.9495716874176145e-07,1.2708519473068815e-07,3.5417452305916567e-07
1669909462672841910,14902,1669909462302394462,,0.9718782681339309,-2.047722839566396,1.2580424346703762,0.21400076894765635,-0.012992130316467749,-0.005998452342260456,-1.0223450593858304e-294,6.67868691841266e-294,-1.7516922206170716e-293,0.07384961747474783,0.09850081337394911,-0.5268612649110871,-3.9475566585851545e-07,1.2733277405648582e-07,3.578011213992136e-07
1669909462688964668,14903,1669909462420862285,,0.9896271537019217,-2.0641951086206642,1.249784088999389,0.21000097020686337,-0.023997276600333843,-0.006999777485327543,0.0,0.0,0.0,0.07604139029766444,0.09814915238203703,-0.5127099150675978,-3.946907768098399e-07,1.2737430721815462e-07,3.605407829202305e-07
1669909462689048063,14904,1669909462525123378,,1.0073531292890292,-2.0769431549468913,1.2484310678090933,0.21000097020686337,-0.023997276600333843,-0.006999777485327543,0.0,0.0,0.0,0.07758801746451915,0.09759228192030633,-0.5021750242006249,-3.9466193610043746e-07,1.2738514847299297e-07,3.6236971880197076e-07
1669909462699730817,14905,1669909462587482543,,1.013184088670755,-2.086685892061275,1.2489046375060238,0.20200085779773927,-0.03599867961447325,-0.00999969676578062,3.239746861775941e-141,-2.189122204213291e-141,-3.357568395591802e-141,0.07873559062264235,0.09696338561341733,-0.4933683395723545,-3.9469871093122695e-07,1.2735177536419425e-07,3.63872536323493e-07
1669909462765653916,14906,1669909462695395593,,1.0304522811669725,-2.1001396969250394,1.2486023722634867,0.20200085779773927,-0.03599867961447325,-0.00999969676578062,-8.671257398165689e-142,-2.0003467595357312e-142,-1.1203413176888732e-140,0.08035093196647836,0.09547632117813265,-0.47828453773172797,-3.9478241353215434e-07,1.2724049396675836e-07,3.6651584856011155e-07
1669909463156105470,14907,1669909462762626819,,1.0376126923229774,-2.1105534367985945,1.2414921058141961,0.19600064723903354,-0.04599888414946902,-0.010000024930080322,4.840739893561648e-122,3.8725919148493183e-121,-4.9569176510071274e-119,0.08164250124335837,0.09341519256695285,-0.4631781733160665,-3.9490841413843065e-07,1.2698859413320698e-07,3.6912299121921155e-07
1669909463189430912,14908,1669909462908476485,,1.0572036744777022,-2.130948253431329,1.2388136395269926,0.1920004285635299,-0.053999099490964986,-0.010999913754430568,-1.2438002314093924e-218,-1.417242320226971e-219,-2.1049505377340077e-216,0.08245307982973671,0.089842251180146,-0.4445325949511929,-3.953085979224678e-07,1.264999885752335e-07,3.723335047268973e-07
1669909463189433390,14909,1669909463039980857,,1.0768533509859501,-2.1478522300749097,1.2376816100358723,0.1920004285635299,-0.053999099490964986,-0.010999913754430568,0.0,0.0,0.0,0.08076193484930982,0.08324396810352219,-0.4184340126638446,-3.964417406875723e-07,1.2559260674561365e-07,3.769397220938419e-07
1669909463227745199,14910,1669909463094129324,,1.0806764801040003,-2.154844656174642,1.2375778848240417,0.18300097750665228,-0.05899943741771381,-0.011999914809221938,6.13675814462713e-214,7.12273303675895e-213,2.8149680998310337e-215,0.0807610627161015,0.08324481925869875,-0.41844216031000947,-3.9644030550541007e-07,1.255960429128386e-07,3.768769749671942e-07
1669909463340531398,14911,1669909463229561758,,1.0967842641847068,-2.17291863547839,1.238000179378282,0.17700066403935186,-0.06499930818918226,-0.012999911906764335,0.0,0.0,0.0,0.07484837877795059,0.07451407664481913,-0.3881677251377731,-3.9833043529854347e-07,1.2439738897991768e-07,3.8253631339935116e-07
1669909463604702596,14912,1669909463341114702,,1.1122531551120074,-2.186832645842622,1.2313136777781795,0.17700066403935186,-0.06499930818918226,-0.012999911906764335,5.478912405136153e-44,5.597534390990466e-44,7.983258954459695e-43,0.06951199197303737,0.06770358971075296,-0.3651085979022355,-3.9960936445565427e-07,1.2342725694308552e-07,3.8693117154374565e-07
1669909463642664217,14913,1669909463384466693,,1.1112035180389477,-2.1957999708564677,1.230019125263897,0.16499998275265576,-0.07999998866616123,-0.016000025433871714,0.0,0.0,-3.322755536506293e-116,0.06905992442568376,0.06705893341162295,-0.3629733041027805,-3.996831601350648e-07,1.2334145544678166e-07,3.872371054975496e-07
1669909463642668608,14914,1669909463509490503,,1.1233408940948069,-2.2168005598385188,1.228512465508646,0.16100047897422862,-0.09499812749501818,-0.018999653158526364,-1.719780661792161e-217,-4.710226452354554e-218,1.2551311719616987e-216,0.06197388217031374,0.056111005576706674,-0.32839766871208553,-4.0115381030907355e-07,1.217336139865517e-07,3.931039478642411e-07
1669909463650721920,14915,1669909463619792430,,1.1367162192667182,-2.2321988847341467,1.228078814086636,0.16100047897422862,-0.09499812749501818,-0.018999653158526364,0.0,0.0,0.0,0.05764381536722496,0.04705410845792457,-0.3061113670689828,-4.018978140118359e-07,1.203092292821608e-07,3.962968693171198e-07
1669909463676991324,14916,1669909463651098144,,1.1405659443372873,-2.236529455382616,1.2308844994098407,0.16100047897422862,-0.09499812749501818,-0.018999653158526364,0.0,0.0,0.0,0.056407356425685506,0.04367662799019989,-0.29927714705452146,-4.0208300213653414e-07,1.1976933236015238e-07,3.97255815706659e-07
1669909463795783573,14917,1669909463681912355,,1.1358331696024733,-2.2372804117424487,1.2299216827391042,0.13700245953872217,-0.09400008938106733,-0.0199999214433255,0.0,0.0,0.0,0.05641034160726299,0.043680408021803174,-0.29928993757580535,-4.020547294341539e-07,1.1979001722790589e-07,3.971584842034614e-07
1669909463876692150,14918,1669909463798528982,,1.147854874295757,-2.2522358782787264,1.2207020168175848,0.13700245953872217,-0.09400008938106733,-0.0199999214433255,3.3230302943463024e-141,-9.056589346973931e-144,1.8157783887019826e-140,0.054063428546470504,0.03449703588731623,-0.28408408519223727,-4.0237820790728043e-07,1.1835988886096123e-07,3.9923669686913426e-07
1669909464141221636,14919,1669909463864248798,,1.1467466692338797,-2.2560532225226693,1.220807384135569,0.11699998359975466,-0.08999998528358624,-0.02300002418469359,0.0,0.0,0.0,0.05323586842202843,0.029362929630355694,-0.2768275854426854,-4.0241384381884955e-07,1.1764922273008688e-07,4.0014848662004914e-07
1669909464156256997,14920,1669909464000651536,,1.1546860494350506,-2.2687029213489573,1.2179869586095966,0.10499998407924503,-0.08499998375209439,-0.022000023477611014,5.649412983360167e-221,5.905766771937531e-222,4.733765416941809e-218,0.0509498028066222,0.015724866295219186,-0.26143513680912456,-4.0298757323731954e-07,1.1564675385409051e-07,4.021416355588902e-07
1669909464277256913,14921,1669909464156352015,,1.1642237070658055,-2.2822404032215386,1.2208641066987396,0.09599998444462657,-0.07899998264441438,-0.018000022938799536,5.909401514863655e-218,2.2881438422963964e-216,8.969567662395225e-218,0.0492610216477658,0.00635827701224656,-0.25332810699505437,-4.0317753772072525e-07,1.1410501046299202e-07,4.033292562312082e-07
1669909464400633896,14922,1669909464277981603,,1.1693578919210756,-2.293724374031436,1.220103576174042,0.08599998469643833,-0.07999998176237066,-0.019000022567464223,3.226965144187398e-144,1.3606920286728338e-141,6.253878976731281e-141,0.05046328796206012,-0.008161051984693302,-0.24528028484180986,-4.025812118770201e-07,1.1193939109769934e-07,4.0423827564096054e-07
1669909464669654414,14923,1669909464402902146,,1.177427164026003,-2.3059084970783514,1.2193568316693786,0.08599998469643833,-0.07999998176237066,-0.019000022567464223,5.2379022242125236e-64,-1.7720756318864706e-63,2.1778584565209383e-62,0.05247801626576809,-0.017122662231182417,-0.2416051764163587,-4.0217502175575065e-07,1.1057549400123581e-07,4.0473648141108976e-07
1669909464706199411,14924,1669909464464116057,,1.1757931251449982,-2.3111339255915246,1.2203740969997108,0.0710025044735649,-0.08199964466234383,-0.02199951811139776,0.0,0.0,0.0,0.05473858039274759,-0.02754669050538361,-0.23812726526323402,-4.018277248960042e-07,1.0833898329193622e-07,4.056262214450729e-07
1669909464706538703,14925,1669909464581774253,,1.181766910834547,-2.3223545730419475,1.2185604238736938,0.0710025044735649,-0.08199964466234383,-0.02199951811139776,0.0,0.0,0.0,0.05709421872558096,-0.039102178396316134,-0.23553354783425817,-4.014770422844434e-07,1.0649589620638717e-07,4.0606258452643296e-07
1669909464767501741,14926,1669909464637979043,,1.18216312585034,-2.3242528931952586,1.2174627503159916,0.06299998538230739,-0.07499997970798543,-0.020000021556044408,-2.4727841269455595e-219,-3.0172059075027773e-221,-1.384881570713901e-219,0.0585496718916616,-0.04493912948366585,-0.23447875636245818,-4.012043509065912e-07,1.0577960277006073e-07,4.0621445664055316e-07
1669909464886077251,14927,1669909464768509718,,1.1859867250991218,-2.3343120406964353,1.2206008257168133,0.05700052959379147,-0.07300016016631103,-0.018000202673406036,2.306419514469764e-43,2.6333720405069834e-43,4.331197502872432e-42,0.06090164875554649,-0.05391918790378547,-0.23327916815732053,-4.010253007664651e-07,1.045851806401899e-07,4.0638451584718137e-07
1669909464934944740,14928,1669909464888831520,,1.190799763268032,-2.344332836853345,1.22008031947458,0.05700052959379147,-0.07300016016631103,-0.018000202673406036,0.0,0.0,0.0,0.061680649736119975,-0.06313830468517345,-0.23298268238291797,-4.01178826811828e-07,1.0371213140610952e-07,4.0638393440843044e-07
1669909465075813065,14929,1669909464935516130,,1.1925076448159169,-2.34668803356339,1.219452174001214,0.05599998565469021,-0.06899997803471791,-0.012000021154373892,4.1858594335719694e-157,5.7461041938612e-157,5.590212514355366e-157,0.06177345840466231,-0.06420888104732292,-0.23296547870020134,-4.0125993097029143e-07,1.034778169670069e-07,4.0637575803032805e-07
1669909465199646569,14930,1669909465034186834,,1.1965350623880924,-2.353591422425185,1.2192739132215547,0.055999985735248656,-0.0659999772955171,-0.007000021035578019,3.172319266175574e-223,-2.3031047467588227e-223,-2.553466379810596e-221,0.061310241669714216,-0.06924362410752494,-0.23360619317256237,-4.015496307779172e-07,1.0303469754934266e-07,4.0624523878240255e-07
1669909465213629283,14931,1669909465131587192,,1.2004246263244718,-2.361066850444442,1.2193874404863339,0.055999985735248656,-0.0659999772955171,-0.007000021035578019,6.801085307905326e-220,3.3203239331499743e-220,3.7509785497755065e-218,0.06061756772082916,-0.07074881606063954,-0.2347109984106055,-4.016424750757065e-07,1.0342161247828265e-07,4.059991326477103e-07
1669909465213740123,14932,1669909465182505827,,1.2024553298129972,-2.3649763104105443,1.2198615588736796,0.055999985735248656,-0.0659999772955171,-0.007000021035578019,0.0,0.0,0.0,0.0606255317601363,-0.07022002869638833,-0.23546425286535388,-4.0157545726720656e-07,1.0375059149418295e-07,4.058478229745701e-07
1669909465324876304,14933,1669909465216652656,,1.2042356601417075,-2.367016425786545,1.2198431701350338,0.0569999857894682,-0.06399997684567368,-0.0030000209556229297,0.0,0.0,0.0,0.06062499865234727,-0.07021423844286723,-0.23546448625107885,-4.015757839042082e-07,1.0377136219227435e-07,4.058473793718688e-07
1669909465423733332,14934,1669909465325560426,,1.2085606957144988,-2.3764014006063707,1.2202140814799476,0.05799998588033945,-0.06699997653058812,0.00499997917838075,0.0,0.0,0.0,0.06148820410114908,-0.06682588263704226,-0.23736054473633317,-4.0138470568997025e-07,1.0481715027280497e-07,4.0544264429669607e-07
1669909465693023937,14935,1669909465427070900,,1.2126581474742257,-2.384410026800046,1.2201967157990101,0.05799998588033945,-0.06699997653058812,0.00499997917838075,3.423440876379289e-219,-7.019259483498006e-220,-7.089259500284384e-217,0.061988687704202405,-0.06121259638643295,-0.23940430927958012,-4.015991045673459e-07,1.0605738645929016e-07,4.0503608123580233e-07
1669909465762362479,14936,1669909465462939258,,1.214102380165078,-2.3872428999704107,1.2203544413891796,0.05799998588033945,-0.06699997653058812,0.00499997917838075,-5.824664717090864e-297,4.334131794113618e-297,2.658492164021537e-294,0.06188614758799815,-0.05996405646289915,-0.2398107696418741,-4.017029473523303e-07,1.0631017513761964e-07,4.0495568667428647e-07
1669909465762406453,14937,1669909465484640150,,1.2149759584121742,-2.3889570031886804,1.219949660542199,0.05799998588033945,-0.06699997653058812,0.00499997917838075,2.9024238790650315e-63,8.665166148295067e-65,3.847704066380384e-62,0.061573761447174746,-0.05786093758297994,-0.2404694435090846,-4.0186973739927284e-07,1.0673299940309536e-07,4.048192820611969e-07
1669909465762448942,14938,1669909465519304628,,1.2163709250678325,-2.3916955115093477,1.2200996550026793,0.05799998588033945,-0.06699997653058812,0.00499997917838075,0.0,0.0,0.0,0.060666542045410665,-0.05417584741796233,-0.24157200870426188,-4.022032709682651e-07,1.0742599692139669e-07,4.0461373721373725e-07
1669909465762489298,14939,1669909465558804782,,1.2202337045460756,-2.393766730774168,1.2205989465934184,0.06299998592064894,-0.06299997640839125,0.009999979237823326,0.0,0.0,0.0,0.06066669458864382,-0.05417567339675422,-0.24157160755076035,-4.022035889234481e-07,1.0741887691440004e-07,4.0461807506669007e-07
1669909465800591398,14940,1669909465675273276,,1.2264327965662303,-2.401864153760097,1.2196451052078479,0.06499998575978137,-0.05999997662202973,0.010999979000599265,-7.940793611522564e-44,-9.824936892821327e-44,-1.6949116561343568e-42,0.05753889137988999,-0.04591482007617209,-0.2438478287206607,-4.030338310630981e-07,1.0885420929658456e-07,4.042140654743336e-07
1669909465863215565,14941,1669909465808555208,,1.232835420351122,-2.4117800897959785,1.2200533351358531,0.06499998575978137,-0.05999997662202973,0.010999979000599265,0.0,0.0,0.0,0.051206185477447264,-0.03401152412445363,-0.24661585885613846,-4.040863564487767e-07,1.1050747287453185e-07,4.0388771471013206e-07
1669909465987247576,14942,1669909465869696060,,1.2351745651755486,-2.4170226236476275,1.2196157662378277,0.06399998555107753,-0.061999977086878426,0.011999978692833218,0.0,0.0,0.0,0.04808423605597589,-0.028077719623258446,-0.2476999214497706,-4.0478950024448727e-07,1.117617126066419e-07,4.0369383803436766e-07
1669909466238952979,14943,1669909465986812670,,1.23988359879201,-2.4272953353660225,1.2200546497520932,0.06299998546421026,-0.06599997764416086,0.013999978564734027,-4.5611307239751896e-43,-1.0151038598876467e-42,-2.2915891732369083e-41,0.04387297314496763,-0.018987655210125354,-0.24875940968286514,-4.0540508204154165e-07,1.1323040531669841e-07,4.0358664646357567e-07
1669909466260986324,14944,1669909466099755033,,1.2449062475638757,-2.436332066329729,1.2199893630835301,0.06299998546421026,-0.06599997764416086,0.013999978564734027,0.0,0.0,0.0,0.039485725829930374,-0.00946980062748537,-0.24952806639766756,-4.0617889032748083e-07,1.14691361935932e-07,4.034925434709714e-07
1669909466298311712,14945,1669909466160080531,,1.247947561814734,-2.4428489923564243,1.2207930090527943,0.06499998550492947,-0.06999997824424094,0.014999978624780785,-4.049945736007188e-297,2.0228249770057e-293,8.606190449728965e-295,0.0376930475735513,-0.0053463095930972315,-0.24979289553982653,-4.0644503361701493e-07,1.1543071603710769e-07,4.0345374648935456e-07
1669909466408134345,14946,1669909466295333534,,1.2541031819854027,-2.4542680511077197,1.219784655604658,0.06499998550492947,-0.06999997824424094,0.014999978624780785,0.0,0.0,0.0,0.03476823199829937,0.0033173026075008494,-0.2502412507136711,-4.067781280889213e-07,1.1674749680286482e-07,4.034037793001487e-07
1669909466759249330,14947,1669909466407302010,,1.2576913383473554,-2.4657957387878287,1.2199950767713128,0.06299998556632601,-0.07499997878697376,0.01399997871531946,0.0,0.0,0.0,0.0332275768898711,0.010691355033245031,-0.25052669496844615,-4.0686718170323125e-07,1.1769280668257937e-07,4.034079861960318e-07
1669909466775255703,14948,1669909466559178973,,1.2623854215068497,-2.4803026678349136,1.2204792886107902,0.05999998559048147,-0.07799997936137351,0.012999978750940413,0.0,0.0,0.0,0.03260421764547239,0.01837746457598044,-0.24969250742375415,-4.0692010308921655e-07,1.187446945334165e-07,4.038309610717562e-07
1669909466911215572,14949,1669909466752766658,,1.2680134061108057,-2.500876506647849,1.224191939011212,0.05799998561451605,-0.08399997972757348,0.01199997878638312,0.0,0.0,0.0,0.032804049100978006,0.024726231694375045,-0.24467391013783768,-4.069407415296044e-07,1.195338843479067e-07,4.05153266147799e-07
1669909467264561926,14950,1669909466910808908,,1.270457829817578,-2.5193262913474705,1.2297431211113745,0.05199998548121298,-0.0939999806759981,0.008999978589807148,1.7845568660566033e-143,4.790232020350452e-140,4.850414315678282e-140,0.03342051497441645,0.02735896777159752,-0.23712446422685218,-4.0688666602877756e-07,1.1972003410177064e-07,4.0680564157513774e-07
1669909467345283482,14951,1669909467054725582,,1.2746152665259995,-2.5342624262133633,1.230041481918265,0.05199998548121298,-0.0939999806759981,0.008999978589807148,1.1869300189018499e-65,1.3218403584389696e-65,1.3883184064384179e-64,0.034977386692217394,0.026685904508088498,-0.22600181823348642,-4.066685253102758e-07,1.1928527498973692e-07,4.0896844660776405e-07
1669909467345910728,14952,1669909467121374708,,1.2740386425833878,-2.543002750408707,1.229868777245693,0.04699998539237506,-0.09999998079618584,0.005999978458801931,0.0,0.0,0.0,0.035777898982038536,0.025434268816454164,-0.2211251436556072,-4.0655932266522186e-07,1.1891411392060442e-07,4.1001826276991823e-07
1669909467439015154,14953,1669909467279262552,,1.275567323962408,-2.560709025166389,1.229945680717505,0.042000490373380404,-0.10299967770584524,0.0010004834102041215,5.339728751004676e-44,9.136131727412923e-44,2.4549633108936975e-42,0.037330079602817534,0.021300785623322938,-0.21068030510277325,-4.0639954674583266e-07,1.1798906932916527e-07,4.121220607176915e-07
1669909467782950465,14954,1669909467446496458,,1.2768359916689094,-2.5806776099283324,1.22992189495316,0.0380004254629368,-0.10799943029186101,-0.0019996915458277203,2.673937490731597e-213,2.5769167070203344e-215,1.9724439885651107e-213,0.03973158338178884,0.009478424459949508,-0.18753869215871788,-4.062131807086142e-07,1.1576787292786784e-07,4.1671039299561806e-07
1669909467801749486,14955,1669909467576661969,,1.2774355201183458,-2.5975409690322406,1.2298714218311129,0.03500061514721171,-0.11399872034997695,-0.002999811706296531,-3.4855458215744214e-76,-1.0633282533460035e-76,0.0,0.040242825867848,0.0011986056103410192,-0.17271800787414193,-4.0634171143147587e-07,1.1434439756333322e-07,4.193954031929258e-07
1669909467801830211,14956,1669909467698332645,,1.2793285965270924,-2.6119126867833633,1.2295829240313196,0.03500061514721171,-0.11399872034997695,-0.002999811706296531,-2.3636425261531484e-125,1.210184973390412e-122,7.745183829698637e-121,0.03974480543517167,-0.007586947449995662,-0.1585005981996801,-4.066244464390707e-07,1.1293282958622024e-07,4.216991980060486e-07
1669909467909985920,14957,1669909467737904801,,1.2806424177304643,-2.6177994953292982,1.2306921718074688,0.03699998530880857,-0.11699997951174347,-0.020000021664429758,-3.463022941282011e-77,-2.9394532886288395e-77,-6.407861568888006e-78,0.039016800076709046,-0.012485977611861543,-0.15118724641336811,-4.0687385516433847e-07,1.1221776562038558e-07,4.228642085818076e-07
1669909468088410649,14958,1669909467911430270,,1.2812301617124016,-2.6357302285793147,1.2277840124740935,0.027999985477825798,-0.11099997786693522,-0.035000021415187765,0.0,0.0,0.0,0.03407914558490788,-0.022962776720413913,-0.1333043074547824,-4.081674981030606e-07,1.1111382641934762e-07,4.25517995476042e-07
1669909468342773266,14959,1669909468078112574,,1.2842857548585682,-2.650580419008656,1.2190489702472997,0.027999985615027652,-0.10199997712639057,-0.041000021212862454,0.0,0.0,0.0,0.024841190337456354,-0.028603994115457,-0.1181914824314827,-4.1020359348800466e-07,1.1079158154608287e-07,4.277630615301568e-07
1669909468374737491,14960,1669909468230572467,,1.2876637499889736,-2.6646891603949863,1.2087185209145535,0.028999985845173895,-0.09799997620514939,-0.04500002087347628,0.0,0.0,0.0,0.012098638148300367,-0.03019852885780594,-0.10536718442229187,-4.126208443309006e-07,1.1105778381847212e-07,4.296859617431563e-07
1669909468517202825,14961,1669909468383983463,,1.2915711126729204,-2.6770437241445326,1.2008281498737705,0.029999986153942157,-0.09099997543749258,-0.04800002041814981,2.968002434888539e-109,-9.361610669141641e-108,-6.175689289455818e-105,0.0006667700155738032,-0.027142320318755964,-0.09612159648039764,-4.1441306037453653e-07,1.121954266893483e-07,4.3091674931987623e-07
1669909468845206991,14962,1669909468523769347,,1.2968391355977156,-2.6903533680680893,1.1969137104596117,0.03499947877435796,-0.09099997486540483,-0.04700012131769518,0.0,0.0,0.0,-0.011253874254030904,-0.018168048533215853,-0.08614597937987867,-4.1611847889604114e-07,1.1429423154887206e-07,4.3254714879798494e-07
1669909468858607214,14963,1669909468658468507,,1.3024909105285605,-2.7048857326581563,1.1825996999604673,0.03999952574026663,-0.09499960541757672,-0.04700001896780517,5.451399439337154e-231,-8.085206406721071e-230,-4.698090708395266e-232,-0.01875041274477951,-0.009467038853610887,-0.07916526519189482,-4.1729003252571906e-07,1.1590117543368349e-07,4.3376115077919787e-07
1669909468858635362,14964,1669909468764760543,,1.3059775208007869,-2.7153851126042903,1.1801907702727785,0.03999952574026663,-0.09499960541757672,-0.04700001896780517,6.943426673762128e-290,7.833398253728596e-291,1.7326427669598778e-290,-0.023287356413526084,-0.0019498464457008424,-0.07258119428645493,-4.176548172328441e-07,1.171398377640962e-07,4.3521420255795017e-07
1669909468941842815,14965,1669909468808664167,,1.3065432491365547,-2.721947711451394,1.1777195552432624,0.03799998770355357,-0.10099997438439581,-0.05700001813300856,1.0859426063363874e-218,1.4510865289619168e-217,-3.317247679839785e-216,-0.02503792928398596,0.0024509315262832843,-0.06794720630866102,-4.1785667447263773e-07,1.1787481866596433e-07,4.3620264187349966e-07
1669909468998966607,14966,1669909468948014165,,1.3108713754838919,-2.7365346867539264,1.1617967876708166,0.03799998770355357,-0.10099997438439581,-0.05700001813300856,0.0,0.0,0.0,-0.027490926957637996,0.012109898414687237,-0.05584209045393784,-4.181277176085438e-07,1.195083594101942e-07,4.388056985539812e-07
1669909469226429836,14967,1669909469007593206,,1.3112178104222005,-2.746565097877662,1.158114083902606,0.035000521925959954,-0.10999837272261573,-0.06899788195891766,5.028445564469059e-293,-7.223793375917315e-289,-1.7257417278513732e-289,-0.02818178515126135,0.017506116672223015,-0.04760589506092572,-4.1813783142376707e-07,1.2019772998268874e-07,4.402412643599406e-07
1669909469315580074,14968,1669909469160578460,,1.3152710243799535,-2.770316907719482,1.1494268202608922,0.034999988297254835,-0.12499705228208936,-0.0769984585123426,2.5236868892408154e-139,4.0383864977790374e-139,1.2685953119933802e-138,-0.02747968511238774,0.028959354876430865,-0.02771326528154283,-4.177532401572342e-07,1.2195380002909378e-07,4.439364355092836e-07
1669909469552470672,14969,1669909469323848717,,1.3186481367643292,-2.7925819234200913,1.135568044248994,0.03200053258784588,-0.12799942992121294,-0.0919972952054843,2.11737696312509e-295,2.0819416789078317e-297,1.5363963889583407e-293,-0.023430646491432228,0.03917129853543422,-0.007939133309728064,-4.1712568031420743e-07,1.232938653009488e-07,4.46856825516234e-07
1669909469600817158,14970,1669909469471730701,,1.3164947104848983,-2.810973261193003,1.1203706285284456,0.018002506208866724,-0.12600033446536835,-0.10599749904272056,3.982729777831131e-59,1.9913648889155653e-59,1.2744735289059618e-57,-0.020671268205596505,0.04486905777518935,0.004861590440299324,-4.1706278394460197e-07,1.2385856339469483e-07,4.485204927009881e-07
1669909470086179604,14971,1669909469607463814,,1.3158409052552915,-2.828359588972935,1.0991560605325066,0.01200042267630055,-0.12599997485815867,-0.1089998003517463,-2.23698476081535e-222,-3.000940168734578e-221,2.1155812041752316e-218,-0.02186209456857746,0.04734238223912968,0.009193309762869362,-4.1802880025044364e-07,1.237038882732291e-07,4.47090182763787e-07
1669909470088472231,14972,1669909469748591405,,1.3118380441456454,-2.8375078010746155,1.0828559315391595,2.960718780788129e-06,-0.10400542542902272,-0.11599828397397365,0.0,0.0,0.0,-0.031219716044994072,0.04336009269730923,-0.011726276191536655,-4.2036642606625683e-07,1.2234376756899e-07,4.4059868849990484e-07
1669909470090143699,14973,1669909469879681585,,1.3109873305336077,-2.8516219167759407,1.06976660072513,2.960718780788129e-06,-0.10400542542902272,-0.11599828397397365,-9.183205657395299e-143,1.8327535865494453e-142,1.537280776143454e-141,-0.04130890962736267,0.03665815323705779,-0.03328396100371123,-4.2242432283742495e-07,1.209604133758406e-07,4.3685873195678545e-07
1669909470135212048,14974,1669909469929582458,,1.3027740033728967,-2.8436547640111307,1.0649736309135718,-0.017992803474606058,-0.07401199042915456,-0.11100202011712991,0.0,0.0,0.0,-0.04815587951381772,0.03166989033243084,-0.044978186710928014,-4.2366796530914623e-07,1.2002982856929686e-07,4.3521766343261117e-07
1669909470619857527,14975,1669909470136509514,,1.2997451282843004,-2.8668107103986467,1.0533698080255123,-0.01300256930962939,-0.08899230012022542,-0.10600257992986603,0.0,0.0,0.0,-0.07004467650870971,0.01154950568465729,-0.07358828970888709,-4.2669461569292714e-07,1.166973676236043e-07,4.318066986967319e-07
1669909470619875663,14976,1669909470274872632,,1.2945747993452499,-2.8895793752736916,1.040531787894449,-0.01699898230960751,-0.11099430862446272,-0.10000156328590527,-8.510463857693158e-145,-4.7398197942306895e-142,-2.273822975663555e-141,-0.07762238239026686,-0.0022578517962550393,-0.08349786963077577,-4.2739623672083587e-07,1.1426638531732852e-07,4.3090393540720686e-07
1669909470620012148,14977,1669909470424476911,,1.2883339846177502,-2.9165287740739223,1.0342778809179731,-0.0209993044404393,-0.13499573991040342,-0.09400107478072921,9.723666628243425e-78,-1.7656821304696364e-78,1.916904655659627e-77,-0.07967214556956215,-0.017800033045141106,-0.08417079471810851,-4.267832709783207e-07,1.1179126065521777e-07,4.318306327037639e-07
1669909471162072117,14978,1669909470581191628,,1.2821141441959027,-2.9554779853208726,1.0284515291244711,-0.021000009663407353,-0.17299172503622087,-0.08900110029007724,0.0,0.0,0.0,-0.07256107125172129,-0.032864260142314805,-0.08112568462218661,-4.2449101765953177e-07,1.0975179736954774e-07,4.323422552749141e-07
1669909471167863961,14979,1669909470750556129,,1.275610288599713,-2.9906764160838417,1.0213350786730937,-0.021999857648073648,-0.18499815836997638,-0.07900152695963668,0.0,0.0,0.0,-0.05742803398265117,-0.04418350799855375,-0.07871946303269262,-4.2143867035943905e-07,1.0825576632011635e-07,4.325561487884787e-07
1669909471168227281,14980,1669909470878861899,,1.2724087299382063,-3.0217588148409487,1.0194087596099932,-0.01800037152793066,-0.2009985227356374,-0.0720006479834387,6.679867908087978e-143,3.8046984868287594e-144,1.2271415956047028e-141,-0.043918824317088934,-0.05170066908201143,-0.07760482847081107,-4.19531009252518e-07,1.0730785430388368e-07,4.3261135926082105e-07
1669909471180172437,14981,1669909471024028659,,1.268522275981669,-3.0540223984141397,1.0082775890116342,-0.01600036124555709,-0.20799873960825313,-0.06400142321148117,2.5889432494037546e-156,-4.249180814250655e-155,5.532919558956971e-156,-0.03185452534144417,-0.05805116865465898,-0.07699349620358475,-4.1786019059201447e-07,1.0649927219651673e-07,4.3264194050142353e-07
1669909471708459764,14982,1669909471169711500,,1.2670861842490397,-3.0853205281697185,1.0085816219214132,-0.009000694214821442,-0.2099997773870248,-0.06400001369218247,0.0,0.0,0.0,-0.021143075487222163,-0.06284824530981226,-0.0769397969357577,-4.16773010306269e-07,1.0616179012510678e-07,4.3262807649271736e-07
1669909471724279754,14983,1669909471337514894,,1.2641622611277497,-3.1213722446475685,0.9972474735212773,-0.007000189661916307,-0.21199979296930715,-0.06000037406632052,0.0,0.0,0.0,-0.016380243489303226,-0.0633590297961284,-0.07689296277867541,-4.1688785455940604e-07,1.0676785745169483e-07,4.3269363786114436e-07
