%time,field.header.seq,field.header.stamp,field.header.frame_id,field.position.x,field.position.y,field.position.z,field.velocity.x,field.velocity.y,field.velocity.z,field.acceleration.x,field.acceleration.y,field.acceleration.z,field.orientation.x,field.orientation.y,field.orientation.z,field.angular_velocity.x,field.angular_velocity.y,field.angular_velocity.z
1669909568934831050,15998,1669909568762915255,,-2.0737246565592637,-5.2417185411455955,0.7230831731929288,-0.06699973600289849,0.036999070700586466,-0.17800279284044823,0.0,0.0,0.0,0.0830288126345664,-0.007467260822242139,0.5011386062635523,-4.4391070078099726e-07,1.1121923510630396e-07,5.700995079380843e-07
1669909568979212672,15999,1669909568803781980,,-2.0774123429400113,-5.23621931309524,0.7167140123350052,-0.062022853256934705,0.048945221741810256,-0.15311423391819276,-1.6734776910834826e-220,-4.960466630188651e-219,2.171546442966676e-217,0.08958481761837334,-0.007984448881956041,0.5006912205843044,-4.4259155209265854e-07,1.1114704559690227e-07,5.698785409405104e-07
1669909569042861070,16000,1669909568929643132,,-2.087946277453742,-5.232886560703317,0.7018313408868152,-0.062022853256934705,0.048945221741810256,-0.15311423391819276,0.0,0.0,0.0,0.1025430059982142,-0.007392538259725967,0.49840285554326336,-4.40612999095033e-07,1.1150324248165418e-07,5.692324229034451e-07
1669909569209458913,16001,1669909568988207307,,-2.093985612653475,-5.225837711166845,0.6988964623815933,-0.05800050328442224,0.06299833973986961,-0.13600209680318542,1.8674301061337585e-64,2.59023066334764e-65,3.409851953326409e-63,0.10901875537822114,-0.006397984549682434,0.49678691956083654,-4.3962914123784323e-07,1.1179811878101665e-07,5.687845719693911e-07
1669909569248575731,16002,1669909569149554209,,-2.108141057275505,-5.219045399799582,0.6848927986064773,-0.05800050328442224,0.06299833973986961,-0.13600209680318542,-4.533934140764584e-77,-1.5550127580613504e-76,-4.6148815831142584e-77,0.12591251306892914,-0.0012702858882533974,0.4907080826512207,-4.3720285158103966e-07,1.1275538373672995e-07,5.673813388398291e-07
1669909569649049575,16003,1669909569195109509,,-2.1108010907330335,-5.211166483889922,0.6792780432799738,-0.04800156457019877,0.07599803115761429,-0.12000250130741355,0.0,0.0,0.0,0.12825194736267598,-0.00021696462473208555,0.48948762067691476,-4.370507505544672e-07,1.128793005753319e-07,5.671712988332367e-07
1669909569789956632,16004,1669909569308617242,,-2.120471055453134,-5.204532792632429,0.6678616003236423,-0.04800156457019877,0.07599803115761429,-0.12000250130741355,0.0,0.0,0.0,0.1381623913026111,0.004688548153170657,0.48373163673266006,-4.358280734665907e-07,1.1351510882661615e-07,5.660902800760044e-07
1669909569789998839,16005,1669909569376916798,,-2.1263244078290247,-5.200470312857336,0.6614373715812863,-0.04800156457019877,0.07599803115761429,-0.12000250130741355,0.0,0.0,0.0,0.14245821055876462,0.007097364064238221,0.48079618326667095,-4.3527943492439467e-07,1.1381650226691456e-07,5.655258587922999e-07
1669909569795525500,16006,1669909569418658897,,-2.130591100322467,-5.192397073160977,0.657492511216219,-0.04400070786535811,0.08799797450917493,-0.10700226726581517,0.0,0.0,0.0,0.14676218438281197,0.00965361346900373,0.47754172201423195,-4.3460766159580794e-07,1.1420865782398685e-07,5.647875249010033e-07
1669909569830934911,16007,1669909569559866454,,-2.1434658702839187,-5.17815259688494,0.6426968643342269,-0.04100051793157007,0.09799838096178523,-0.09700168964522217,6.379442852514778e-77,-1.380106309980152e-78,-1.5195809295045793e-77,0.15417491974234565,0.014631707017723983,0.4704970830353794,-4.3373610609754556e-07,1.147298011389145e-07,5.634849952111136e-07
1669909569847085533,16008,1669909569699499428,,-2.1557850937938574,-5.166726356235233,0.6373104741087814,-0.04100051793157007,0.09799838096178523,-0.09700168964522217,3.9502598220742334e-143,-1.5647995462145744e-142,-2.321611403157525e-141,0.16132527393980922,0.020273460386784237,0.4610632583616976,-4.330755567590197e-07,1.1520430235728232e-07,5.619296612521172e-07
1669909570232811887,16009,1669909569764319402,,-2.1646860071915417,-5.15703598221699,0.6322846341922201,-0.04299981610801339,0.109998812019844,-0.09000074732420914,-1.222077448885422e-78,2.5144469190637066e-77,-5.229160046166692e-78,0.16375913780864515,0.022715587637685886,0.45657108550125436,-4.3273214804894616e-07,1.1553009507857037e-07,5.608052155003152e-07
1669909570294531587,16010,1669909569953768870,,-2.184503547659433,-5.134185797210663,0.6218082682371766,-0.04200382411414274,0.12394679107168362,-0.08103426283938034,-1.6210940270736043e-64,2.0879639692628345e-63,-1.389397660075858e-63,0.16433613350187493,0.028108336166368986,0.4428388174041302,-4.3340440722459296e-07,1.157868252827906e-07,5.583840258022213e-07
1669909570309931811,16011,1669909570086770308,,-2.1995230305112052,-5.114567071066549,0.6142637682607003,-0.04100168502826526,0.13897510436145877,-0.07301334076671166,-3.199218212731994e-67,-4.997718632175658e-68,-1.0199087491676516e-65,0.16162154662139194,0.029917509563610167,0.43501417388145747,-4.340884074931495e-07,1.1577539220561329e-07,5.568830219582234e-07
1669909570347436732,16012,1669909570234971715,,-2.214480067400596,-5.096941430114792,0.608213922710587,-0.04100168502826526,0.13897510436145877,-0.07301334076671166,-9.827710389526805e-221,1.9472139302279145e-219,1.146691073436605e-219,0.15734190562858252,0.03124911324521662,0.4259030048084611,-4.348857002219792e-07,1.1568097039734503e-07,5.55298980115402e-07
1669909570740622722,16013,1669909570292245191,,-2.223212571791033,-5.088268861208031,0.6009530401862506,-0.04499962418885177,0.1459993377658706,-0.06500083189277917,-1.653233973589011e-221,4.2746463733222345e-221,6.208449403014835e-219,0.15424542405223285,0.03184740427949784,0.4201095847152452,-4.3556315069067507e-07,1.1558261872485778e-07,5.543537182875797e-07
1669909570815153622,16014,1669909570458364541,,-2.2405041639638075,-5.064243310539553,0.5962567001681841,-0.042000463911478374,0.15299900728564267,-0.061000621951448654,2.94405914159785e-197,9.301325245472588e-196,3.60388334845859e-197,0.14761099973828706,0.032462429850449226,0.4111199488309474,-4.3713026816047856e-07,1.1541464117274827e-07,5.524044780510641e-07
1669909570815192710,16015,1669909570593249281,,-2.255829881005251,-5.0501003539888005,0.5902803395125313,-0.04980959343272126,0.1471428413948049,-0.05123809600674765,0.0,0.0,0.0,0.1367189064466583,0.0340193613600821,0.3904041310555506,-4.3864479598844456e-07,1.1517209801531864e-07,5.479879080596128e-07
1669909570830464978,16016,1669909570690679776,,-2.266047850629742,-5.038088368436765,0.5898882234331648,-0.04980959343272126,0.1471428413948049,-0.05123809600674765,0.0,0.0,0.0,0.1317946725495034,0.034958642191462275,0.3766348453529602,-4.3919460155544325e-07,1.1503469254466911e-07,5.458140673659551e-07
1669909570830468574,16017,1669909570724979193,,-2.2695997021464396,-5.033827965658709,0.5888711081065051,-0.04980959343272126,0.1471428413948049,-0.05123809600674765,0.0,0.0,0.0,0.13091359925311075,0.035133272870780274,0.37388611582262143,-4.392981832044856e-07,1.1501276896924326e-07,5.454008905269613e-07
1669909570830536458,16018,1669909570746447314,,-2.271820542336267,-5.0311597380137245,0.5882335621633241,-0.04980959343272126,0.1471428413948049,-0.05123809600674765,1.259313874947409e-294,-4.666091237447771e-293,-1.5274621846739757e-293,0.12967320567986107,0.035373988117502364,0.36991083642302414,-4.3944809321647986e-07,1.1496182277466045e-07,5.448101363452228e-07
1669909570861204401,16019,1669909570774585625,,-2.274711518592339,-5.027648531826235,0.5813702645028985,-0.04980959343272126,0.1471428413948049,-0.05123809600674765,0.0,0.0,0.0,0.12890116946817898,0.03552043984352515,0.3673738359696159,-4.3954329409934586e-07,1.1493790410115863e-07,5.444296623704936e-07
1669909571273259739,16020,1669909570804181840,,-2.2832010721233402,-5.024298059008202,0.580515223226443,-0.061992568681662946,0.15199706641823685,-0.046003234794193104,0.0,0.0,0.0,0.12791467564486858,0.035699998029901536,0.3639640655986778,-4.396408013857077e-07,1.1490128837535539e-07,5.439848479881692e-07
1669909571339712223,16021,1669909570940659052,,-2.29875625086721,-5.007171089566379,0.5789154298103475,-0.061992568681662946,0.15199706641823685,-0.046003234794193104,1.656084321055619e-170,4.140210802639048e-171,8.280421605278095e-171,0.12402226143149342,0.03637342499031959,0.34945791958962147,-4.400699767075719e-07,1.1473817607323606e-07,5.41968911889461e-07
1669909571339718025,16022,1669909570993933684,,-2.3046985712550363,-4.999447341893368,0.5800593230984736,-0.061000067460509864,0.15499989408654968,-0.042000218850394136,1.4888829471282773e-106,5.686584881182193e-107,-6.4469546849074984e-105,0.12274683968600897,0.036622710557452365,0.34401373396772783,-4.40173724266235e-07,1.1469099651917475e-07,5.41264202765233e-07
1669909571339827979,16023,1669909571090858227,,-2.315519887722443,-4.986853682415563,0.5801303880895302,-0.061000067460509864,0.15499989408654968,-0.042000218850394136,0.0,0.0,0.0,0.12088103314288645,0.037124344696851,0.33455529615123325,-4.4032537766042083e-07,1.1461299259879925e-07,5.398434913548438e-07
1669909571340176552,16024,1669909571133405999,,-2.3202244050677665,-4.981288728763303,0.5792486776002512,-0.061000067460509864,0.15499989408654968,-0.042000218850394136,0.0,0.0,0.0,0.12088101527677253,0.037124346768013794,0.33455531955689466,-4.4032537766042083e-07,1.1461299259879925e-07,5.398434913548438e-07
1669909571386267745,16025,1669909571153867792,,-2.320973854985346,-4.976967649047796,0.5786028264191022,-0.05600393730771963,0.15699846806714166,-0.045996896806736375,1.7869803261903733e-308,-2.022286654554859e-308,2.9427486010395e-310,0.12026310569008558,0.03741810895307651,0.3294412759880192,-4.4032099950015124e-07,1.1457461395442123e-07,5.390691814414798e-07
1669909571398759194,16026,1669909571256540682,,-2.3318540353861303,-4.963070425075429,0.5695474568971239,-0.05600393730771963,0.15699846806714166,-0.045996896806736375,-1.5566776761499046e-222,-1.72879981538052e-221,-7.818074814469616e-220,0.11994876712557812,0.03766266159344411,0.32525628269615936,-4.403161216770269e-07,1.1454179638896033e-07,5.384408083442133e-07
1669909571399004761,16027,1669909571312028011,,-2.337696109516348,-4.955530989673703,0.5698596796245303,-0.05600393730771963,0.15699846806714166,-0.045996896806736375,-1.638103433760626e-64,-1.8210865768307054e-63,-2.4162186627234865e-63,0.1197758675603211,0.037934318437244485,0.3205899872295461,-4.402781229619584e-07,1.1450115329029123e-07,5.377191977419505e-07
1669909571778500640,16028,1669909571348636769,,-2.342618609991272,-4.950926787873277,0.56895798266974,-0.05899995047244353,0.15700003435705942,-0.046000029323448655,0.0,0.0,0.0,0.11988612185491476,0.03817532669832602,0.31673843878828833,-4.401633884392171e-07,1.1449458352814658e-07,5.372902717657139e-07
1669909571900206811,16029,1669909571453840294,,-2.3538771480312435,-4.936637061954481,0.5678288721599335,-0.05899995047244353,0.15700003435705942,-0.046000029323448655,-6.858467055981986e-155,-8.726807480117497e-155,5.770009229431413e-154,0.12061844472552963,0.0386895793809412,0.3096494811158905,-4.399191238021086e-07,1.1444961853292981e-07,5.361112166458705e-07
1669909571900226288,16030,1669909571494472440,,-2.358203154979427,-4.931099431916227,0.5618870430865742,-0.05899995047244353,0.15700003435705942,-0.046000029323448655,1.3721724842908849e-77,-1.814944797906567e-77,1.6192816040802084e-78,0.12127977861428185,0.03898974697175994,0.30573860305575273,-4.3977706032091184e-07,1.1443517520572726e-07,5.354318528548508e-07
1669909571900246434,16031,1669909571528909207,,-2.3612658278279754,-4.925666017523906,0.560957949102869,-0.05700059679564485,0.15799974556806903,-0.047999452013078064,3.6936609004964772e-155,2.7854693729031837e-154,-1.3400431699537033e-154,0.12151927043532318,0.03910351298037362,0.3043477391750766,-4.397397435561012e-07,1.1443094470570142e-07,5.352022327484936e-07
1669909571900265894,16032,1669909571628937345,,-2.3716609601748337,-4.911766624593803,0.559406704512019,-0.05700059679564485,0.15799974556806903,-0.047999452013078064,-9.807247471494589e-144,6.083746531498794e-142,-3.464392842728536e-141,0.1224817895644712,0.039688823225915826,0.2984603027497954,-4.3961667515544476e-07,1.1445043077942482e-07,5.341737325150579e-07
1669909571900285552,16033,1669909571678589025,,-2.376789278495111,-4.904841521157561,0.5609009972101705,-0.05700059679564485,0.15799974556806903,-0.047999452013078064,0.0,0.0,0.0,0.12288052628805879,0.04013391719550796,0.29505571238162354,-4.3961584169292225e-07,1.1449105175597633e-07,5.335676832925118e-07
1669909571986166853,16034,1669909571717963087,,-2.3808489502325623,-4.899344061597376,0.5598777738071428,-0.05700059679564485,0.15799974556806903,-0.047999452013078064,9.002113510949532e-217,1.0686063581026372e-216,-5.313302733765956e-216,0.12298850531149341,0.04059726388061513,0.2922869067447298,-4.396521176418137e-07,1.1453488801304787e-07,5.331550052286118e-07
1669909572356173702,16035,1669909571755142980,,-2.3842330058585643,-4.8922604115249895,0.5590650743981587,-0.05500119380580627,0.16299709889491884,-0.040004724006300535,0.0,0.0,0.0,0.123067479214086,0.04101158101015656,0.28993072050065294,-4.396880456004501e-07,1.1459722242709653e-07,5.326797345977342e-07
1669909572356209301,16036,1669909571948924831,,-2.4036919397583656,-4.86410654294073,0.5504442482591482,-0.05500119380580627,0.16299709889491884,-0.040004724006300535,0.0,0.0,0.0,0.12217143552259913,0.04391780187819805,0.27776547082637215,-4.399757086073651e-07,1.1491621381257792e-07,5.305739653306719e-07
1669909572358209756,16037,1669909572049648522,,-2.4145064543113346,-4.849498462480313,0.5496682617539574,-0.05699934877916229,0.1639996965804506,-0.03400204447289197,-7.077173089742748e-223,1.007211591341196e-221,-6.7287436075056275e-220,0.12114987905869157,0.04564243480639618,0.2716127290680994,-4.402258535050722e-07,1.1508428460149349e-07,5.295746381723009e-07
1669909572437046394,16038,1669909572207191741,,-2.4272589243015443,-4.8261121045332835,0.5491026513541235,-0.051003280799731154,0.16300057623467096,-0.033000573769348035,-3.097910002260074e-66,-6.861730411744274e-68,3.570970313037925e-65,0.11769153378648944,0.04873190078755307,0.26077159263892113,-4.410025099551732e-07,1.154028338624317e-07,5.276513870724223e-07
1669909572770094842,16039,1669909572377341826,,-2.443634688743651,-4.800116578234524,0.5415382780558449,-0.05199951013116697,0.16499901004204703,-0.03499900685566283,-2.392381118595337e-155,-1.2952611821820679e-155,-8.20220976537245e-156,0.11399160610870318,0.05139278194491226,0.2522688478127364,-4.41657306159036e-07,1.1571773711959595e-07,5.261350333438475e-07
1669909572907631241,16040,1669909572514637568,,-2.45613147642455,-4.778528736610131,0.5399374599755631,-0.05100063548859671,0.16699879882381774,-0.035000028295390034,-4.6625232199326895e-105,-4.159532653576173e-106,-5.979157946570462e-105,0.10935749988511212,0.05444988607946577,0.2426333226512547,-4.42474701124226e-07,1.1602073522881448e-07,5.244684584585723e-07
1669909572907676671,16041,1669909572627263415,,-2.4663702081448373,-4.761272564409758,0.5383754097917102,-0.05100063548859671,0.16699879882381774,-0.035000028295390034,-6.306415552507104e-307,-4.304156055095708e-307,2.939707556055728e-306,0.10590112288187825,0.05612829230513228,0.23642715070913312,-4.4307399240493674e-07,1.1614427483361193e-07,5.233991502442769e-07
1669909572908144722,16042,1669909572660372844,,-2.469361525782954,-4.756191032304687,0.5400609143007125,-0.05100063548859671,0.16699879882381774,-0.035000028295390034,0.0,0.0,0.0,0.10488494242207658,0.056538662608140555,0.23469340910988734,-4.4325897406227767e-07,1.1617525695136047e-07,5.23101175557086e-07
1669909573014254106,16043,1669909572685416199,,-2.4708596042839672,-4.752485729444847,0.5396809148621211,-0.049000826781268915,0.1660004342888413,-0.03599962490346397,0.0,0.0,0.0,0.10419244520942605,0.05679099599095494,0.23353819466013093,-4.433764501968328e-07,1.161840369293351e-07,5.229064857405714e-07
1669909573014952414,16044,1669909572784894798,,-2.4795714681659984,-4.737229580410618,0.5313652666470788,-0.049000826781268915,0.1660004342888413,-0.03599962490346397,-3.303302979203879e-219,1.0827617947231716e-218,-3.9197083479044934e-218,0.10026906921611989,0.05785955728844172,0.22758562127356008,-4.441012603996018e-07,1.1621417385879333e-07,5.218851205643126e-07
1669909573032305356,16045,1669909572861842180,,-2.486249631972845,-4.7254039870974935,0.5302171603343014,-0.049000826781268915,0.1660004342888413,-0.03599962490346397,-5.204699495701374e-65,-6.906139264248296e-64,1.4747387766472345e-63,0.09807256991134139,0.058288870780657476,0.22444916254503156,-4.444861791711645e-07,1.1621579763702172e-07,5.213189699672397e-07
1669909573032376818,16046,1669909572914015980,,-2.4907542672715843,-4.717376331980278,0.5293459449308041,-0.049000826781268915,0.1660004342888413,-0.03599962490346397,0.0,0.0,0.0,0.09601466519044877,0.058631458374504675,0.2215575189738086,-4.448278641504091e-07,1.1621779835170234e-07,5.208067454997007e-07
1669909573330571972,16047,1669909572950617025,,-2.4938995791152623,-4.71173893096848,0.5303750271352069,-0.049000826781268915,0.1660004342888413,-0.03599962490346397,-1.975557497389941e-294,-2.038966121675425e-294,-1.0059426557036762e-293,0.09522169620358412,0.05874916540716768,0.2204056071181988,-4.4493796062710674e-07,1.1621569686525101e-07,5.205962832606329e-07
1669909573330692515,16048,1669909573010502958,,-2.499041329641975,-4.700880542376788,0.5292043023245958,-0.04800023709621338,0.1689993770100955,-0.03999915632564158,0.0,0.0,0.0,0.09275706554437235,0.05903903842068203,0.21662584797756068,-4.452462151702487e-07,1.1617583689716456e-07,5.200290322182781e-07
1669909573423608592,16049,1669909573185695168,,-2.513787659770025,-4.673563846627886,0.5196212044045413,-0.04800001865119909,0.1680002700788777,-0.0409997871616959,0.0,0.0,0.0,0.08688507379703303,0.05939906707508058,0.2049655035112572,-4.4595758275190153e-07,1.1600630532786934e-07,5.179032583793597e-07
1669909573773899689,16050,1669909573365686584,,-2.5282932372499793,-4.646920866420994,0.5114530553742852,-0.04800001827088986,0.1640016208607188,-0.040000424555455286,-1.0542197943230523e-81,-3.3735033418337674e-80,-2.698802673467014e-79,0.08419299571652772,0.05897663189361957,0.195064317168395,-4.462280762031692e-07,1.1571892973749303e-07,5.162341912254521e-07
1669909573823032877,16051,1669909573497858680,,-2.5400664106124644,-4.626768879808173,0.5093391197061814,-0.05099891934016676,0.16400003027043203,-0.039000392695895655,0.0,0.0,0.0,0.0828493691980281,0.05749681991858324,0.18662475905564868,-4.4633354540803387e-07,1.1520379882648297e-07,5.148197435214109e-07
1669909573823035192,16052,1669909573617694101,,-2.549919491269389,-4.608263507368174,0.508952324449936,-0.05099891934016676,0.16400003027043203,-0.039000392695895655,0.0,0.0,0.0,0.08225727268096072,0.05522075976408303,0.17951094408145707,-4.4638245735787827e-07,1.1462790056263467e-07,5.136672989192807e-07
1669909573840974759,16053,1669909573661286150,,-2.5532210988469504,-4.602928825578072,0.5099730275201083,-0.05100001720171696,0.16000148050075622,-0.03999966332699141,2.9887534577829606e-64,5.2877951357772346e-64,5.19208323390267e-63,0.08211888365642572,0.05460220839579222,0.1779326275141706,-4.4641061662376056e-07,1.14482595069249e-07,5.134350707113654e-07
1669909573901157335,16054,1669909573776928542,,-2.562472694303776,-4.585423072008765,0.5011097602122462,-0.05100001720171696,0.16000148050075622,-0.03999966332699141,-1.1211459822882937e-63,9.66532886422355e-64,7.263050811304007e-63,0.08125582741297421,0.05197827713192282,0.17188390201761194,-4.466709473115164e-07,1.1393199579248105e-07,5.124564962728982e-07
1669909573947610160,16055,1669909573843671106,,-2.5677634234959354,-4.575295702513071,0.5005721143277133,-0.05100001720171696,0.16000148050075622,-0.03999966332699141,0.0,0.0,0.0,0.07942790070728378,0.04920080027020113,0.1658138839143639,-4.4714900126612976e-07,1.1340247009791669e-07,5.114963417068823e-07
1669909574293918499,16056,1669909573893227386,,-2.5716236805509207,-4.567792152613921,0.4993908977325107,-0.05100001743478797,0.16000002996012017,-0.039000473138250634,0.0,0.0,0.0,0.07866285081945534,0.04831953332546135,0.16394071166219248,-4.4731022788423805e-07,1.1324124243208852e-07,5.112270825670716e-07
1669909574407047594,16057,1669909574020900801,,-2.5815468479361825,-4.548346922954298,0.49845590636297304,-0.05100001743478797,0.16000002996012017,-0.039000473138250634,0.0,0.0,0.0,0.07459858149604948,0.043933302640130734,0.15545247900039527,-4.4806437874292545e-07,1.1238571332863318e-07,5.099380531487828e-07
1669909574407774688,16058,1669909574108464373,,-2.5886894783423786,-4.534337703518002,0.4989425496662216,-0.05199983358247362,0.16199966196115154,-0.03400094365963383,0.0,0.0,0.0,0.07296037278720569,0.042147807940587256,0.1523585209602203,-4.48331861729433e-07,1.120560143242101e-07,5.094527777016613e-07
1669909574463586641,16059,1669909574234819633,,-2.5983988903270214,-4.5148114766032394,0.4908550841510445,-0.05199983358247362,0.16199966196115154,-0.03400094365963383,0.0,0.0,0.0,0.06739086946327433,0.037144070002993246,0.1443276442752719,-4.497260646631755e-07,1.110568454469058e-07,5.080894066264626e-07
1669909574464633116,16060,1669909574283144164,,-2.602079075731417,-4.507331278308513,0.48985580666301154,-0.05199983358247362,0.16199966196115154,-0.03400094365963383,0.0,0.0,0.0,0.06397024024582976,0.035051830835907793,0.14105148306973803,-4.505143145920674e-07,1.1065227788197708e-07,5.075077981460116e-07
1669909574540221736,16061,1669909574327433689,,-2.605306407041461,-4.500951902642546,0.489016470189617,-0.05200001691039527,0.1610000292655013,-0.03200002493698841,1.7155164556832572e-295,1.3206335601213757e-294,5.740774315025647e-293,0.06326165566922448,0.034651041407048666,0.1404197689396618,-4.50667825599705e-07,1.1058167139016029e-07,5.074069190305908e-07
1669909575022661155,16062,1669909574485192075,,-2.6151697427085376,-4.485911346581408,0.48954316125199504,-0.051000179612028095,0.14000345284647464,-0.026001002603951086,0.0,0.0,0.0,0.049182326424391576,0.027483409457410346,0.1292785578530946,-4.534710398258081e-07,1.0918333971456667e-07,5.05473651890742e-07
1669909575108430344,16063,1669909574665744603,,-2.62694894629823,-4.46895411409578,0.48019194586129127,-0.05199985577902002,0.12200291423626802,-0.020000985132286334,-1.311017696772248e-64,-6.49539268114433e-64,-2.238946780687966e-63,0.032884059940428756,0.018840957528318825,0.11712111461417685,-4.5630187310096976e-07,1.075098584438185e-07,5.034281149392626e-07
1669909575108501621,16064,1669909574827276187,,-2.6375620082934885,-4.45023680464151,0.47887616723791054,-0.05199985577902002,0.12200291423626802,-0.020000985132286334,-1.07024031992e-310,-1.4234868859748315e-307,2.4142401049494435e-307,0.0168364301160544,0.00786938193065545,0.1044546632650789,-4.588353480161812e-07,1.0547000925153649e-07,5.013905867137565e-07
1669909576017970219,16065,1669909574913457507,,-2.6414928326011724,-4.446091440264134,0.4793277344287358,-0.050000344406769585,0.10900217067388326,-0.017000516425108296,7.670458539527698e-93,-4.794036587204811e-94,3.835229269763849e-93,0.00874082267084475,0.00031497559191073776,0.09676545765144695,-4.5987536946091684e-07,1.0419566062863224e-07,5.002193083664774e-07
1669909576056525173,16066,1669909575107628022,,-2.651896477013442,-4.433266301177426,0.4792817451660611,-0.04900017511360518,0.09300260846702486,-0.014000504034676517,0.0,0.0,0.0,-0.0002282679034006918,-0.01219368299942225,0.0856179509711037,-4.6090667599768535e-07,1.021835609468216e-07,4.98609080714663e-07
1669909576056550014,16067,1669909575316242652,,-2.663388671937669,-4.422303570610945,0.46963438379685585,-0.049999840429431834,0.07600295532448856,-0.010000706575811803,-2.310961201732467e-77,-3.299039908961974e-78,-2.1362584068509275e-77,-0.0062701983987221155,-0.029321420149955202,0.07318677656576611,-4.6153496878945816e-07,9.937346910153366e-08,4.967434849930499e-07
1669909576094738032,16068,1669909575481223762,,-2.6723813287601113,-4.417261823355597,0.47787589387336005,-0.05099971361502214,0.06100450231481387,-0.007000911660033476,2.0177279623417687e-214,4.875791945942877e-215,2.719393695777149e-211,-0.00792525404033384,-0.0393879856976973,0.06650877005685452,-4.6191381271626794e-07,9.781330245540378e-08,4.957591742008523e-07
1669909576094758801,16069,1669909575653776166,,-2.681754893207862,-4.407323070002918,0.47996230526485906,-0.05099971361502214,0.06100450231481387,-0.007000911660033476,-4.1301339470171237e-63,-1.3600134095131185e-64,-7.827900016028986e-62,-0.008606160256952933,-0.05190448604493625,0.05729632829205755,-4.6191426011016863e-07,9.613719646412656e-08,4.943889195931751e-07
1669909576094781271,16070,1669909575777869474,,-2.6867157185318344,-4.404271703106083,0.47991549091432556,-0.04800093842836044,0.05300250637285581,-2.180828982507678e-06,-4.89921935705917e-106,-1.0750000767657594e-105,-2.087257240908653e-104,-0.00804585457068896,-0.057809560820702544,0.05288769273694527,-4.6183401866437523e-07,9.530298670832051e-08,4.937536051251775e-07
1669909576475186168,16071,1669909576068007594,,-2.698680092844568,-4.397362848244772,0.4800641583384292,-0.043004208995662214,0.03900703980384868,0.011991583976362857,0.0,0.0,0.0,-0.002459404797319209,-0.06377409030448788,0.04277009078290561,-4.6056630961364044e-07,9.559497622396406e-08,4.923055584943462e-07
1669909576545805747,16072,1669909576282310398,,-2.7033254575106067,-4.394761686275001,0.4805533195777813,-0.03301652875054927,0.028018206948246166,0.02098511070269213,1.796808250758259e-79,-1.1855508603397574e-78,2.0451228513972932e-78,0.010282862386917557,-0.05498811123926117,0.03667217825312363,-4.581575121831115e-07,9.787014084866271e-08,4.91377541954132e-07
1669909576920959229,16073,1669909576469149495,,-2.7038515962163685,-4.392465491243034,0.49012425502151863,-0.020020095290063177,0.022009318985725584,0.030984531557377612,0.0,0.0,0.0,0.020339930368711734,-0.04146832050977345,0.03189426608059165,-4.5692674288277164e-07,1.0065081139513589e-07,4.905523437261405e-07
1669909576973803362,16074,1669909576663402149,,-2.7063596795250775,-4.389312382103326,0.4903698803862966,-0.016001336470387657,0.020000694889293527,0.034998659881059616,0.0,0.0,0.0,0.02873977612061651,-0.018495021718162974,0.02536962495259587,-4.559874702864292e-07,1.0480656627680529e-07,4.89339297512588e-07
1669909577035371377,16075,1669909576840686900,,-2.709471830016131,-4.384683032008155,0.49855269551852643,-0.016000012024990077,0.022999176717144916,0.039998556995648644,-6.459021458495169e-283,-4.0532942372515305e-282,-4.229606733710657e-281,0.031175253783342072,-0.005366837118266687,0.021568746485032264,-4.5593735417169726e-07,1.0707551197387628e-07,4.886188498444095e-07
1669909577140380031,16076,1669909576985844072,,-2.711079395134843,-4.38195774213962,0.5011169879663301,-0.014000593227587841,0.022000320624041222,0.04099969066396559,1.6867516709168837e-80,6.747006683667535e-80,2.1590421387736112e-78,0.03130715943624729,0.010794470239922305,0.016565996745262268,-4.56273993209031e-07,1.0914745193878802e-07,4.878610069733528e-07
1669909577186644226,16077,1669909577092041034,,-2.712528059875826,-4.379777456287625,0.5012893399217937,-0.014000593227587841,0.022000320624041222,0.04099969066396559,0.0,0.0,0.0,0.029220429720332675,0.025208913447629655,0.01154711403520814,-4.5708151298243216e-07,1.1113677480226531e-07,4.870078465117121e-07
1669909577346870945,16078,1669909577137303215,,-2.7135047565063246,-4.37728880759614,0.507935631913913,-0.014999661010787122,0.025998620035375244,0.041999628029142,6.640316969008955e-308,-6.274947134669935e-308,8.86883579511994e-309,0.027448297033513924,0.031210714291278308,0.009191309637735401,-4.5760110641833275e-07,1.1276161417229106e-07,4.863450804750467e-07
1669909577426434865,16079,1669909577272879764,,-2.715368999997345,-4.373930903093889,0.5098093559150815,-0.014999661010787122,0.025998620035375244,0.041999628029142,1.9362959574246591e-121,-1.9362959574246591e-121,1.2392294127517818e-119,0.020563802488744898,0.044036287415778474,0.003258141236834433,-4.5897722659431923e-07,1.1447150767503098e-07,4.85409649766635e-07
1669909577464932330,16080,1669909577377278772,,-2.7167385808438245,-4.371308662445787,0.5102050841475257,-0.014999661010787122,0.025998620035375244,0.041999628029142,0.0,0.0,0.0,0.0156649182117512,0.050186043906737865,-0.00017220350174973476,-4.5985882344501434e-07,1.1518911219288855e-07,4.84884253790464e-07
1669909577649215364,16081,1669909577411586115,,-2.716744264981227,-4.369560481741275,0.5116812500046508,-0.014000339762776278,0.027999375147806694,0.041999979561185716,3.226916736962067e-78,4.2234697947247937e-78,1.1606879793831551e-78,0.011976623925821883,0.053991181231371144,-0.0027112077438768978,-4.60519017722222e-07,1.1570984738188203e-07,4.844219298664013e-07
1669909577731725699,16082,1669909577599103546,,-2.7188855076468097,-4.364370999068633,0.5195647584738484,-0.014000339762776278,0.027999375147806694,0.041999979561185716,3.3130083441950114e-143,9.873586868752358e-145,8.54337969099429e-142,0.0016462628234474863,0.06123611001523521,-0.010385734091675758,-4.620024748917039e-07,1.1625143879764107e-07,4.832099936555713e-07
1669909578033367586,16083,1669909577691372420,,-2.7229405450297484,-4.361761383359248,0.5204532553779354,-0.0199987135385729,0.02800002605455419,0.04000041300278408,2.0864443468573485e-75,3.227873419445981e-75,6.045317988566111e-77,-0.0020950781598738644,0.06248142302708892,-0.013884309624664581,-4.6242749394333086e-07,1.16197387648066e-07,4.826492191772537e-07
1669909578095571532,16084,1669909577859183527,,-2.7242935842470186,-4.357465164231232,0.519342639000183,-0.016000013575362532,0.027000025074363488,0.025999979981032213,1.4933201033085213e-78,-2.465720728897766e-78,-9.696595744453573e-79,-0.006571247504451705,0.06175968570754975,-0.020710996901090795,-4.624921374462527e-07,1.1565991802650227e-07,4.817425519379235e-07
1669909578373484962,16085,1669909578046119675,,-2.7288486611964764,-4.350007370206289,0.5204011187148138,-0.018000013007894042,0.032000024284303985,-0.011000019182147894,1.3734415619655865e-294,2.75496402149613e-295,1.3770310682317343e-293,-0.001806809688467581,0.05665561207591452,-0.025225399549198002,-4.610089042380755e-07,1.1466476530425833e-07,4.81473685218413e-07
1669909578468504840,16086,1669909578234561052,,-2.7376305641075858,-4.336111146893625,0.5195083466078323,-0.029000012646766406,0.04700002402955646,-0.011000018649609446,0.0,0.0,0.0,0.009146296237926066,0.049984150401222394,-0.026683981237967558,-4.58960851788652e-07,1.1355817656357069e-07,4.813974891481369e-07
1669909578633458991,16087,1669909578426584033,,-2.742012004523212,-4.322594520099994,0.5192961994538073,-0.027000012395600265,0.056000024138435,-0.0130000182792262,9.828413039546407e-237,7.862730431637126e-236,2.0128589904991042e-233,0.022635242917040443,0.04269588907522426,-0.02746071228730429,-4.5671824791199436e-07,1.1227068320413746e-07,4.812924238583239e-07
1669909579091701173,16088,1669909578589796323,,-2.7455845969144255,-4.3068497019559056,0.5197086116335294,-0.02600022539522821,0.06899725774235606,-0.013999805723352795,1.2377797527737874e-79,5.309193837242177e-80,-9.089351619947091e-80,0.03269017222698345,0.03606829100248099,-0.028692194356146672,-4.5537607095741376e-07,1.1117866114245286e-07,4.810743510612343e-07
1669909579140419648,16089,1669909578770384088,,-2.751201567004936,-4.2882952340295715,0.5202704116478571,-0.029000013168377352,0.08200002487438571,-0.01700001941880531,3.659794705945629e-43,4.860505599512784e-43,1.2112922455308554e-41,0.040468281888870195,0.029854374508875736,-0.03049415906217412,-4.544634433292827e-07,1.1027257318121884e-07,4.80788904636429e-07
1669909579140456999,16090,1669909578935007847,,-2.755614201684309,-4.274541507191401,0.5106852025064047,-0.029000013168377352,0.08200002487438571,-0.01700001941880531,1.5337454679150478e-231,3.918505449110486e-232,-5.57979158129396e-231,0.045646537352519445,0.024639027082971054,-0.032642013371942724,-4.5380489546902604e-07,1.0944428737986494e-07,4.804319610246346e-07
1669909579207730870,16091,1669909578983003422,,-2.7567279371966023,-4.265255835321137,0.5101964772192892,-0.02900001380888725,0.09399720022279455,-0.017000020363336036,-6.552333316368934e-144,4.147552297820392e-143,3.73406806235148e-142,0.04683406559379755,0.023243839386505982,-0.03332136906472627,-4.5368677230297503e-07,1.0922846897285643e-07,4.803313510332258e-07
1669909579615198934,16092,1669909579162613911,,-2.7604054530239437,-4.245214829799494,0.5104206543790575,-0.027000427352171497,0.0999987852452046,-0.01999940098647516,2.6850609127061847e-218,4.6316168764554276e-217,2.383065355803327e-217,0.04995507186654535,0.0180572682382536,-0.03635087317403318,-4.5363733850595815e-07,1.0844473289395547e-07,4.798018432552999e-07
1669909579686759636,16093,1669909579294119284,,-2.763419415326166,-4.229590246806853,0.5101034632058283,-0.02700001440734623,0.10600002577664057,-0.020000021245856193,3.495238313864629e-44,1.0469413173802992e-43,2.108108814156445e-42,0.049470814418949516,0.016257174537692265,-0.03785272870832124,-4.5412268074406246e-07,1.0821065962855077e-07,4.795442164881012e-07
1669909579686803878,16094,1669909579409792433,,-2.7660708112745973,-4.217104665988418,0.5099054601771289,-0.02700001440734623,0.10600002577664057,-0.020000021245856193,2.7305753970084096e-44,9.315185927982133e-44,1.980611122838907e-42,0.04655805443492511,0.013440135921980456,-0.04062193626005772,-4.5507100562315923e-07,1.0771155727460326e-07,4.790309114726966e-07
1669909579686848497,16095,1669909579485463180,,-2.7677700785551833,-4.2089383451789315,0.5006492470092381,-0.02700001440734623,0.10600002577664057,-0.020000021245856193,2.5624957595887067e-77,1.4599502249195128e-78,3.0424901218829282e-78,0.03991315612228874,0.00920129319182017,-0.04500693062508887,-4.566214349396876e-07,1.068691457145694e-07,4.782388029405137e-07
1669909579789570530,16096,1669909579548867690,,-2.7684529459506546,-4.20841746835738,0.4998760958889979,-0.02500035676453468,0.0930022503967217,-0.015000877000014533,0.0,0.0,0.0,0.03290107223420513,0.004918877980866654,-0.04923612744684114,-4.57904043932554e-07,1.0606618252023205e-07,4.775194777037321e-07
1669909580152979867,16097,1669909579743421233,,-2.773975341969016,-4.195877901553562,0.49962216903962436,-0.028000014476546844,0.08000002606459303,-0.01000002134790318,0.0,0.0,0.0,0.02098611850376031,-0.0033236111115542144,-0.056866469746429615,-4.6007215377866706e-07,1.0448468622440164e-07,4.7617010895026316e-07
1669909580203945553,16098,1669909579874055070,,-2.777892256842893,-4.188695518742953,0.5002017803555138,-0.030000013709110457,0.07000002617933432,-0.007000020216199753,7.694726626501861e-295,5.120801945435734e-294,7.014424751843941e-293,0.012028332793839525,-0.011163987420307109,-0.06366417844130012,-4.614089302397905e-07,1.031061282678876e-07,4.750937287686778e-07
1669909580203947822,16099,1669909579959238782,,-2.780052915992165,-4.182574999039374,0.4996431183925546,-0.030000013709110457,0.07000002617933432,-0.007000020216199753,9.588073174409622e-94,-1.1985091468012028e-94,9.588073174409622e-94,0.008721779529482276,-0.01486039606310996,-0.06659321736951362,-4.618347817154301e-07,1.0251431709691931e-07,4.74667157292224e-07
1669909580203949997,16100,1669909579981725318,,-2.7806245220665082,-4.180959563854351,0.5001500335964657,-0.030000013709110457,0.07000002617933432,-0.007000020216199753,-3.5441080262272975e-144,-8.409647023677116e-146,-2.7704791359615534e-142,0.005428527543521966,-0.019211569828737396,-0.06986096762814853,-4.6220931697545756e-07,1.018382233523194e-07,4.74191304107447e-07
1669909580204927551,16101,1669909580012530387,,-2.781393054445307,-4.178743730456116,0.49992998574318226,-0.030000013709110457,0.07000002617933432,-0.007000020216199753,0.0,0.0,0.0,0.004959905059550351,-0.019921624840446128,-0.07040195545811123,-4.622351430239898e-07,1.0176043422503142e-07,4.7411272232582803e-07
1669909580204932685,16102,1669909580047169521,,-2.7822594015194317,-4.176252651258652,0.49968390295896614,-0.030000013709110457,0.07000002617933432,-0.007000020216199753,5.829403823953489e-155,8.515629072283673e-154,-1.6783380117612903e-156,0.0032285481558140816,-0.0230978739244474,-0.07298424424877759,-4.622160100083433e-07,1.0143183821607306e-07,4.73736336118592e-07
1669909580278790972,16103,1669909580081697897,,-2.7817702955231645,-4.178366273468321,0.5001196836844953,-0.026000012990997745,0.059000026368446694,-0.004000019157231696,2.073408414890687e-154,7.865578278292636e-156,8.075948487965945e-154,0.0031080483751502186,-0.023220296664346662,-0.07308354120966598,-4.622990158040228e-07,1.0133516462079448e-07,4.7366533859123456e-07
1669909580358393837,16104,1669909580233433005,,-2.785015620594599,-4.169145423669615,0.49972544811852104,-0.026000012990997745,0.059000026368446694,-0.004000019157231696,0.0,0.0,0.0,0.0026685619076491918,-0.03023418037689396,-0.0805839353421387,-4.6188349093002525e-07,1.007328154996091e-07,4.725903004704712e-07
1669909580781473070,16105,1669909580303780387,,-2.7857829013455664,-4.171100472733755,0.5000901991924799,-0.023000011997164473,0.04400002674265919,0.0039999823083288885,0.0,0.0,0.0,0.0034264520395765885,-0.031984915927022683,-0.08333384679160005,-4.6168422044902725e-07,1.0046584843429638e-07,4.7204957227811536e-07
1669909580781542884,16106,1669909580440468820,,-2.7884230273163664,-4.164845378372496,0.5079671239591335,-0.023000011997164473,0.04400002674265919,0.0039999823083288885,0.0,0.0,0.0,0.0061088518468483954,-0.035341267298186096,-0.09043111247252611,-4.613461952982104e-07,1.0005024560903984e-07,4.7091604046261347e-07
1669909580816535726,16107,1669909580506545761,,-2.7872749091413405,-4.165273244637944,0.5097500338972718,-0.01700001145832979,0.03700002705346207,0.010999983102923813,-8.0264234022626635e-143,-1.209380636332218e-143,-8.462517639939952e-141,0.006934999994458124,-0.03602748788678589,-0.09233141142337509,-4.6121245395433957e-07,9.999266427707268e-08,4.706239328855037e-07
1669909581248173243,16108,1669909580769200060,,-2.791237726677766,-4.158159250672977,0.5109505832894538,-0.017000011226035006,0.03100015670276559,0.014999897245885734,1.1823153949990251e-155,6.087447714501823e-156,-6.562672663783314e-157,0.011521804855162188,-0.037119825269506634,-0.101517433385375,-4.6059995790487506e-07,1.0021023118715225e-07,4.69218658829498e-07
1669909581295277214,16109,1669909581021893174,,-2.7921328858651937,-4.1520597909541594,0.5197401131844607,-0.012000011305259841,0.028000027406403512,0.019999983328649083,0.0,0.0,0.0,0.01579794127967027,-0.03406740806538977,-0.11042871099963314,-4.601397111889105e-07,1.0098112638845029e-07,4.677930942698917e-07
1669909581388643290,16110,1669909581201072521,,-2.794091422473006,-4.148460414424586,0.5194548082980492,-0.012000011520876807,0.025000684417407475,0.02599866874463356,-1.8674837048581958e-218,-5.699710302140832e-218,-1.2760278134353712e-219,0.02068529847158196,-0.028326267417716267,-0.11852212908700643,-4.590984660021178e-07,1.0216337210971145e-07,4.6658975129184716e-07
1669909581882342010,16111,1669909581340690100,,-2.791191977080491,-4.140208809929243,0.5292416181340794,-0.004000011780764449,0.036000027013466294,0.02899998262744413,-4.25855829461695e-142,-3.105684137507062e-142,-7.72175356545992e-142,0.028501054381059987,-0.021886819345841246,-0.12397026254215504,-4.577011525014339e-07,1.0332098976822539e-07,4.658089449519673e-07
1669909581895284789,16112,1669909581494589928,,-2.788246802907418,-4.125673966511309,0.5312969154441961,-1.5665576602917966e-06,0.05599225385085391,0.03199881639447327,2.1555449442686607e-145,1.748293695137139e-144,2.3701615745183954e-143,0.0372662504667538,-0.014679075698641242,-0.12896244929849487,-4.560948404991882e-07,1.0479041242981342e-07,4.6477654280064457e-07
1669909581895341106,16113,1669909581625690308,,-2.783447838367214,-4.112433599607576,0.5320907066567709,0.008999987399892634,0.07500002606793975,0.026999981419196507,0.0,0.0,0.0,0.044287827808226155,-0.006853974891042114,-0.13417114985409917,-4.5535140291237187e-07,1.0617480950615626e-07,4.6381508014751833e-07
1669909581898267540,16114,1669909581784246742,,-2.780462347751457,-4.101039475475484,0.5309149073688146,0.008999987399892634,0.07500002606793975,0.026999981419196507,0.0,0.0,0.0,0.04783811961011786,0.0006326991387588521,-0.1391112993228525,-4.5521516405439746e-07,1.07338579565453e-07,4.629669955809826e-07
1669909582321427487,16115,1669909581838351573,,-2.7745786912097405,-4.088693326916382,0.5299815503718301,0.016996213520241842,0.09399106374849335,-0.003985396988396478,2.7168720230744994e-77,1.2748062007306987e-77,-7.784110315385551e-78,0.04868720238365398,0.004384932946685183,-0.14162622544961145,-4.552619496030169e-07,1.0790370943374538e-07,4.625613885776998e-07
1669909582344988499,16116,1669909582003174393,,-2.769592586814128,-4.073728734928755,0.5300191379802729,0.016996213520241842,0.09399106374849335,-0.003985396988396478,0.0,0.0,0.0,0.04813288969201679,0.013309002616765042,-0.14653412127201193,-4.5588650577024276e-07,1.0923163552694978e-07,4.619479052861472e-07
1669909582345018542,16117,1669909582089639958,,-2.7689563889115925,-4.059880007479792,0.5210095819349941,0.010999986145512279,0.10500002485989374,-0.02800002043058097,0.0,0.0,0.0,0.04501284014500051,0.01993922315924479,-0.1496005971659411,-4.568469210438831e-07,1.10340362522141e-07,4.614791583424367e-07
1669909582458883805,16118,1669909582288741533,,-2.7615310992540865,-4.038044670715406,0.5001997168219761,0.015999985654066396,0.10700002385713134,-0.06100002115529379,0.0,0.0,0.0,0.0371135941270051,0.028386133932494673,-0.15239984682257557,-4.585263543840085e-07,1.1163081170433565e-07,4.611761131403896e-07
1669909582792886134,16119,1669909582414870917,,-2.758888934306092,-4.0253275631709995,0.4870280723603363,0.01400079991870364,0.10400124487497003,-0.08898861959794677,6.161998936112762e-78,2.4070823043169052e-77,-1.2446858822448668e-78,0.029508069509500245,0.03448002168137876,-0.1535328150034072,-4.5980986837187206e-07,1.1248565858334747e-07,4.611164167348344e-07
1669909582795111576,16120,1669909582544079125,,-2.755392717836867,-4.0119593188891365,0.4731215223680961,0.01400079991870364,0.10400124487497003,-0.08898861959794677,-6.444709013567336e-43,-3.870641946919486e-43,-1.6578822025176796e-41,0.022904085057712464,0.039130433355014205,-0.15363362983381634,-4.6079669288808224e-07,1.1308279594917914e-07,4.6124535284920453e-07
1669909582810164479,16121,1669909582618242933,,-2.7537984569266523,-4.007129604890394,0.46502766915682525,0.014999463847960946,0.09600420124787183,-0.11498643603482833,1.0702194086955093e-196,6.688871304346933e-198,-4.280877634782037e-196,0.02069678262071406,0.04057353544347819,-0.15337363024660178,-4.610353891622875e-07,1.1323426191662822e-07,4.613384007360017e-07
1669909582854014802,16122,1669909582735183210,,-2.7508554654590776,-3.995968641450766,0.4449424515504677,0.014999463847960946,0.09600420124787183,-0.11498643603482833,-5.621588048984435e-140,-1.2391104327549051e-139,-1.136155383615095e-143,0.017717053916182834,0.04261723157949504,-0.15253627099584044,-4.613387047890539e-07,1.1344948454178287e-07,4.615670102350806e-07
1669909582969154565,16123,1669909582800289469,,-2.751065550488002,-3.9940834689173688,0.43690665460700273,0.013001206737545344,0.08400735060683825,-0.13798597062231657,0.0,0.0,0.0,0.01739823548618702,0.04285663937040596,-0.15231170111147563,-4.6135742238451735e-07,1.134625098825734e-07,4.616067671756699e-07
1669909583283800106,16124,1669909582923497958,,-2.7486038585882224,-3.9837171785183316,0.4228915134026402,0.013001206737545344,0.08400735060683825,-0.13798597062231657,0.0,0.0,0.0,0.015686550572372226,0.0441903739583438,-0.14929959765822431,-4.613458403199545e-07,1.1344315917010518e-07,4.622381463395615e-07
1669909583336196206,16125,1669909582986938846,,-2.747354713117277,-3.9783818941289932,0.4095660099562289,0.013001206737545344,0.08400735060683825,-0.13798597062231657,3.0740275444957894e-66,1.1002268132481539e-67,3.4442577612128405e-65,0.01569756392198407,0.04418911705430162,-0.14918413920735318,-4.6133559655466845e-07,1.1343619919177734e-07,4.6226225518754e-07
1669909583336257617,16126,1669909583001052541,,-2.7497004880768463,-3.981187312949543,0.40673428156834707,0.009001614039777575,0.07300449930243885,-0.1579918786354111,3.204801819247221e-77,1.5553695290493733e-77,5.777124472890327e-79,0.015642843218092395,0.044241235727307426,-0.1489205604676762,-4.6136769178600263e-07,1.1345625551056842e-07,4.6238562005594276e-07
1669909583336438009,16127,1669909583137914663,,-2.7478971125768905,-3.971009957789973,0.37628499411454747,0.009001614039777575,0.07300449930243885,-0.1579918786354111,-3.281340366886584e-215,-1.6203325249777103e-215,-1.768247183857653e-215,0.017082244198018515,0.043240163958822464,-0.14518395347876734,-4.6109933941058816e-07,1.1318051497810531e-07,4.631211348756087e-07
1669909583394549000,16128,1669909583190317126,,-2.750455049935031,-3.9714526637840692,0.367747877150271,0.0040023505674041384,0.06200522276651141,-0.17499198103018462,0.0,0.0,0.0,0.017617959384704562,0.04270435630231617,-0.1440855569810644,-4.6101355959419426e-07,1.1306361327323172e-07,4.632919428542128e-07
1669909583796121364,16129,1669909583348314860,,-2.7495034892836006,-3.961187114160781,0.3449883123920515,0.0040023505674041384,0.06200522276651141,-0.17499198103018462,-2.1451759882278424e-43,-1.041952604061108e-43,-5.3161034633887764e-42,0.019726179939654642,0.04012384841725414,-0.13972709759264923,-4.607964393874242e-07,1.1259061474391826e-07,4.6402871358156763e-07
1669909583866331938,16130,1669909583470887503,,-2.750600010013386,-3.9567802613503877,0.321291118708715,0.0020007270355006193,0.054002981439875426,-0.19099410094144317,2.1980614836280526e-77,-5.38063401772395e-78,1.0599590078407991e-78,0.021049236655693804,0.03791260770305627,-0.1367010481735509,-4.606130994810897e-07,1.1216589850307051e-07,4.6460529671559256e-07
1669909583924188471,16131,1669909583686676921,,-2.752234685356424,-3.9474849791748214,0.2780467708544025,-0.0009992972082324713,0.04700169313386518,-0.20199739307819695,9.88082114851562e-143,8.405614622426964e-143,2.9595965111662516e-142,0.02585451419419016,0.0323445575239667,-0.13018882944981414,-4.5963695019898843e-07,1.1121507861212035e-07,4.657833661931186e-07
1669909584338970410,16132,1669909583878155738,,-2.754385260110846,-3.940369346981467,0.2311955514373813,-0.003998477988434655,0.04000360486227042,-0.21299438987593636,-2.9721326627695836e-141,-2.4775483392209046e-141,-3.136377903578621e-139,0.034400461836430196,0.026613574768907355,-0.12426945238955511,-4.580186432148644e-07,1.1031031798474393e-07,4.667805661224272e-07
1669909584425518230,16133,1669909584027407267,,-2.7573254532649862,-3.936768461499805,0.19859094051524664,-0.007999062785832473,0.031002161648798536,-0.22299764272220696,5.568985617254936e-295,1.878476923796946e-294,-3.4498478387190844e-293,0.04144882167665642,0.02292740481129485,-0.12081067909968723,-4.5680786929634874e-07,1.0973149437732884e-07,4.6735567924978813e-07
1669909584425717265,16134,1669909584143300310,,-2.7601691588745054,-3.934301703724577,0.17746521567706036,-0.011999188866977586,0.02400146644262499,-0.22999857661156756,1.4436883281624026e-153,-2.5601018315784847e-154,5.687951655370153e-155,0.04697433541999274,0.019842351211597276,-0.1183274253560711,-4.561541219594717e-07,1.0926364730867221e-07,4.6771256048821276e-07
1669909584442017709,16135,1669909584254504106,,-2.761517156042806,-3.9302186619834343,0.14547519831920797,-0.011999188866977586,0.02400146644262499,-0.22999857661156756,0.0,0.0,0.0,0.050813358261791564,0.016779022404088906,-0.11643179443519358,-4.559086023858828e-07,1.0882952513362982e-07,4.6795875490711643e-07
1669909584442147322,16136,1669909584328393813,,-2.762367039698295,-3.927459349773097,0.12861047414913876,-0.011999188866977586,0.02400146644262499,-0.22999857661156756,0.0,0.0,0.0,0.05285195556443867,0.014115611878462886,-0.11512583642116958,-4.5590362128949464e-07,1.0847412866549564e-07,4.6811736950989845e-07
1669909584843742724,16137,1669909584372764189,,-2.762945370176703,-3.929757713319748,0.12118394934511888,-0.01100019137236778,0.015001622116953234,-0.23999824406356599,-4.975683234668434e-145,-1.5103753701495823e-143,-2.1137373228961817e-142,0.05376252543913829,0.012527392242708046,-0.11443007454636245,-4.5586099256517374e-07,1.0815228097104482e-07,4.6822728940562e-07
1669909584910537868,16138,1669909584509920626,,-2.764380586383467,-3.9257339547560917,0.0923476746729836,-0.01100019137236778,0.015001622116953234,-0.23999824406356599,3.089425817822758e-77,9.947930941313234e-78,3.342049141467822e-78,0.05426123535405303,0.009040403462233115,-0.11335460455152457,-4.56018683553771e-07,1.0760283432437202e-07,4.6840006262917687e-07
1669909584910578933,16139,1669909584573172604,,-2.7663867988642323,-3.9251443116407487,0.0718303998675287,-0.013998194730905536,0.011002451273211658,-0.24799516731219337,-1.3343961817733973e-142,-6.838043192128568e-143,-2.857129100756025e-141,0.05384490950786258,0.00678131998271958,-0.11282166638986446,-4.5630244878426814e-07,1.0729524358343513e-07,4.684732866937422e-07
1669909584910660203,16140,1669909584692039440,,-2.7678914966206083,-3.922073368740921,0.04544857407661648,-0.013998194730905536,0.011002451273211658,-0.24799516731219337,8.728553169948241e-184,-4.4956206576093995e-183,5.161668220704765e-182,0.05182227802757211,0.0037682816538371355,-0.11230045116810672,-4.569393920849363e-07,1.0680403878365416e-07,4.685604562676446e-07
1669909584936699417,16141,1669909584740145028,,-2.780165411520998,-3.9188336773511816,0.0458314661300945,-0.04299582142117918,0.01399959063579798,-0.22300363554819563,0.0,0.0,0.0,0.05025413300671033,0.0020832953285534472,-0.11211973994623392,-4.5726736823251917e-07,1.0657653754988662e-07,4.685637246379223e-07
1669909584951043610,16142,1669909584859504275,,-2.7849683752609407,-3.91528267293652,0.022962097043753245,-0.04299582142117918,0.01399959063579798,-0.22300363554819563,-1.0224381438923825e-66,-6.852608947971082e-65,-3.189137440465371e-63,0.04766461469957939,-0.000694907570945702,-0.11203803574608351,-4.577055515911287e-07,1.0615538496587697e-07,4.6855700444808524e-07
1669909585000032077,16143,1669909584907286196,,-2.786874578309316,-3.913880632074685,0.012350223044863846,-0.04299582142117918,0.01399959063579798,-0.22300363554819563,0.0,0.0,0.0,0.04623294246473897,-0.002251267075450869,-0.1121420448653474,-4.5796315613156605e-07,1.0592008181332546e-07,4.6852992201468565e-07
1669909585021212160,16144,1669909584949983266,,-2.78856227191987,-3.9126454945108518,0.015026084837899197,-0.04299582142117918,0.01399959063579798,-0.22300363554819563,0.0,0.0,0.0,0.04575951515087873,-0.002754452814134112,-0.11219696119084333,-4.5805449822188495e-07,1.058370429541655e-07,4.6851540688164533e-07
1669909585419216921,16145,1669909584970215692,,-2.786594132575097,-3.9142022477387255,0.010610697299099064,-0.03600096125527201,0.012000294933833165,-0.17700624644132423,0.0,0.0,0.0,0.0450851767729894,-0.003444490973093295,-0.1123140221982677,-4.581579601632634e-07,1.0577555326029872e-07,4.6849117038248884e-07
1669909585483759738,16146,1669909585116496170,,-2.7910985756950852,-3.9117695239506522,-0.015075870646042391,-0.03500010636033239,0.011000116387047232,-0.14800268404420353,1.4078116931119391e-77,3.260308748028262e-77,7.203575222590296e-78,0.04161500931599171,-0.006811708527362015,-0.11312152621901994,-4.5878668991054046e-07,1.0532487670408904e-07,4.683245450906074e-07
1669909585483984341,16147,1669909585229649668,,-2.794694955006482,-3.909415377622644,-0.02846454626835213,-0.03500010636033239,0.011000116387047232,-0.14800268404420353,-3.583415569153095e-231,1.9384551972450404e-230,3.260475143680424e-231,0.03862164191843931,-0.009249142371123398,-0.11420169752640774,-4.5938180144485953e-07,1.0492980883980665e-07,4.681029434838551e-07
1669909585484050041,16148,1669909585270642196,,-2.7959875153618374,-3.908576436339329,-0.02973386134294704,-0.03500010636033239,0.011000116387047232,-0.14800268404420353,0.0,0.0,0.0,0.037952187429468154,-0.009759819515586798,-0.11451727256190303,-4.595174379031155e-07,1.0485339873716951e-07,4.68031805182647e-07
1669909585484146318,16149,1669909585294705901,,-2.7967465697641183,-3.908083408688391,-0.03328977423927613,-0.03500010636033239,0.011000116387047232,-0.14800268404420353,0.0,0.0,0.0,0.03682670166573132,-0.010567284801849652,-0.11511456728015901,-4.5972863437395877e-07,1.0475291362984512e-07,4.6790459892921976e-07
1669909585517576230,16150,1669909585320387902,,-2.8005920412006544,-3.906093601927055,-0.03546319753650024,-0.042999070932707044,0.014999553322204678,-0.12100320429773612,0.0,0.0,0.0,0.036832000057966496,-0.010561469835320025,-0.11511409817773277,-4.5969347935959807e-07,1.047885655304251e-07,4.679093265790526e-07
1669909585588007420,16151,1669909585478874195,,-2.8067896427558487,-3.902298854309287,-0.05058917319830133,-0.042999070932707044,0.014999553322204678,-0.12100320429773612,-3.3918455729525072e-65,-1.8848447461018708e-64,-4.230372868857624e-63,0.032729205228857694,-0.012298881731576117,-0.11793345770016117,-4.6048236430372797e-07,1.0475492254420694e-07,4.673375421555378e-07
1669909585930793660,16152,1669909585544969268,,-2.8104709577706597,-3.9010955835310117,-0.04766728411841399,-0.04499967356788804,0.015000024987169763,-0.09300478281582503,-4.972132316274364e-306,7.056507790931679e-306,5.357556575597309e-307,0.030077845282013627,-0.012154922640213783,-0.119754975652544,-4.61041973308235e-07,1.0499895283348116e-07,4.6708569442623733e-07
1669909585976085850,16153,1669909585667788218,,-2.8155640086083324,-3.8982925412121863,-0.05917953084530999,-0.04499967356788804,0.015000024987169763,-0.09300478281582503,-2.8235668708824037e-141,-3.129314498461052e-141,-1.4508621792472795e-140,0.025942207325368116,-0.010685175189813378,-0.12173920244065783,-4.6184324324942163e-07,1.0544783350694994e-07,4.668432267160333e-07
1669909585976139615,16154,1669909585708252525,,-2.8149110433903366,-3.8969204752072626,-0.06098250840727387,-0.039000013514640525,0.01800002523196805,-0.05500001992942382,-4.3769578827840054e-219,-4.782328744740147e-218,7.421730958806346e-216,0.023821648790267602,-0.009448446498300456,-0.12276030636143886,-4.619318894233461e-07,1.0570266625427201e-07,4.6670677430146985e-07
1669909585976183685,16155,1669909585812875928,,-2.8186617019859734,-3.8944240797272265,-0.0626733866653992,-0.039000013514640525,0.01800002523196805,-0.05500001992942382,5.6698553933999276e-297,1.0197052316143664e-296,-1.3417050952375993e-293,0.023623236101661504,-0.008129488452382816,-0.12473650239791567,-4.610620461588764e-07,1.0558598041998956e-07,4.663764075368836e-07
1669909585976253743,16156,1669909585855635079,,-2.8201948402480923,-3.8934001929834654,-0.05861013164038188,-0.039000013514640525,0.01800002523196805,-0.05500001992942382,5.6698553933999276e-297,1.0197052316143664e-296,-1.3417050952375993e-293,0.02362321622408281,-0.008129484409920451,-0.1247364823543009,-4.610620461588764e-07,1.0558598041998956e-07,4.663764075368836e-07
1669909585994324446,16157,1669909585890597584,,-2.8214489081114675,-3.8925643724175636,-0.06057617786025204,-0.039000013514640525,0.01800002523196805,-0.05500001992942382,-9.501333180630183e-65,-6.941704777596635e-64,-7.340738582918644e-63,0.02284262405778037,-0.008042389164867103,-0.12434001667840455,-4.612422537126207e-07,1.0564039311348155e-07,4.6639313685793254e-07
1669909586125351920,16158,1669909585923982435,,-2.8263496218556794,-3.8956833383619704,-0.061217350391829316,-0.045999651086263665,0.009000490866345984,-0.015002088932655484,2.8237391884654113e-295,5.7882164549384124e-297,1.5361150704450353e-295,0.029802753567119922,-0.00954848688714982,-0.12686555295305268,-4.589937943821607e-07,1.0483797467529221e-07,4.660710439673659e-07
1669909586368516395,16159,1669909586082663293,,-2.833371476108885,-3.8932600104134556,-0.06029955253423578,-0.045999651086263665,0.009000490866345984,-0.015002088932655484,-9.009800975638507e-80,2.1497576653440693e-79,-5.153659576373689e-79,0.047828933844646926,-0.01630524498130903,-0.130272393751806,-4.55225586021364e-07,1.0321802391733198e-07,4.656180160241552e-07
1669909586442089365,16160,1669909586143033894,,-2.835593150283059,-3.900276787840921,-0.051367766127033296,-0.04200035511102183,-0.009998349132693516,0.015997328191940233,-1.4676213511247698e-63,-8.268613512464023e-63,-1.730914609990765e-61,0.054689598207712464,-0.019375818059039318,-0.13125603946925324,-4.540164428936348e-07,1.0249752233534123e-07,4.6552807846481555e-07
1669909586442149707,16161,1669909586267926519,,-2.8410112999329646,-3.900935107837112,-0.04998129078964362,-0.04200035511102183,-0.009998349132693516,0.015997328191940233,-2.504846263814711e-65,-4.217135234641543e-65,-3.077131363007118e-63,0.07061419748464104,-0.028359018790865775,-0.13388329588242698,-4.513781207205632e-07,1.0054194633811635e-07,4.6512087548895985e-07
1669909586532305456,16162,1669909586306528356,,-2.8425563651688357,-3.9024687180921656,-0.04809377264504553,-0.041000037795746964,-0.011999925110302755,0.03699945753925484,1.1610080510451628e-296,1.0383527169352574e-297,-3.0288304394165296e-294,0.07930556304478742,-0.034358378384323984,-0.1356834241090823,-4.5016046425881414e-07,9.936027833842002e-08,4.649054366569834e-07
1669909586886858061,16163,1669909586480290094,,-2.8531238924765927,-3.9041323873407086,-0.03163939882607249,-0.048748723650880274,-0.011999972987122184,0.05540314707298555,-3.440625555133281e-154,2.058797433463048e-154,-6.226493015467969e-156,0.10132719580200877,-0.053150772210962316,-0.1419995215692822,-4.4696560712016966e-07,9.581527531638338e-08,4.639672414392699e-07
1669909587009816893,16164,1669909586627160455,,-2.861013346924821,-3.905629394187289,-0.018343410884640497,-0.048748723650880274,-0.011999972987122184,0.05540314707298555,0.0,0.0,0.0,0.1131176412921544,-0.0662078490395892,-0.1476969585513661,-4.456187511360788e-07,9.364707332314121e-08,4.6314955280749613e-07
1669909587009819117,16165,1669909586662568614,,-2.8636342553618426,-3.9045167764485624,-0.012234907362862936,-0.04999983528908916,-0.0070006898669714894,0.07499717414587379,0.0,0.0,0.0,0.1171379067104823,-0.07142212639062251,-0.15038256430414165,-4.455441590278637e-07,9.30562426522852e-08,4.627959090497931e-07
1669909587010403382,16166,1669909586808366213,,-2.8719755561992915,-3.9055803315700848,0.0008966237232213183,-0.04999983528908916,-0.0070006898669714894,0.07499717414587379,0.0,0.0,0.0,0.12257457391891258,-0.08213668918989647,-0.15713642935023486,-4.457856545314411e-07,9.153016920746949e-08,4.618218007187472e-07
1669909587052276700,16167,1669909586854167384,,-2.8704976443518815,-3.90201914619718,0.006875444718267849,-0.04000156350757426,0.005998013863269294,0.08999765465372557,0.0,0.0,0.0,0.12212825510242276,-0.08785052938085336,-0.1618392379539273,-4.4709864673412794e-07,9.099095832421186e-08,4.611618395325943e-07
1669909587075500182,16168,1669909586968359493,,-2.875984938085093,-3.9016783675336364,0.01788348608654096,-0.04000156350757426,0.005998013863269294,0.08999765465372557,9.091985332331105e-77,2.5618594604295747e-77,2.349109889441295e-77,0.11727888362304739,-0.09403594542790117,-0.1681789661100037,-4.4841395488032666e-07,9.001018587000476e-08,4.602248794404437e-07
1669909587113840072,16169,1669909587021204915,,-2.8785396278677537,-3.901493680837425,0.022425365892536898,-0.04000156350757426,0.005998013863269294,0.08999765465372557,0.0,0.0,0.0,0.11211739483531424,-0.09857281334631374,-0.1734590270692049,-4.4964235573644704e-07,8.937998181085262e-08,4.5947990336449135e-07
