%time,field.header.seq,field.header.stamp,field.header.frame_id,field.position.x,field.position.y,field.position.z,field.velocity.x,field.velocity.y,field.velocity.z,field.acceleration.x,field.acceleration.y,field.acceleration.z,field.orientation.x,field.orientation.y,field.orientation.z,field.angular_velocity.x,field.angular_velocity.y,field.angular_velocity.z
1669909628901080038,16525,1669909628839588901,,-3.004056709803976,-5.280749918460338,0.46022796218688883,-1.4499257342276239e-08,-0.044000249660199546,0.005999692876227916,-3.728652589878931e-44,-5.190184837661033e-43,-2.2639718480153105e-41,0.02272258569171015,0.0016813423704533648,0.30125845000652696,-4.871184652715639e-07,1.1764419081514288e-07,5.565661543977437e-07
1669909629060368043,16526,1669909628884625320,,-3.000846005580303,-5.280910157875402,0.4604145143816879,0.006999985464208775,-0.041999963878902695,0.0029999785647318333,0.0,0.0,0.0,0.022076794906263686,0.0017506652712029336,0.30184615229452305,-4.872424729847378e-07,1.1764363237315522e-07,5.566461945085934e-07
1669909629339574132,16527,1669909629045590428,,-2.9935990116430244,-5.285615620099217,0.4426492589331293,0.01699733625496649,-0.04299969889857624,-0.05298518575523748,6.109796934836776e-307,-1.1032986472728848e-306,3.8654972895138397e-308,0.017553181571093646,0.0022267411844794083,0.3053584533991014,-4.882110246288508e-07,1.1779464369728081e-07,5.572920462252207e-07
1669909629351710912,16528,1669909629207563716,,-2.9889375240425813,-5.291299500212912,0.42930715769800276,0.01699733625496649,-0.04299969889857624,-0.05298518575523748,1.4053315045157887e-297,2.41619299768683e-296,3.74206886425542e-296,0.012955378227939462,0.003557761527700265,0.3087471923480116,-4.890621883061955e-07,1.1820286534192e-07,5.580209263479329e-07
1669909629447702862,16529,1669909629268666290,,-2.9900592416542056,-5.292371836668923,0.4206817671629577,0.012002015270947488,-0.040001182155763364,-0.1059784890466196,0.0,0.0,-4.1798521485368663e-120,0.011458897102794907,0.004352658191589143,0.3101374159794048,-4.892984221706227e-07,1.1839649952693595e-07,5.582975674866692e-07
1669909629590302938,16530,1669909629433231873,,-2.9853725934400486,-5.298266293238795,0.3931913173559675,0.013999051958379322,-0.04199902944641555,-0.13698552058041416,0.0,0.0,0.0,0.008141061086213597,0.007482525022526332,0.31483409839715826,-4.896935497482356e-07,1.1904170263742675e-07,5.592065535083227e-07
1669909629729086400,16531,1669909629574790167,,-2.981840471712392,-5.3032070468636805,0.37130783533249706,0.013999051958379322,-0.04199902944641555,-0.13698552058041416,-1.7798359330011497e-65,-3.1023164714935456e-66,-1.3522731706833926e-63,0.007038967642435168,0.009813320589390884,0.31796741033061693,-4.899387251996615e-07,1.1951897008203215e-07,5.597663757616761e-07
1669909629781432046,16532,1669909629628626919,,-2.9788975961057083,-5.305879237380045,0.361952128492099,0.01699866437788198,-0.04499864198399529,-0.16398812252096032,0.0,0.0,0.0,0.0062994964494969,0.011374987453343977,0.319777486278614,-4.900635502121887e-07,1.1978517761268936e-07,5.600526478740982e-07
1669909629843506922,16533,1669909629769666433,,-2.9749378437249687,-5.311105858813365,0.3503374167150477,0.01699866437788198,-0.04499864198399529,-0.16398812252096032,9.270512932321039e-145,2.5538096103214508e-143,7.634654424281065e-142,0.006019922635219999,0.01473096286682285,0.32390794713110793,-4.898616576699652e-07,1.202685522173464e-07,5.607789142716186e-07
1669909629987174490,16534,1669909629829387206,,-2.983218366616925,-5.314829226562551,0.3418277893181481,-0.00599312876612829,-0.04100116073164565,-0.14500570445509883,0.0,0.0,0.0,0.00677200248732035,0.015751116300158685,0.3255451825307176,-4.896540601582e-07,1.2036616094622618e-07,5.610526543909593e-07
1669909630041760217,16535,1669909629970618826,,-2.9825256286167257,-5.320550107684313,0.32106092102811296,-0.00599312876612829,-0.04100116073164565,-0.14500570445509883,-1.1900168341095499e-148,-5.5047794038161105e-146,-4.098830644662694e-144,0.009107742037539168,0.01715883617858971,0.3289622429000154,-4.892591675166145e-07,1.204848508638456e-07,5.616535433842888e-07
1669909630436151360,16536,1669909630023904059,,-2.9803069119909815,-5.323623508775292,0.3144090978758971,-0.003001095281551688,-0.043998880012671084,-0.12500724983021194,-1.2254557420134947e-298,-3.27204141602439e-300,-3.728699365023012e-297,0.009994642054397929,0.017367893899386644,0.3300535118168604,-4.891141468592018e-07,1.2046073460583727e-07,5.618237002197531e-07
1669909630455247673,16537,1669909630218122171,,-2.978488457862549,-5.331779808186525,0.2953305563876058,-0.0030000139266981485,-0.04399996355798832,-0.11600266877753707,0.0,0.0,0.0,0.013286578619034373,0.016878816737630586,0.3345172789338715,-4.888453437951279e-07,1.2022505364160497e-07,5.62584445696978e-07
1669909630455263879,16538,1669909630357138598,,-2.9771885254583137,-5.337571926848033,0.27369699709021356,-0.0030000139266981485,-0.04399996355798832,-0.11600266877753707,-5.253521553005643e-138,-6.174113027781656e-139,-1.9050477380203482e-140,0.013318037411931272,0.015190773107249811,0.337430497273866,-4.89266406517625e-07,1.1982889471845599e-07,5.629862373163262e-07
1669909630576314210,16539,1669909630414718041,,-2.97372862082696,-5.333158654433446,0.26669410358598844,0.00899676230254884,-0.031003456416533043,-0.12299814051637956,0.0,0.0,0.0,0.012994587302248561,0.014256904502378376,0.33813246106089423,-4.893434043224522e-07,1.1964409233703653e-07,5.630787755209773e-07
1669909630891905543,16540,1669909630556341229,,-2.971361354914245,-5.336744287107571,0.24487040684912753,0.00899676230254884,-0.031003456416533043,-0.12299814051637956,1.1254468506198271e-65,2.030596017139441e-67,-2.5237738494152563e-64,0.012300164975378891,0.010937471179410352,0.3398948569133804,-4.894785053569906e-07,1.1907860829277555e-07,5.633852328949314e-07
1669909630891962110,16541,1669909630627872796,,-2.9617274412012047,-5.337332987830314,0.2332671686493151,0.026995455476849672,-0.03499895810559882,-0.16998819261995451,-6.548310389525574e-297,-2.0689742133097202e-297,8.179707776059204e-296,0.012203790311827944,0.009562899983801998,0.34047555762143134,-4.894980567310055e-07,1.1888172814393906e-07,5.634686875444241e-07
1669909630996327085,16542,1669909630825980137,,-2.9465337659309427,-5.341108266770218,0.20156560290098,0.04499583834824683,-0.03999881158652739,-0.19399448920658738,0.0,0.0,0.0,0.01291838545357571,0.005720645724750284,0.34161394989912,-4.892838499894336e-07,1.1819867398514502e-07,5.637074117568918e-07
1669909631055465391,16543,1669909630984664925,,-2.937925673397337,-5.3443237259666905,0.1804380977353835,0.04499583834824683,-0.03999881158652739,-0.19399448920658738,8.661334016425066e-65,6.59596139913596e-64,1.600816362659777e-62,0.015300655032843835,0.0011155877630901756,0.34306427623282687,-4.887888733371834e-07,1.1738349159665722e-07,5.641065436246528e-07
1669909631411169265,16544,1669909631039747658,,-2.9315228411361463,-5.343898547563117,0.17165372085674244,0.05199858855144286,-0.03900016271589821,-0.16100660384090937,0.0,0.0,0.0,0.016725779464824342,-0.0010431947517766105,0.3439057837537014,-4.88527687694225e-07,1.1705391236947971e-07,5.642966500977328e-07
1669909631435043152,16545,1669909631187049187,,-2.9128676488983287,-5.343015737074605,0.15973127866670142,0.07499575910699655,-0.038999963096009206,-0.14000388086774135,-5.978436049955424e-107,-5.837979614274226e-106,-2.6369064184645792e-104,0.02166737031971877,-0.006580565164130192,0.34616794705049436,-4.874604686797465e-07,1.1619393827353279e-07,5.647618833759772e-07
1669909631435045885,16546,1669909631316124575,,-2.9020654279779516,-5.3440150004179685,0.14586070188076197,0.07499575910699655,-0.038999963096009206,-0.14000388086774135,9.995922956956755e-185,2.723086920651548e-183,1.2212596286189428e-182,0.028583162191097244,-0.010355999809574357,0.3478017869496526,-4.856727223617091e-07,1.1556197261076355e-07,5.650998541822647e-07
1669909631601354372,16547,1669909631362586216,,-2.8895147094688025,-5.342368234147674,0.1440182018030108,0.09399827167857545,-0.040999782351904594,-0.12400146421696333,5.534484624776763e-231,-2.2463534318785815e-229,-9.966320157361974e-231,0.03334447229197046,-0.012370054289480237,0.3484708530223344,-4.844739806373626e-07,1.1511736058707695e-07,5.652377617208255e-07
1669909631938121853,16548,1669909631590521836,,-2.8661671101394774,-5.3424644132620385,0.13040962342926915,0.09399827167857545,-0.040999782351904594,-0.12400146421696333,0.0,0.0,0.0,0.06786581676399273,-0.026017933454504316,0.35013920891903183,-4.774472923742427e-07,1.124067565022211e-07,5.655308640172477e-07
1669909631947906750,16549,1669909631684927467,,-2.8467758720569756,-5.3435580055076235,0.13037131284535583,0.10999786859355255,-0.04799903592375138,-0.09100438750984326,1.2345649145731653e-144,4.148253063078386e-142,1.543842304387685e-140,0.09110076255871924,-0.03537801111942507,0.34926677933986383,-4.730404632433873e-07,1.1043256365944496e-07,5.653782633645095e-07
1669909632076590985,16550,1669909631879716194,,-2.818417035969565,-5.342365260624959,0.13075134813020656,0.11999851277822644,-0.04799996145287778,-0.06300414469017239,0.0,0.0,0.0,0.12904831310658516,-0.05556376875108704,0.34436276351258854,-4.6770531917298277e-07,1.0652877613855045e-07,5.647698973437125e-07
1669909632455189259,16551,1669909632061078197,,-2.803972422680959,-5.343995878507081,0.1314703652987321,0.10300189205760157,-0.04400040981930184,-0.03900271753846326,4.7176091151015774e-43,9.216632461330209e-43,5.865873131187473e-42,0.15729556836883596,-0.08100966365238094,0.3358258694476639,-4.647612816342327e-07,1.0169782619877758e-07,5.638649553874532e-07
1669909632485695534,16552,1669909632243258064,,-2.8063645156798556,-5.342241943523945,0.13646424005239965,0.0660037496343708,-0.025001894654126666,-0.025001451211667823,0.0,0.0,0.0,0.17447846115989663,-0.1132409341249101,0.3219954730183794,-4.643432010226125e-07,9.673032576326784e-08,5.623579082659003e-07
1669909632605348378,16553,1669909632407782092,,-2.807918396973363,-5.33702847896938,0.14826452439402932,0.045001373963055466,-0.005001286627434622,-0.013000825280863073,1.0647833418658366e-216,3.593536451423103e-218,3.9149519503076505e-218,0.1782245593170515,-0.15172926614188498,0.29983220514765563,-4.658412744242605e-07,8.879693430559422e-08,5.592840109421244e-07
1669909632964964184,16554,1669909632592251070,,-2.811408690100838,-5.331513340817697,0.149943653011715,0.02800050997425119,0.010999541822870083,0.0029994699356368504,0.0,0.0,0.0,0.1649241026388566,-0.1801321602260515,0.27900224052356215,-4.7100022253772757e-07,8.458282865678134e-08,5.56713140903534e-07
1669909633010681316,16555,1669909632805713667,,-2.8166929287846836,-5.318142487183097,0.1598942153361371,0.018000338300012374,0.037999072368707566,0.020999321890963485,2.4502041345886e-310,-4.972608567292469e-308,-5.68428025921649e-309,0.135025066616695,-0.2028797533813247,0.25762261644392837,-4.772164211259703e-07,8.154544321643534e-08,5.54010868447677e-07
1669909633169331178,16556,1669909632979893465,,-2.8209369339158026,-5.313984652669448,0.16850575443483545,0.011002730758717258,0.03899965058208646,0.03999250275950797,-4.9986826910960846e-42,-2.3284992972104496e-42,-2.286189903662834e-41,0.09788393831610875,-0.2148688045515641,0.2357238226873104,-4.835715192759616e-07,8.094396983075794e-08,5.510354229181137e-07
1669909633436007220,16557,1669909633163498488,,-2.8050429665480254,-5.294291548517668,0.1823263445253396,0.04689172163523935,0.05495192461344754,0.049969874189127614,0.0,0.0,0.0,0.07165254843984314,-0.21268948024785317,0.2152407324188399,-4.875185687852218e-07,8.262064712903798e-08,5.481700990669673e-07
1669909633544132491,16558,1669909633342239416,,-2.812683371796068,-5.303864714639656,0.19252780589200114,0.02399963881569449,0.019002253184073285,0.08199777112238987,0.0,0.0,0.0,0.05274802413815394,-0.19576811164202823,0.20108162618912928,-4.912014801465821e-07,8.713726606205095e-08,5.458508457562335e-07
1669909633720007191,16559,1669909633529926317,,-2.8018066170420157,-5.300735087111132,0.191692545686378,0.043998064021979415,0.014000526030877085,0.0730008440966726,0.0,0.0,0.0,0.034961759129231496,-0.1619528357305402,0.1932809431667799,-4.9351499025411e-07,9.395979831143613e-08,5.457844464613325e-07
1669909633959096686,16560,1669909633694583530,,-2.777306534421845,-5.313665506295822,0.19828866575464743,0.07599685967899976,-0.028995753356532934,0.059001348688375276,-1.1087856137610903e-42,-2.410855663475602e-43,-9.269905556747342e-42,0.02574108691857724,-0.11594848173202266,0.1976915465454976,-4.934747555496593e-07,1.0246136943116302e-07,5.475719174840762e-07
1669909633975918899,16561,1669909633845486006,,-2.7406183154184345,-5.322127163763825,0.20327456718332282,0.13498535443940957,-0.05699301170875047,0.050002213938452444,0.0,0.0,0.0,0.026380865791445274,-0.06447171258248474,0.20568539460052193,-4.92469344522894e-07,1.1032713752124454e-07,5.486114040374877e-07
1669909634037599302,16562,1669909633968777176,,-2.723162129069378,-5.325790875694801,0.20379191963962773,0.13498535443940957,-0.05699301170875047,0.050002213938452444,0.0,0.0,0.0,0.029679883144936525,-0.026857062116929953,0.21137809499645321,-4.916886023162705e-07,1.1641548578833853e-07,5.49426502770053e-07
1669909634071780611,16563,1669909634026636689,,-2.714868903109247,-5.327464726482551,0.2013877208133875,0.13498535443940957,-0.05699301170875047,0.050002213938452444,-1.2164124640341084e-63,-1.0335195541882229e-63,-6.491776402814069e-62,0.03234148410080806,-0.007609584174527839,0.21442763091437378,-4.910349119374783e-07,1.1960860033210007e-07,5.498721772449024e-07
1669909634100129630,16564,1669909634061815333,,-2.7098097327818316,-5.328474955560641,0.20313556808434957,0.13498535443940957,-0.05699301170875047,0.050002213938452444,0.0,0.0,0.0,0.03596739618687117,0.01250291434723394,0.21782561425582614,-4.903456914794549e-07,1.2268471821626196e-07,5.503749773438645e-07
1669909634510919440,16565,1669909634087544618,,-2.6829286119323608,-5.328784677977156,0.20384137710304012,0.1809962606881889,-0.0659992286595302,0.04400046780580965,0.0,0.0,0.0,0.03595709412380188,0.012772402405047956,0.21787079655735475,-4.902446466921462e-07,1.2359416355039054e-07,5.504488495741001e-07
1669909634520483815,16566,1669909634276406550,,-2.6465089931842654,-5.3336674772243144,0.20078229268476938,0.1809962606881889,-0.0659992286595302,0.04400046780580965,0.0,0.0,0.0,0.04890601920862281,0.07536934485830926,0.2302398569654187,-4.886173182065675e-07,1.3330021977942647e-07,5.521681272566726e-07
1669909634643620501,16567,1669909634377716148,,-2.6126045729615655,-5.334476774758324,0.20026306521064188,0.20699262011104777,-0.06899911130395432,0.03600224640792715,-7.554489884662697e-62,8.449243131508554e-63,1.5746868973493393e-60,0.05160489009764646,0.09176014846180536,0.2338137163037004,-4.883963191558431e-07,1.3563388863552887e-07,5.525899206855972e-07
1669909635033794985,16568,1669909634631475594,,-2.5730919915213546,-5.343663577911639,0.2004805880748403,0.1780009128465773,-0.06999993292621068,0.03500000964780122,0.0,0.0,0.0,0.060251971356199974,0.15642313476864622,0.2476466522251446,-4.880824585895413e-07,1.4523377897457703e-07,5.541108510515585e-07
1669909635089296860,16569,1669909634871031736,,-2.545330582230643,-5.349048457640275,0.20002754943479556,0.14900155180830457,-0.061001191712962595,0.03299997361410683,3.7783237428538195e-78,-8.636168555094445e-78,0.0,0.06707140652815546,0.1933032180028551,0.257722814267062,-4.865881436956205e-07,1.4836252250176678e-07,5.553454230584777e-07
1669909635234773213,16570,1669909635076691344,,-2.5279727839852737,-5.364830994470816,0.20024736014792252,0.1120021284724811,-0.07399921960550798,0.04099950773959025,-8.422542961799693e-142,-1.530404568048244e-142,7.115346415706263e-140,0.0855769503549837,0.19375375441111942,0.26367802968576726,-4.828625015406073e-07,1.4548964655379644e-07,5.562631889782779e-07
1669909635537659185,16571,1669909635223719974,,-2.5183792819723028,-5.376160529146893,0.2105260782700367,0.09000059212967729,-0.07799986520466753,0.04599983197969069,0.0,0.0,0.0,0.10056348929273895,0.1798001649347718,0.2653643343476997,-4.803373670191408e-07,1.4177735218864106e-07,5.567091849035016e-07
1669909635672405996,16572,1669909635486600817,,-2.5052198830379893,-5.396337528070654,0.22928139894714947,0.05600072206053763,-0.07999992176883206,0.05099979819354997,4.738282510551163e-142,-8.853856163633151e-142,-1.0903209479229922e-141,0.13303035703181543,0.12250005217480009,0.2638152466776269,-4.7578963592714246e-07,1.3047849185120212e-07,5.574951477482304e-07
1669909636050243354,16573,1669909635662267555,,-2.500163742655451,-5.407202356307048,0.24819887697091841,0.039000990313483724,-0.07300039493037991,0.05299984962908696,-2.3549446141065514e-229,-5.1151722618713577e-228,1.153834230588915e-230,0.14822219433800932,0.07255294940314627,0.25864633161306116,-4.74029374921508e-07,1.2163626672848953e-07,5.576990177152342e-07
1669909636110665909,16574,1669909635823470399,,-2.49767877963226,-5.416514346364309,0.26091381534378144,0.026001129963828452,-0.06600059723609707,0.05599970198458573,1.033074113040519e-76,2.6591026928829424e-77,-3.256908915670547e-77,0.15752491225319787,0.022993546288500255,0.2516093624987281,-4.7325380484833766e-07,1.1361311688308707e-07,5.577210941001373e-07
1669909636121637613,16575,1669909635974980031,,-2.493986081177215,-5.424384648157141,0.27054305803623496,0.021000901258383567,-0.06000108194131529,0.05599996692584031,0.0,0.0,0.0,0.13454128672867505,-0.019985175076875805,0.24286014903641728,-4.839744309669847e-07,1.0925295344239129e-07,5.570019458079237e-07
1669909636229226341,16576,1669909636100171193,,-2.483654503508782,-5.395489049033258,0.27203837396505665,0.06099361249211564,0.030985549369267035,0.04200219498739527,-3.3763204504635e-217,-1.966253859820494e-219,1.070245164863033e-216,0.09103711658300995,-0.03393957392320601,0.23733660292819536,-4.929796162689706e-07,1.0882675678670569e-07,5.561834161982345e-07
1669909636332188164,16577,1669909636217673120,,-2.477637010918698,-5.390691858120465,0.2725063200644892,0.06099361249211564,0.030985549369267035,0.04200219498739527,1.0064294952495521e-233,-8.051435961996417e-233,6.441148769597133e-232,0.04412689657153024,-0.043506249561062305,0.23174719401460564,-5.006783910805421e-07,1.0774202412059231e-07,5.553394312621459e-07
1669909636716918054,16578,1669909636322603701,,-2.4739389595152796,-5.392348598263022,0.28013864333440275,0.05400273573519513,0.01800515410710421,0.0390011514194848,-1.5725460863274251e-235,-6.290184345309701e-235,-1.2580368690619401e-234,0.0011002995751674405,-0.0507157014348234,0.226217310992606,-5.068524961993787e-07,1.0728350805431314e-07,5.545120045419081e-07
1669909636757652615,16579,1669909636453879213,,-2.4678341619435984,-5.388460303265954,0.27938372366475045,0.05400273573519513,0.01800515410710421,0.0390011514194848,-4.998583467946267e-63,-6.881759259208351e-63,-1.228646731039048e-61,-0.05152651096200955,-0.05053291719588415,0.2199024615457006,-5.168130741702583e-07,1.090668990730748e-07,5.536480232036109e-07
1669909636757655173,16580,1669909636516013057,,-2.4605027073979384,-5.3888312718896785,0.28161821709057,0.06299852014305572,0.010001336535424786,0.03200111078622115,0.0,0.0,0.0,-0.07822723971065138,-0.046015646091104756,0.216902652117275,-5.201017148176161e-07,1.1050785007838584e-07,5.534279944826913e-07
1669909636765426613,16581,1669909636640626909,,-2.45334738924928,-5.385625923601439,0.2795048621209745,0.06299852014305572,0.010001336535424786,0.03200111078622115,9.685878056546171e-64,-3.020608561708274e-63,-1.0725192892236485e-61,-0.11858547773482364,-0.031709305658731424,0.21147469858669155,-5.228168993917445e-07,1.1368708849738092e-07,5.531991410518856e-07
1669909636822006739,16582,1669909636689483162,,-2.451387080597142,-5.386566303853616,0.2812523963975833,0.06000021229678418,0.005000413755677384,0.03599967883930928,0.0,0.0,0.0,-0.12420001852636631,-0.024735585042641617,0.20983510555672602,-5.214943579526161e-07,1.1510942861204975e-07,5.532616478383252e-07
1669909637232109045,16583,1669909636806357152,,-2.436169388525469,-5.4083194646474695,0.28225535423591447,0.0699993783608078,-0.06899543246574688,0.037999863644844714,3.27905034233608e-219,-9.50774252800109e-217,-1.3937067975042544e-214,-0.11945879388203551,-0.01019286626696747,0.2077074660739946,-5.169433821012907e-07,1.1765396075919201e-07,5.535419354612218e-07
1669909637242212566,16584,1669909636969148042,,-2.422874139868045,-5.416313305814868,0.2899194027502926,0.0699993783608078,-0.06899543246574688,0.037999863644844714,0.0,0.0,0.0,-0.08895275461515872,0.009803773043714159,0.20677895593040496,-5.084285868689878e-07,1.2094168724065313e-07,5.539863365290549e-07
1669909637242289489,16585,1669909637036850720,,-2.412449588695641,-5.437009656576796,0.2979932813449479,0.07299870834677585,-0.11398067790373712,0.0409987058111995,1.871341501579112e-291,-4.583938524352404e-292,5.439412574650891e-293,-0.058346180088165056,0.022318678934006186,0.20711489303055153,-5.026307940570235e-07,1.226922010805426e-07,5.542320703465058e-07
1669909637758228540,16586,1669909637164641885,,-2.4002289123828353,-5.449064284071611,0.30870843741018855,0.07299870834677585,-0.11398067790373712,0.0409987058111995,0.0,0.0,0.0,-0.00409365164135167,0.04083971658664609,0.2081833824458439,-4.941901118536867e-07,1.2524469725320268e-07,5.544178496576477e-07
1669909637805532575,16587,1669909637263194656,,-2.392370922235631,-5.462099628577776,0.3101126487702959,0.06700220375404817,-0.12199701094530087,0.04799741248130509,-3.83755823752073e-141,-5.0563662086354955e-141,-7.1018866766722065e-140,0.046185926570927904,0.05664604657850347,0.2090888666604851,-4.85683335991286e-07,1.2781051062463937e-07,5.544338857252441e-07
1669909637805641398,16588,1669909637395259069,,-2.3799982154519856,-5.476284516652368,0.3197054686393268,0.06700220375404817,-0.12199701094530087,0.04799741248130509,0.0,0.0,0.0,0.08776424630547552,0.06955552095080364,0.20933836628903713,-4.800134799635555e-07,1.2964679025997506e-07,5.541870521360431e-07
1669909637814132893,16589,1669909637446922700,,-2.3635616097541523,-5.484462099750008,0.3194177399248684,0.09098340069860324,-0.1329923585212934,0.05899238085496894,-3.9463949377178024e-138,-5.440924801928061e-138,-4.8599920677190657e-138,0.10763524301011884,0.07597849212487695,0.20906880971025998,-4.778219320331233e-07,1.3043427325153575e-07,5.539495753734126e-07
1669909637814158831,16590,1669909637630083066,,-2.357408587722277,-5.486058391111899,0.33076802081955636,0.062001678307422745,-0.07600329695052097,0.04900056168532811,0.0,0.0,0.0,0.14417111768861623,0.08955964884531298,0.20655057932315657,-4.748927177352858e-07,1.3187718361292017e-07,5.530718646581303e-07
1669909637814177877,16591,1669909637734787519,,-2.3489692535923066,-5.493162951945404,0.3288506899220511,0.062001678307422745,-0.07600329695052097,0.04900056168532811,-6.881295053633421e-43,-1.1031848032050762e-42,-7.150680046259679e-42,0.15346548349813816,0.09525041311115068,0.2033044474654826,-4.7525864984405875e-07,1.3227595219440862e-07,5.522817407352876e-07
1669909637814196697,16592,1669909637775234339,,-2.3457091856449,-5.495921279714286,0.3300962474947108,0.062001678307422745,-0.07600329695052097,0.04900056168532811,0.0,0.0,0.0,0.1534371123818179,0.0966627526358721,0.20158013914841533,-4.7582525136750496e-07,1.3229890582840305e-07,5.519734895439815e-07
1669909637824536516,16593,1669909637799326575,,-2.3437701999003564,-5.497568888104197,0.3308347555229976,0.062001678307422745,-0.07600329695052097,0.04900056168532811,0.0,0.0,0.0,0.15343710223959306,0.09666275375335864,0.20158015284163966,-4.7582525136750496e-07,1.3229890582840305e-07,5.519734895439815e-07
1669909638145895911,16594,1669909637814788408,,-2.346263502640994,-5.486170495582039,0.3318748445450347,0.05900003203902666,-0.04300053656092744,0.04600002274807142,-5.251527076656624e-154,3.3329451795866073e-153,6.50533475026517e-156,0.15361092663354547,0.09717836428583482,0.20102830801023508,-4.7672033214058416e-07,1.321213292111837e-07,5.518483538823701e-07
1669909638156272395,16595,1669909637922699461,,-2.338593696192633,-5.490099482661073,0.3405557862846846,0.05900003203902666,-0.04300053656092744,0.04600002274807142,-1.5843372445839507e-295,-4.736338161195644e-293,-4.286973470878517e-293,0.1450792540750676,0.09933757831104195,0.1945947872679561,-4.797540110236482e-07,1.318762690452746e-07,5.506327907682445e-07
1669909638156312514,16596,1669909637967871328,,-2.3353888211455853,-5.491743982212076,0.34010314020929666,0.05900003203902666,-0.04300053656092744,0.04600002274807142,0.0,0.0,0.0,0.13941983761669263,0.09927533312157166,0.1918878273639102,-4.810361632419896e-07,1.3157576553224774e-07,5.501629484571765e-07
1669909638156510370,16597,1669909638005281220,,-2.3375821409868016,-5.485339828674827,0.3413475985922909,0.05100076813437291,-0.022002047585026503,0.042000362031757686,6.623358485262659e-154,1.7834065099124687e-154,1.0694697869980454e-154,0.13383697295725128,0.09848328897821546,0.18928883787577888,-4.820768647678078e-07,1.3102360811368916e-07,5.497755257998848e-07
1669909638217803840,16598,1669909638136568083,,-2.329884241750897,-5.487531491523434,0.3483776173087729,0.05100076813437291,-0.022002047585026503,0.042000362031757686,1.2698586499422834e-290,5.461863294728987e-292,1.7354691728519278e-292,0.11830361231709219,0.0928235279377887,0.18179569124074746,-4.84470109879289e-07,1.2935909014232202e-07,5.488835606223284e-07
1669909638254142021,16599,1669909638210432712,,-2.325571843186425,-5.488757740759126,0.35090107414613886,0.05100076813437291,-0.022002047585026503,0.042000362031757686,1.445123461230089e-77,1.6127665535683842e-77,2.273904285082379e-77,0.10910315081141064,0.08715476097087738,0.17862890011694432,-4.85600787538148e-07,1.2833909512920182e-07,5.490395278828488e-07
1669909638412402097,16600,1669909638242548887,,-2.3323129457623115,-5.4893112760739875,0.34878429172467457,0.033000851772348544,-0.018000167795751604,0.04699972203854626,-9.604050303961605e-43,-1.1896710757969659e-42,-1.1129832519556462e-41,0.10536108078005135,0.08475315664067651,0.1775202534419673,-4.862566798880628e-07,1.2770702681410765e-07,5.491391243450522e-07
1669909638601885161,16601,1669909638406831844,,-2.324126027085926,-5.50201629642661,0.3607322168835709,0.03199997696391895,-0.039999973863253484,0.054999966029742234,1.731420517171294e-216,3.096799705648512e-216,6.332999033110611e-216,0.08795018868431548,0.06971003306260748,0.1800705868879735,-4.890380196001222e-07,1.253534659858889e-07,5.50675856337077e-07
1669909638757366282,16602,1669909638594210568,,-2.3155787653471758,-5.509773345318127,0.36809190669398606,0.03299994508570425,-0.041999907219749416,0.05300003419136051,-8.69790906927639e-66,5.055810190210425e-66,-1.6134738889720452e-64,0.06404629311913368,0.05417568519851734,0.18465348015200078,-4.93747648282084e-07,1.230588865354438e-07,5.51572643541187e-07
1669909638899729396,16603,1669909638744626783,,-2.3103846624160562,-5.510961848250718,0.37774812845894595,0.03200004672889298,-0.03200064301429705,0.052000037083646866,6.319563855356203e-141,7.241981718543575e-139,2.1335713001994203e-140,0.038301874496005084,0.038929924878011946,0.18780702731521792,-4.978267141593433e-07,1.2065796457883756e-07,5.520968851535099e-07
1669909639198407703,16604,1669909638888290454,,-2.305278689481745,-5.517240660474685,0.38061317762487307,0.030000155653980596,-0.03799944748783753,0.04300075714916282,1.1319537751534083e-144,-2.3359149237360755e-145,1.41306503183081e-142,0.02335181906800088,0.02897660505705346,0.1897794153133674,-4.992466666471002e-07,1.1940470349549147e-07,5.524658377746894e-07
1669909639206019957,16605,1669909639006046048,,-2.300813653352062,-5.521044858523598,0.3884466437907989,0.030000155653980596,-0.03799944748783753,0.04300075714916282,0.0,0.0,0.0,0.0182832846910852,0.022786723490957783,0.1915237621237562,-4.989705660496945e-07,1.1867695350122055e-07,5.528505733739183e-07
1669909639206022810,16606,1669909639038415291,,-2.299591447187645,-5.522086100017303,0.3881342407708052,0.030000155653980596,-0.03799944748783753,0.04300075714916282,-8.986532363229573e-203,-5.618399195019422e-204,-1.2312430297988008e-205,0.0180029730582163,0.021638604070219003,0.1919043885530929,-4.988147957916082e-07,1.1847290495387197e-07,5.529358108452284e-07
1669909639206396278,16607,1669909639088437584,,-2.297698405295964,-5.523695800986359,0.39021181783809644,0.030000155653980596,-0.03799944748783753,0.04300075714916282,-5.938540266086085e-287,-3.796617483337587e-287,3.3518222054539554e-286,0.019570079324489953,0.019236124154272005,0.19259638808841473,-4.982113271428046e-07,1.1789129581940384e-07,5.530533368677848e-07
1669909639302479486,16608,1669909639124729688,,-2.294373017015253,-5.532435469997741,0.39266036247510694,0.030999906452933972,-0.05599858165255496,0.04899951331108712,-5.43230922487e-312,3.4766779039175e-310,5.43230922487e-312,0.02202739233220896,0.012462902401134457,0.19459013517966994,-4.967721046395287e-07,1.1638036762288071e-07,5.535370563071368e-07
1669909639385641636,16609,1669909639295214275,,-2.287230593443387,-5.5409715848922,0.4100431104277421,0.030999906452933972,-0.05599858165255496,0.04899951331108712,3.438890737646131e-142,1.3362807412718718e-139,-2.3097908188573424e-139,0.035075107018647245,-0.004005464777151246,0.19801688156388053,-4.938607658474687e-07,1.1280313174719043e-07,5.543544411015409e-07
1669909639603006277,16610,1669909639373992214,,-2.2893853512273656,-5.555361765329486,0.41860709358495757,0.01700120411963533,-0.07299848738708352,0.060998932776890794,1.84273242407235e-64,-6.568462155737137e-66,-6.240134554841086e-62,0.04485480485941018,-0.01696369825850752,0.20022737461184015,-4.920515974271114e-07,1.1026257879974983e-07,5.549026868420039e-07
1669909639655883502,16611,1669909639524702776,,-2.2915536181531295,-5.56893170731987,0.4319530881190947,4.662796286230425e-06,-0.07599914071516478,0.07099722796227444,7.059008155887585e-296,-5.438943118246723e-295,3.035377918969157e-294,0.06396231811019604,-0.04887851812781463,0.20645333872173666,-4.900091971455836e-07,1.0526824839018791e-07,5.564902816680141e-07
1669909639715003036,16612,1669909639645595940,,-2.2899613604079754,-5.578545809029584,0.4432600269222123,4.662796286230425e-06,-0.07599914071516478,0.07099722796227444,0.0,0.0,0.0,0.06833296345596551,-0.06164913235485159,0.2095872591326966,-4.898830204401404e-07,1.0357751277825278e-07,5.571589151115396e-07
1669909639742974458,16613,1669909639702043817,,-2.289242769690041,-5.583052712447708,0.4505231279414185,4.662796286230425e-06,-0.07599914071516478,0.07099722796227444,1.5176720177750087e-184,-3.594437000774319e-185,1.65793904805195e-183,0.069988350723305,-0.07184225456484228,0.21240750944041054,-4.900908693748276e-07,1.0227782512451346e-07,5.577090711272419e-07
1669909639914679942,16614,1669909639730753285,,-2.2876094620131,-5.577223777058683,0.4523332252163868,0.005998270638272719,-0.06000454181253906,0.06800083612255381,0.0,0.0,0.0,0.07024827642148956,-0.07830540798353702,0.2143156826773076,-4.902406095041144e-07,1.0149076878068647e-07,5.580554275791349e-07
1669909639990774398,16615,1669909639903753971,,-2.2851093423556605,-5.588110481046335,0.4692206555347711,0.005998270638272719,-0.06000454181253906,0.06800083612255381,2.2169098649011631e-218,-9.788135130180927e-218,4.592651457580422e-220,0.0732391469598781,-0.10484357653549736,0.2223715205640584,-4.888870269808567e-07,9.760222663503324e-08,5.596398311258423e-07
1669909640250483186,16616,1669909639980960115,,-2.2830010858750223,-5.588094267659626,0.47759007705652784,0.009998802275085959,-0.051002623477435734,0.06500086413776862,1.3962760278521333e-138,1.8145719736292256e-139,3.9251796128575774e-139,0.07573665431805487,-0.11040185075230013,0.22402816441315743,-4.880861434953932e-07,9.666504197514127e-08,5.599901397910808e-07
1669909640269542745,16617,1669909640111579959,,-2.282577416894256,-5.601018815024806,0.4823370969488061,0.004001125493709988,-0.0629976788070121,0.07099883589867391,-2.9695435452279007e-78,-2.1201560106389108e-78,-2.8693876614467315e-79,0.08559072890938424,-0.1283909902743563,0.2289363349591227,-4.863796962074988e-07,9.359990720121621e-08,5.610689502184203e-07
1669909640459851287,16618,1669909640265319569,,-2.2856346194398083,-5.613883050581886,0.5073361519342797,-0.006991342286624846,-0.06499838080992641,0.08498893929689134,-8.30483534286854e-154,1.1702648481388754e-155,-1.4575740897646965e-154,0.09031529541337946,-0.14927264265272555,0.2349416164689604,-4.868782058865877e-07,9.075959044718275e-08,5.623917576341322e-07
1669909640674776872,16619,1669909640449624231,,-2.2866428270445165,-5.620820985910312,0.5250787711192473,-0.0020008382660025217,-0.0480027606429779,0.1049966779966309,-6.569992045052674e-296,-1.4428442326841706e-293,-1.64150266831917e-294,0.08475457929644392,-0.1656709803419627,0.24139397281083674,-4.883534774722009e-07,8.898877784849604e-08,5.635092597947148e-07
1669909640719473348,16620,1669909640609599527,,-2.2874058949388116,-5.630227066405031,0.5409438983468697,-0.0020008382660025217,-0.0480027606429779,0.1049966779966309,0.0,0.0,0.0,0.07552018601383637,-0.17211843336079724,0.24841856707770127,-4.898985917382889e-07,8.95218044183571e-08,5.651011229791655e-07
1669909640900952523,16621,1669909640711920197,,-2.282314908867575,-5.632774752908259,0.5525872418719252,0.012995244181769228,-0.04300153697520382,0.11499681599113871,0.0,0.0,0.0,0.06838705574426385,-0.16797106210388257,0.2591696381952211,-4.907900027611724e-07,9.150435055268972e-08,5.679354052910473e-07
1669909641296427678,16622,1669909640891199701,,-2.264309457033372,-5.649824366574755,0.5613112734652415,0.04098082519317949,-0.06998148376312917,0.10400750132308335,1.26244393985491e-63,3.14352145583726e-64,1.5540136038947234e-62,0.05501565409958786,-0.15047593720509056,0.29015766709136415,-4.925190150385108e-07,9.629436297151835e-08,5.748872162212946e-07
1669909641304739832,16623,1669909641074178625,,-2.24851650244789,-5.672890176670885,0.5768105925843586,0.047967551197260316,-0.10085662299848985,0.09802773845844553,-9.291070141149114e-294,1.961076955256255e-293,-1.670636299921186e-292,0.040310492072110904,-0.11953043731916502,0.3290482748289758,-4.941740193271826e-07,1.0319829659540743e-07,5.808864857625048e-07
1669909641423822805,16624,1669909641281492194,,-2.233269000445981,-5.681537276396459,0.5784583103439823,0.05299937221798801,-0.08600176497154059,0.0910008355998549,-3.638130550279156e-42,-1.255459042503578e-42,-5.778673132827268e-41,0.020480026360772285,-0.059201338386239755,0.3704946913115794,-4.97425728658329e-07,1.1387248785759798e-07,5.85932020873194e-07
1669909641551975621,16625,1669909641413673650,,-2.2201199873819326,-5.684197307559173,0.5812793995412339,0.061998580871460915,-0.07700135872827421,0.0830012283990678,-2.0208075798024594e-143,-4.86902044377116e-143,-1.848584916312337e-140,0.00496205843884745,-0.013875402721760466,0.3926723422018643,-5.000838315345929e-07,1.2219113834149148e-07,5.893435311865638e-07
1669909641685797496,16626,1669909641539065312,,-2.209184080937181,-5.690061183060831,0.5835907504510179,0.061998580871460915,-0.07700135872827421,0.0830012283990678,0.0,0.0,0.0,-0.008855402128217449,0.03318827517070666,0.4124826552653733,-5.023088221442494e-07,1.299766642258391e-07,5.924466040207037e-07
1669909641779697085,16627,1669909641596569336,,-2.197353863643515,-5.687963560481379,0.580802466511789,0.0799787784104751,-0.07300466875299284,0.06302354313099676,0.0,0.0,0.0,-0.015883798063134336,0.057867336021343974,0.4219018960750489,-5.039308533800022e-07,1.342310132912233e-07,5.939542400447359e-07
1669909641855268957,16628,1669909641746540104,,-2.1813143374837383,-5.692371572957378,0.584381943715177,0.0799787784104751,-0.07300466875299284,0.06302354313099676,0.0,0.0,0.0,-0.0376997678330504,0.11482861764265984,0.4411069452046483,-5.086455492923483e-07,1.437440032411501e-07,5.972951264706531e-07
1669909641988905062,16629,1669909641844710922,,-2.1726867416434845,-5.68998365669471,0.5825222976864018,0.08099981715174166,-0.0610019445036523,0.04900230052999463,0.0,0.0,0.0,-0.050602331632852326,0.15990665344233435,0.45601578116185415,-5.092237423813992e-07,1.4966920226757184e-07,5.998132645192944e-07
1669909642350993668,16630,1669909641991489619,,-2.1621228636385235,-5.705488106516832,0.5791602435769218,0.05800161660038139,-0.08399833041227267,0.04700012173199925,-1.7351440614655005e-255,-6.170248548792437e-258,-7.781086643531058e-256,-0.050838055681330374,0.19507551953911317,0.46922951070915,-5.078372633919325e-07,1.5378245788523263e-07,6.019842019047479e-07
1669909642368305794,16631,1669909642132208252,,-2.148428505332297,-5.711150227140347,0.5897782632158591,0.05800161660038139,-0.08399833041227267,0.04700012173199925,0.0,0.0,0.0,-0.031495233564591274,0.23487123581105251,0.48900016502337706,-5.034303821008494e-07,1.58281983470755e-07,6.0510575081467e-07
1669909642368416045,16632,1669909642188919432,,-2.1440578376450072,-5.724590494781247,0.589339651830881,0.04300738569468394,-0.10698862236745302,0.044001460262398144,0.0,0.0,0.0,-0.018038960762613243,0.24894073348058754,0.4977397764511231,-5.003335752453192e-07,1.6049968452639138e-07,6.068465171768813e-07
1669909642403750510,16633,1669909642331457936,,-2.130117992532418,-5.7338380076008955,0.599704631173009,0.04300738569468394,-0.10698862236745302,0.044001460262398144,-1.427871143895404e-62,5.097554949598298e-64,-8.828560137840036e-63,0.007543526870104955,0.2644461949031651,0.5103122831243372,-4.961283106284527e-07,1.6225115045342706e-07,6.087659169925475e-07
1669909642543181710,16634,1669909642392218896,,-2.1230144384215524,-5.747184439792104,0.5994244198706351,0.03700227400837522,-0.12599273198403615,0.0360030269463172,-2.432269792907651e-295,8.929947272610395e-298,1.4064060930729993e-295,0.028197910352250943,0.27316591887959873,0.5196346962823011,-4.932808530738931e-07,1.63069662296571e-07,6.10069067236726e-07
1669909642603228170,16635,1669909642532341882,,-2.108734269598907,-5.758963235935583,0.6013797336909962,0.03700227400837522,-0.12599273198403615,0.0360030269463172,0.0,0.0,0.0,0.0638374002315043,0.28276790343036673,0.5358155224852403,-4.8955445868639e-07,1.6361604295372937e-07,6.120632147286494e-07
1669909642764832126,16636,1669909642594498978,,-2.1089763032390065,-5.760820356957603,0.6093209185338095,0.029002417511040296,-0.11200422854638882,0.03100149840611826,7.880402440479876e-139,2.07285774075882e-138,4.663893954360718e-139,0.07954923539168135,0.28545292948260936,0.5432477481067899,-4.870771613000122e-07,1.6385293120909182e-07,6.134878231399994e-07
1669909642937911823,16637,1669909642760616023,,-2.103205518656265,-5.769175347728591,0.6104931058320571,0.018001302667962352,-0.0940021376641263,0.027000453843281976,-1.8395861216706468e-215,-1.5358736295540218e-215,-2.6622437270972527e-215,0.10260735940140897,0.28349047662188376,0.5567576826168086,-4.857874856616511e-07,1.6288279691424744e-07,6.151743644399559e-07
1669909643003617622,16638,1669909642934305495,,-2.0910790653876523,-5.780865533168941,0.6102355730405257,0.018001302667962352,-0.0940021376641263,0.027000453843281976,7.725648698287641e-143,-1.8526922678858553e-142,2.225333092818651e-140,0.11130793345980194,0.27249996437064183,0.5620154531764943,-4.864447043351432e-07,1.6034025158661587e-07,6.143134599176713e-07
1669909643396475549,16639,1669909642993667277,,-2.0981253178998776,-5.776038951702143,0.6110380434901025,0.008001383353543065,-0.0650040544463548,0.02300052964499644,0.0,0.0,0.0,0.1095379659069966,0.26756997836292307,0.5593524446382858,-4.867635863503383e-07,1.591907162442351e-07,6.139940321079527e-07
1669909643410545506,16640,1669909643172488338,,-2.1008047536695096,-5.776608052845059,0.6199892687166326,-0.0029987405039801976,-0.03500348127229781,0.019000430902969198,-1.8040436719927895e-79,-5.363646918602296e-80,-4.903706493136156e-80,0.09645315171554536,0.24970595770133563,0.5501038691004112,-4.89664194892851e-07,1.5553150460087177e-07,6.128831188488023e-07
1669909643493314764,16641,1669909643314291758,,-2.0997160640606016,-5.7788299742362295,0.6206815755723655,-0.003000024923632549,-0.028999979420983858,0.014999963246256149,0.0,0.0,0.0,0.08154312641591943,0.23269802507575577,0.5444751828430121,-4.923798980449759e-07,1.5245691856959106e-07,6.126102938141786e-07
1669909643595871612,16642,1669909643488159921,,-2.097573637948021,-5.782976989663997,0.6203023839145877,-0.003000024011766377,-0.027999977844537158,0.010999964590943594,-1.4892883034030191e-142,-2.0712426356616257e-142,-5.424885702189626e-141,0.05994327821341372,0.20683288015104395,0.5393353982415814,-4.960160320311923e-07,1.4772375694736325e-07,6.123260732721518e-07
1669909643644667625,16643,1669909643588062503,,-2.096199489839475,-5.785436400122341,0.6203009008114643,-0.003000024011766377,-0.027999977844537158,0.010999964590943594,0.0,0.0,0.0,0.04722281038303677,0.18803945176535564,0.5371921411734846,-4.977217788411289e-07,1.444095740697646e-07,6.122808378192528e-07
1669909643790589993,16644,1669909643632199394,,-2.094798958214978,-5.788191917913955,0.6197830628152784,-0.003000023012241272,-0.0329997462754725,0.00900005815005495,0.0,0.0,0.0,0.04102329066503074,0.17683671379712074,0.536372672776448,-4.984598224576817e-07,1.4258896063525737e-07,6.123140050322452e-07
1669909643801830535,16645,1669909643743848604,,-2.0930540982331474,-5.791438495211893,0.629483658163828,-0.003000023012241272,-0.0329997462754725,0.00900005815005495,-8.688162586693356e-229,-6.518263108785163e-230,-2.1294223472319122e-229,0.035086171555786194,0.16422674897775025,0.5358115551089924,-4.992170945488155e-07,1.4048438995832935e-07,6.123971626296488e-07
1669909643833866903,16646,1669909643778252508,,-2.0925178863455502,-5.792439732720157,0.6297648034434752,-0.003000023012241272,-0.0329997462754725,0.00900005815005495,-6.10987272699921e-151,-2.3866690339840662e-153,-3.054936363499605e-151,0.03495652054218823,0.1635016174131625,0.5358418366268687,-4.992176307796278e-07,1.4034826439194757e-07,6.124153446114801e-07
1669909643880486281,16647,1669909643818430057,,-2.0918932278253695,-5.793610021668053,0.6300955849099418,-0.003000023012241272,-0.0329997462754725,0.00900005815005495,-1.0117152114477922e-230,-1.1983015092354846e-229,-1.1915781371915229e-229,0.03000342344741469,0.14930328178657248,0.5357410585681261,-4.995847225732706e-07,1.3842155958106871e-07,6.125577064102289e-07
1669909643979168575,16648,1669909643848395843,,-2.092098419793835,-5.797782105572339,0.6296955244939122,-0.007999770328162077,-0.03899967300082219,0.007000069044359137,0.0,0.0,0.0,0.025984858575704095,0.13535783879497032,0.5358493642353039,-4.998544229342803e-07,1.3600936194761615e-07,6.127746506312594e-07
1669909644028978448,16649,1669909643971843234,,-2.0903869362959395,-5.802353960388557,0.6300565562810077,-0.007999770328162077,-0.03899967300082219,0.007000069044359137,2.698802673467014e-79,3.3735033418337674e-80,-4.3180842775472223e-78,0.023231122914431523,0.1185637795946839,0.5365925302386163,-5.000863954779817e-07,1.3320313521638033e-07,6.13070766005996e-07
1669909644063278405,16650,1669909644021830093,,-2.0896968190118415,-5.804209299439859,0.630406283091715,-0.007999770328162077,-0.03899967300082219,0.007000069044359137,8.36561182429351e-155,-1.31713534442489e-154,-5.317614072904783e-155,0.022167414184485423,0.10844482436619174,0.5372402163767056,-5.001671584323149e-07,1.3152910121074525e-07,6.132675131112907e-07
1669909644377529680,16651,1669909644063799542,,-2.0870390494309667,-5.809388875728176,0.6300252629894798,-0.00800001851008604,-0.04898918279129022,0.006001051140666726,-1.0665513398373607e-293,-1.259059111134395e-294,-3.339975757292792e-294,0.021721034355996593,0.1024743501354628,0.5376728412527587,-5.001811285436542e-07,1.3052941537039802e-07,6.133917388450828e-07
1669909644755329076,16652,1669909644230663750,,-2.0839121718163693,-5.8170395930430265,0.6389666275175988,-0.00800001851008604,-0.04898918279129022,0.006001051140666726,0.0,0.0,0.0,0.02125279177511885,0.07220288660188778,0.540572977690978,-5.000848602627388e-07,1.2569287898123975e-07,6.14131963893913e-07
1669909644783048380,16653,1669909644295058527,,-2.082561060921151,-5.821884350940642,0.6399823146679154,-0.009999965810415887,-0.052999864152124015,0.005999975027880341,-6.0209053174665255e-143,-8.397838281864368e-143,-1.601495411910641e-140,0.021805270198802518,0.05760416000776303,0.542362636334115,-4.999359853090463e-07,1.2367829622464258e-07,6.145183207088758e-07
1669909644783202398,16654,1669909644471099053,,-2.078278975277939,-5.8312917125726695,0.6487529233366501,-0.009000042048023599,-0.05499991265493015,0.007999924401237524,0.0,0.0,0.0,0.023750103915959997,0.025342526408365984,0.5469740620902925,-4.996410245968189e-07,1.1881597166872547e-07,6.154832306241025e-07
1669909644783277474,16655,1669909644629712048,,-2.075162967346111,-5.840564166433916,0.6503450957571838,-0.010999963655039888,-0.056999909221911976,0.008999951491623442,-7.815129987001106e-78,3.467603987207765e-78,7.866944780404557e-78,0.025890443023101284,0.0019282646256950642,0.5511000426163477,-4.99264494494313e-07,1.1578014105143593e-07,6.16264593248764e-07
1669909644788949608,16656,1669909644735419376,,-2.072981537475321,-5.8463267133358485,0.6594504513504333,-0.010999963655039888,-0.056999909221911976,0.008999951491623442,7.800029242932868e-298,-1.0315510310745281e-296,6.475987884440895e-296,0.0278907953179246,-0.013558639693988184,0.554530078110469,-4.989454000311987e-07,1.1379000274588583e-07,6.169370103395689e-07
1669909645296614176,16657,1669909644786955980,,-2.071915449065503,-5.849136139348669,0.6598257972510132,-0.010999963655039888,-0.056999909221911976,0.008999951491623442,-1.6081729316525007e-215,-4.140944991200446e-212,3.0798612763560907e-213,0.028568446127849256,-0.017352119127613364,0.5555869071181458,-4.988521979227582e-07,1.1342097331205874e-07,6.171116996925428e-07
1669909645302933629,16658,1669909644837847717,,-2.0671579323603795,-5.850217126664043,0.6595576544147815,-0.002000486030333551,-0.057999906496033315,0.012999768531540959,0.0,0.0,0.0,0.0302046102127278,-0.026355731397991633,0.5581730346432359,-4.985998407311972e-07,1.1236814487527149e-07,6.175863918490364e-07
1669909645302952048,16659,1669909644973442585,,-2.063226151952133,-5.857093951233847,0.6601331902799581,-0.002000486030333551,-0.057999906496033315,0.012999768531540959,3.890056364019534e-230,2.192946564453169e-229,-1.1285094467315087e-230,0.03187843444070815,-0.037749698048722635,0.5620542693136574,-4.986834763459887e-07,1.1092478283154431e-07,6.182655367561593e-07
1669909645321817895,16660,1669909645061908692,,-2.0591630356755264,-5.860755123850531,0.6684771214576068,0.0019998792260569036,-0.057999955786679436,0.019999792675543616,1.962035678962526e-65,5.890217389904984e-65,-4.807900609708678e-64,0.03167658921691796,-0.04767592565734091,0.5660285728666352,-4.989681842421394e-07,1.0967097221401561e-07,6.190042427755298e-07
1669909645321840438,16661,1669909645207523949,,-2.054444130335518,-5.867859242919757,0.6706628409767009,0.0019998792260569036,-0.057999955786679436,0.019999792675543616,-7.96708867706281e-78,-3.7025740855316796e-78,-1.0541480071603825e-79,0.029603040917198342,-0.05771670756531755,0.5710582726177655,-4.995724551121992e-07,1.0839691412569112e-07,6.199208814786922e-07
1669909645792397130,16662,1669909645260441806,,-2.054605019767633,-5.869218057302162,0.6700246735745761,-1.4465515149002225e-08,-0.052999953605523634,0.02499997866836476,-7.056524231926984e-65,9.083906074401078e-65,3.5237691650736116e-63,0.028216237198289917,-0.06064191760115989,0.5730879712402839,-4.998862108584741e-07,1.083694967473644e-07,6.202174911109872e-07
1669909645807511771,16663,1669909645421333250,,-2.048622668313396,-5.874764468218903,0.6803897481384454,0.005999824949658336,-0.05100000580678647,0.02999984492224564,5.576488708348937e-78,9.474489628841584e-79,2.859853312580877e-79,0.02490881805816869,-0.06451981218751612,0.5781271190601007,-5.003097272622481e-07,1.0852338551178693e-07,6.210147434048671e-07
1669909645807531953,16664,1669909645609357306,,-2.042632408566273,-5.8824479111287244,0.681252954513503,0.005999824949658336,-0.05100000580678647,0.02999984492224564,2.8596869175720598e-297,-7.0740165305827575e-301,4.6822092749335065e-295,0.025208586382902354,-0.05958733325111254,0.5859950085628256,-4.995680195062032e-07,1.1040584735810269e-07,6.223065545031423e-07
1669909646311543519,16665,1669909645682232106,,-2.0372827353364005,-5.886360969989325,0.6893404525364566,0.010999850411957578,-0.055999815605740744,0.04099968107750039,1.682557277345349e-142,1.3294662377470684e-142,6.2903797153523e-141,0.026668198264436782,-0.05637835188232998,0.5880566680355876,-4.991876643680024e-07,1.1121642002360655e-07,6.225755220338867e-07
1669909646329116706,16666,1669909645903071373,,-2.026130617152083,-5.896199394333286,0.7006860786064855,0.014999873353060904,-0.05899986592752756,0.051999669240309465,-8.250766454175993e-155,-2.321060846587712e-154,-7.193619236511923e-155,0.03400439079026363,-0.03805236569891335,0.596127673936504,-4.979213491182124e-07,1.1492585367222578e-07,6.237495586351497e-07
1669909646329135054,16667,1669909646063570856,,-2.017746353071608,-5.902394100503606,0.7087120340946772,0.017999902115761027,-0.058999950410957826,0.05699983949601623,0.0,0.0,0.0,0.03816760178970391,-0.02375016997931212,0.6008895805961849,-4.974113545548794e-07,1.1751518879557037e-07,6.243917093527444e-07
1669909646855961893,16668,1669909646260289085,,-2.009152598729727,-5.909906841027363,0.7188685988143432,0.01700001470301089,-0.05700000851895861,0.059999892428511,4.911531074471126e-64,-1.5265121775742963e-63,-3.969543268644418e-62,0.04245761791866265,-0.0014529266903622329,0.6069352364654179,-4.970245645568039e-07,1.2131148063321792e-07,6.251550412076349e-07
1669909646921578536,16669,1669909646401746713,,-2.0028399220603355,-5.9132356044936385,0.7225026788608933,0.018999984899701935,-0.051999951840373294,0.06399997773227935,0.0,0.0,0.0,0.044024842799984754,0.01692456017884858,0.6112430407699723,-4.971743605442203e-07,1.2396752570579776e-07,6.256370705050754e-07
1669909646923542198,16670,1669909646519819413,,-1.9971694117878318,-5.917159509084617,0.7321891415210366,0.018999984899701935,-0.051999951840373294,0.06399997773227935,0.0,0.0,0.0,0.04367312530706968,0.026950753056144805,0.6134465508726521,-4.975192239820795e-07,1.2553648908535376e-07,6.259011106406007e-07
1669909646923585279,16671,1669909646582633655,,-1.9941210289446938,-5.919218152895763,0.7312448729362621,0.018999984899701935,-0.051999951840373294,0.06399997773227935,-2.763138622936452e-144,1.9616786757147203e-143,6.241930986962611e-142,0.04240388104998516,0.03528803881716236,0.6152155891383586,-4.979755453885831e-07,1.2684140152785793e-07,6.261295213176167e-07
1669909646923609658,16672,1669909646633585264,,-1.9932246890983056,-5.920924272149105,0.7371507800931946,0.01600015939740661,-0.05000007018819145,0.0649999180491077,0.0,0.0,0.0,0.04084744531127349,0.04159538999188861,0.6165374851844305,-4.983849909668599e-07,1.2761050403169633e-07,6.262695025214893e-07
1669909647359276055,16673,1669909646810957655,,-1.9872732125206587,-5.924972519677239,0.7431803927924011,0.014000141205531036,-0.04400042794657938,0.06599989677055801,6.319448680653442e-218,-1.4426332549454862e-217,-2.618597760383508e-215,0.03710571508191052,0.054892156178981466,0.619646499912422,-4.989033010903493e-07,1.2905716630577821e-07,6.266754571854563e-07
1669909647378235716,16674,1669909646949181387,,-1.983196576168957,-5.930256218795715,0.7486134331690985,0.007999983137193457,-0.044999956497147435,0.059999975133188506,-6.762210481761565e-43,-3.97219048659656e-43,-1.1168174907250796e-41,0.03544366788499076,0.06081180231789318,0.6216221181322776,-4.99097616974955e-07,1.2953425043985818e-07,6.269837736897514e-07
1669909647378252986,16675,1669909647085227625,,-1.9781825971922824,-5.934534938007776,0.7598580599765871,0.007999983137193457,-0.044999956497147435,0.059999975133188506,-2.1346126767093596e-79,7.47724366501353e-79,1.0260391835334953e-81,0.03385378639325687,0.06342749521207125,0.623783332232577,-4.994756248520886e-07,1.294500937793679e-07,6.273114732480797e-07
1669909647390160355,16676,1669909647187892415,,-1.978101452059605,-5.939166948930212,0.7613977691764,2.2378706108355729e-07,-0.04300001745289467,0.05600009548438767,0.0,0.0,0.0,0.032272647035112456,0.0629641769679612,0.6254035608357267,-4.998433220284474e-07,1.289777137700976e-07,6.276452628143435e-07
1669909647891111788,16677,1669909647390414651,,-1.9737673126837156,-5.947161228546191,0.7712066895847393,-0.004000016716515579,-0.04299995823871389,0.053999975348917116,-1.6867516709168837e-80,1.0542197943230523e-81,-1.349401336733507e-79,0.02949018126138192,0.058452167010608846,0.6276372580908163,-5.004275962805438e-07,1.278299974143567e-07,6.280744404693888e-07
1669909647908187095,16678,1669909647578612047,,-1.9702691078891152,-5.9544413343057165,0.7801233817463405,-0.006999922118066879,-0.041999989892472514,0.05300000710389168,0.0,0.0,0.0,0.025422862241391897,0.04697713057723618,0.631044539814873,-5.011468443568562e-07,1.2566421427353422e-07,6.287375274113009e-07
1669909647908215974,16679,1669909647715788295,,-1.9680036718463685,-5.960631297761633,0.7914048143497274,-0.010000016283797994,-0.04299995817744873,0.052999975987026,1.4735124335398547e-77,1.1874767041433924e-77,-1.1854777585685083e-78,0.02430782061733794,0.03901677671779957,0.6330194289140394,-5.010751645090351e-07,1.2430238390081907e-07,6.29103045760967e-07
1669909647923527529,16680,1669909647833519373,,-1.965688027052835,-5.965398470725945,0.8002857672845949,-0.010000016283797994,-0.04299995817744873,0.052999975987026,-1.1985091468012028e-94,-1.9176146348819244e-93,1.1985091468012028e-94,0.02529159592570629,0.02960108315753196,0.6352346370028688,-5.006089879120477e-07,1.2261466403201664e-07,6.29577101258626e-07
1669909647964939475,16681,1669909647900296347,,-1.9643894010295813,-5.968120438974869,0.8087692777094303,-0.010000016283797994,-0.04299995817744873,0.052999975987026,4.1282560683234606e-144,2.7040404679505374e-144,1.0578221051969651e-141,0.02695975475677237,0.02340135079917438,0.636690577682959,-5.00161586290723e-07,1.2151392569588122e-07,6.298954363460578e-07
1669909648457209128,16682,1669909647939726844,,-1.9642314707737776,-5.972766170358101,0.8074613766457014,-0.01599981677301169,-0.04799979150508561,0.060999711313097026,-1.1310995150849614e-295,1.321553209457681e-296,-1.70322625292545e-293,0.028305283154967498,0.019660438719371953,0.6375755044951426,-4.998176138760443e-07,1.20939879649758e-07,6.300615003697036e-07
1669909648467551164,16683,1669909648045738493,,-1.9623607875631812,-5.977944912326975,0.8174668910586926,-0.01599981677301169,-0.04799979150508561,0.060999711313097026,0.0,0.0,0.0,0.0325748520496667,0.010593534989736142,0.6396877270799806,-4.99042787088463e-07,1.1964480968176833e-07,6.304351970957209e-07
1669909648467569068,16684,1669909648092427510,,-1.961542425935103,-5.9802399747554755,0.8202522415439766,-0.01599981677301169,-0.04799979150508561,0.060999711313097026,-2.5764595078388533e-231,6.441148769597133e-232,-1.6489340850168661e-229,0.03496771201063886,0.006242960021141997,0.6407400704043784,-4.987484911659029e-07,1.191614645680487e-07,6.306068764174075e-07
1669909648467586397,16685,1669909648117939523,,-1.9597699151267058,-5.9825678718328605,0.821784377125473,-0.015000049513159268,-0.05199981991859621,0.06799973850907474,3.0347219196600975e-77,2.0845799319868426e-77,-2.8634878386490824e-78,0.036684280415009596,0.0028688363510340764,0.6415457546520678,-4.982162174085021e-07,1.183121040239306e-07,6.308738051541378e-07
1669909648467603585,16686,1669909648245758352,,-1.9571281212511655,-5.98931028135311,0.8367245639706149,-0.015000049513159268,-0.05199981991859621,0.06799973850907474,0.0,0.0,0.0,0.04340918185165421,-0.009709294320391137,0.6447824754310769,-4.974510452416341e-07,1.1649621277615755e-07,6.314914671656167e-07
1669909648470367337,16687,1669909648318568341,,-1.9536530349839487,-5.990671115266328,0.8416440788244121,-0.008000260511464385,-0.050000025334712137,0.07099987236137519,-1.035052700659762e-171,-1.656084321055619e-170,1.035052700659762e-171,0.045399576297626254,-0.014597695944129185,0.6460964936603855,-4.974033248221951e-07,1.1598073002149053e-07,6.316950155093306e-07
1669909648918761541,16688,1669909648463072101,,-1.9500766829011573,-5.997611756249353,0.8482802432576119,-0.008000260511464385,-0.050000025334712137,0.07099987236137519,2.3362170151659364e-230,-5.22185103813207e-231,4.025465214540168e-233,0.046896270604900536,-0.02113598266278771,0.647846305723359,-4.97492944973343e-07,1.1503149720331735e-07,6.320265672311666e-07
1669909648939261357,16689,1669909648505294038,,-1.9503354511112885,-5.996568720044328,0.8512476098756133,-0.00600008670498727,-0.04200023842647062,0.07199994153835194,7.525563131271855e-141,-2.748162948949257e-138,-1.4158744227262043e-136,0.04695097425400441,-0.02261094232962435,0.648233876510476,-4.976085749259671e-07,1.1497284034860982e-07,6.320417207876082e-07
1669909648939293165,16690,1669909648630010882,,-1.9476982682275183,-6.001665545898611,0.8611345470900682,-0.00600008670498727,-0.04200023842647062,0.07199994153835194,3.902394801164034e-222,1.1909324315630505e-219,8.257290195443291e-220,0.04559405005257133,-0.03175449605663161,0.6506527137247264,-4.982274950925534e-07,1.139248571312258e-07,6.324259653339029e-07
1669909648939885017,16691,1669909648673561304,,-1.9484174097386848,-6.002013444572023,0.8672859157181174,-0.006999978887418979,-0.037000137314637103,0.07199997669160123,0.0,0.0,0.0,0.04487276251298411,-0.03388159828138271,0.6511964420759888,-4.985077212782832e-07,1.1356492688774858e-07,6.325569908822211e-07
1669909649438727179,16692,1669909648874582687,,-1.9445873227856194,-6.008297049177381,0.8796674413232073,-0.004000060617859729,-0.03499998140790619,0.0749999318150536,2.0835600015000806e-77,8.045805470273535e-78,1.0795210693868056e-78,0.03952112638872585,-0.04088812729062674,0.6533069757276806,-4.995973877589974e-07,1.1303127866110232e-07,6.329088104810276e-07
1669909649498171163,16693,1669909649017646114,,-1.9420924902304828,-6.013210191614686,0.891298234475682,-0.004000060617859729,-0.03499998140790619,0.0749999318150536,-4.9729600917104134e-220,1.5856082959251843e-220,-1.747022991158289e-218,0.0358583198773772,-0.042036165343139587,0.654358057063984,-5.003127483829276e-07,1.1319109274286968e-07,6.330929654661574e-07
1669909649499815302,16694,1669909649078109284,,-1.9396227658295604,-6.014258789015466,0.8983025516650477,-1.6469589203711702e-07,-0.03499995102164787,0.07799986504206682,0.0,0.0,0.0,0.03462708262952319,-0.04190959502837188,0.6546759095159906,-5.004930485570693e-07,1.1337089418770248e-07,6.331348253756457e-07
1669909649499841358,16695,1669909649210441079,,-1.9376068828027024,-6.017695989631455,0.91072212297782,-1.5366122770279235e-08,-0.032000411134320755,0.08299920939982827,1.22329488863873e-156,7.745505691898858e-156,-7.893147356893231e-158,0.029095721150207865,-0.03884260978065868,0.6557838286000113,-5.017752058518905e-07,1.1446896578793028e-07,6.332941833667928e-07
1669909649500972546,16696,1669909649341862235,,-1.9351808998825986,-6.021504467274333,0.9154913071726202,-1.536612277028009e-08,-0.032000411134320755,0.08299920939982827,-1.0448211916753203e-230,4.044168871788293e-231,-6.516450604339907e-232,0.020515697515861575,-0.03177181185845512,0.6567773209624903,-5.037523152209403e-07,1.16226991234643e-07,6.335090701568513e-07
1669909649968368069,16697,1669909649398823815,,-1.9299941621201706,-6.015691213020784,0.9197056422075146,0.018920626063824986,-0.024033366331224416,0.06905844953429463,1.7184010775716595e-145,1.4339951300755199e-145,1.0401188888087838e-143,0.01622693904741368,-0.02776842197858187,0.6573788409891286,-5.04493670672053e-07,1.1707159569127553e-07,6.336753328241223e-07
