%time,field.header.seq,field.header.stamp,field.header.frame_id,field.position.x,field.position.y,field.position.z,field.velocity.x,field.velocity.y,field.velocity.z,field.acceleration.x,field.acceleration.y,field.acceleration.z,field.orientation.x,field.orientation.y,field.orientation.z,field.angular_velocity.x,field.angular_velocity.y,field.angular_velocity.z
1669909508908437480,15343,1669909508802165782,,-0.5142482617074807,-3.550428993119845,0.38033930081857814,0.021998415896094484,0.011001594614896072,-0.04399923708716859,0.0,0.0,0.0,0.06879488759727792,0.00474178649465351,0.03781634769025821,-4.181500479200277e-07,1.1085691228153035e-07,4.760398107525257e-07
1669909509135738815,15344,1669909508879038650,,-0.5081808617002489,-3.538255137180825,0.3792597830315461,0.03199921087048427,0.036998015092772674,-0.047999713386841523,6.433395992507896e-67,1.5997317370486042e-65,4.965330966554283e-65,0.06900517958201569,0.0031997452438403684,0.05790593486947593,-4.1824315548740735e-07,1.1086520793297559e-07,4.783996679831186e-07
1669909509283707517,15345,1669909509068048812,,-0.5013868866568948,-3.5204650705592577,0.37150675401533445,0.03599998430124582,0.06000002809258754,-0.04800002315023659,8.702145116536046e-45,4.1233484554597585e-43,6.001644291014225e-42,0.0685235006629874,0.0013609196403212565,0.08870709401880461,-4.185387199328161e-07,1.110120341084683e-07,4.823371151694649e-07
1669909509395305210,15346,1669909509249875288,,-0.4942764488018758,-3.5009687080651792,0.3591869981671361,0.04099964320062419,0.07599893806543742,-0.04800002326703339,0.0,0.0,0.0,0.06666302572886806,0.0005715637553507236,0.1135994935545952,-4.189009437177294e-07,1.1123306008463494e-07,4.851855812509656e-07
1669909509449519987,15347,1669909509364169725,,-0.4906874085384086,-3.491430992722219,0.3616066080554124,0.04099964320062419,0.07599893806543742,-0.04800002326703339,1.5442152706920442e-44,1.0426440829278284e-42,1.5842346632825475e-41,0.06564441805976529,0.0010371936261606152,0.1275521420350696,-4.190971085674419e-07,1.1155480772002393e-07,4.869443220760067e-07
1669909509781160716,15348,1669909509409907424,,-0.48820677726910927,-3.4836268535672272,0.3596557194280618,0.04499969702167869,0.08599931273161338,-0.047000095150081814,0.0,-2.598806207595231e-116,5.916190494266941e-118,0.06539209099555343,0.0012801137319051747,0.13020507068624454,-4.192614481085281e-07,1.1171348245820245e-07,4.878025456542514e-07
1669909509841585100,15349,1669909509544357547,,-0.48381360900018694,-3.470955611603863,0.34918864003737665,0.04499969702167869,0.08599931273161338,-0.047000095150081814,6.502427691384587e-78,1.0559065459939692e-77,-2.1590421387736112e-78,0.06456086223765922,0.0025490293388088503,0.13727855288774826,-4.1945478582078727e-07,1.1212483839413348e-07,4.886964496609155e-07
1669909509841627289,15350,1669909509592167301,,-0.48228551076204956,-3.466441506914016,0.3506247064192731,0.04499969702167869,0.08599931273161338,-0.047000095150081814,4.541340276904055e-307,2.370525947202205e-307,1.1908341268924374e-308,0.06393752440611244,0.0038255800381143956,0.14174379280660787,-4.1958038589969714e-07,1.1242078732717003e-07,4.892366957925891e-07
1669909509842387915,15351,1669909509631722150,,-0.48102359477077383,-3.4627063215748204,0.3489805676383657,0.04499969702167869,0.08599931273161338,-0.047000095150081814,0.0,0.0,0.0,0.06356022076964507,0.004704449780643216,0.1440786152018081,-4.196613285893861e-07,1.1256935029600692e-07,4.894706274388827e-07
1669909509877638254,15352,1669909509668024651,,-0.47868654358114027,-3.453193782576261,0.3420212303609804,0.048999984174645204,0.09800003111575503,-0.04600002333692873,-8.995611672162347e-44,-9.45049149808554e-43,-1.4976653319743162e-41,0.06292846994586299,0.006227504886878066,0.14798458282645655,-4.1979248697539216e-07,1.1293082803255925e-07,4.900160694188539e-07
1669909510011908897,15353,1669909509845872722,,-0.47033374139106476,-3.4293417898569154,0.337300274527838,0.055999086396949345,0.10699887729829405,-0.05899835595127753,0.0,0.0,0.0,0.061748682210735595,0.009971689933717442,0.15482549063557371,-4.200212452566651e-07,1.1355214492147447e-07,4.908002581505966e-07
1669909510069642683,15354,1669909509976489824,,-0.46542127769437797,-3.4139431343991884,0.3236214325925093,0.055999086396949345,0.10699887729829405,-0.05899835595127753,0.0,0.0,0.0,0.061358750811482565,0.013658046435310212,0.1601161580339472,-4.2004683757317086e-07,1.1422335943856532e-07,4.915159388340512e-07
1669909510250812732,15355,1669909510033847068,,-0.4645255001602134,-3.4049413547568896,0.3197984373103185,0.0540003734720551,0.11199905785532727,-0.07299729675290278,8.416225876658094e-143,1.0844287073421683e-142,1.4785934565818328e-142,0.061364677114198685,0.013886279580026084,0.1604061866578803,-4.200408125405395e-07,1.1428802387926279e-07,4.915868985349567e-07
1669909510267547086,15356,1669909510154365825,,-0.4604676941528887,-3.390060675231526,0.3082776854008365,0.0540003734720551,0.11199905785532727,-0.07299729675290278,0.0,0.0,0.0,0.06225289596761563,0.017197335148358306,0.16383127439360123,-4.198289616735702e-07,1.1491197527234724e-07,4.920166968069047e-07
1669909510382402846,15357,1669909510211774080,,-0.4608406239414406,-3.3827011233589297,0.3094872088406771,0.04900119319818439,0.11299978967331663,-0.079998330176442,2.7391032318237278e-183,1.858178995853875e-182,2.3028799550891466e-181,0.06276400880105903,0.01817822841872463,0.16452497354373108,-4.1973017109665223e-07,1.1505946827484017e-07,4.92058773533729e-07
1669909510420100850,15358,1669909510344322359,,-0.4571756359320026,-3.366233179199475,0.29836523695563644,0.04900119319818439,0.11299978967331663,-0.079998330176442,-1.1421021827336293e-64,-1.3754956108431075e-64,-9.974759786829577e-63,0.06358375641385017,0.019487821678563222,0.16527378779044888,-4.195948603067659e-07,1.1525561573861046e-07,4.921138937496696e-07
1669909510557114406,15359,1669909510377636367,,-0.45530646008192377,-3.3608016383346784,0.2959961395688966,0.051999322245278375,0.11599936938360837,-0.07900024375124928,1.5464033063642648e-220,7.1670634885971e-220,4.773836900385834e-218,0.06422863462011819,0.020282260435498856,0.1656024509947258,-4.1947264337789797e-07,1.1535477029110052e-07,4.921090341045231e-07
1669909510833251373,15360,1669909510520224326,,-0.45105927854242023,-3.342574784282555,0.28038976574972374,0.051999322245278375,0.11599936938360837,-0.07900024375124928,5.397605346934028e-78,8.096408020401042e-78,1.0795210693868056e-78,0.0674171129397827,0.022749959886827043,0.16598558121049933,-4.1894508839659004e-07,1.1568506399996245e-07,4.92047625950691e-07
1669909510860996773,15361,1669909510588874506,,-0.4508166657536086,-3.333973728219438,0.27281688962859696,0.0480004039903572,0.11600003142086886,-0.08299960353710989,-4.44680182219123e-233,2.3099195817238e-233,9.889369037883632e-232,0.06923696664856571,0.023812633786846504,0.16565608192056835,-4.186855120999738e-07,1.158032849272078e-07,4.919210016524291e-07
1669909510914991945,15362,1669909510761732331,,-0.4470658241686157,-3.310369613750091,0.266368280073062,0.047000136084737916,0.11999942245207496,-0.08599956719210461,2.5160737381238802e-234,-2.0128589904991042e-233,1.0305838031355413e-230,0.07246192203759705,0.025724940930135887,0.16053080462987346,-4.1822147484981815e-07,1.1603945016154016e-07,4.896257078780092e-07
1669909510955828866,15363,1669909510874285511,,-0.44427867446809455,-3.2955453816614733,0.25651514422381955,0.047000136084737916,0.11999942245207496,-0.08599956719210461,9.12094712429692e-233,-2.8162522810941165e-232,-3.503716405612816e-233,0.07501421408484532,0.02867392405568303,0.14169286249078716,-4.1763409041970295e-07,1.1645656762431492e-07,4.838068066264574e-07
1669909510998137284,15364,1669909510914940004,,-0.4432004955555056,-3.290201145900709,0.2513711949755714,0.047000136084737916,0.11999942245207496,-0.08599956719210461,1.4822413312732884e-63,3.4281151734338847e-63,3.305486966789539e-62,0.07582148297622027,0.030090739657804733,0.13244215134116466,-4.1745505200154677e-07,1.1664594974512563e-07,4.814131786334681e-07
1669909511047136383,15365,1669909510955892466,,-0.4420988768751727,-3.284819062606349,0.24817557755987008,0.047000136084737916,0.11999942245207496,-0.08599956719210461,-6.935817789785113e-231,-4.6573893829234055e-234,3.371426041682636e-232,0.07701547222602656,0.033352644816426746,0.11167274757870338,-4.1726233851587756e-07,1.1704559860264736e-07,4.768440898114362e-07
1669909511237123461,15366,1669909511000701020,,-0.4398622832394161,-3.2552816337485586,0.2454111926365442,0.057997896778943986,0.17798902781464798,-0.08200078301391706,0.0,0.0,0.0,0.07750120821629736,0.036499105181142966,0.09256685477904014,-4.17224771330786e-07,1.1744234641162058e-07,4.730159673902943e-07
1669909511253482768,15367,1669909511125931305,,-0.43493362389898516,-3.231698144870286,0.23654196837410293,0.057997896778943986,0.17798902781464798,-0.08200078301391706,0.0,0.0,0.0,0.0761066158217254,0.04512561475966237,0.044099010921492265,-4.176358615393337e-07,1.1846876668008254e-07,4.6422993761923556e-07
1669909511264583850,15368,1669909511190040550,,-0.43192441635321643,-3.21976038617014,0.2376613057250445,0.057997896778943986,0.17798902781464798,-0.08200078301391706,0.0,0.0,0.0,0.07529533345226547,0.04723161714582602,0.03285631598911465,-4.177977228939328e-07,1.1870311546022234e-07,4.6233254187707614e-07
1669909511332166281,15369,1669909511226370889,,-0.430130273394601,-3.2130245690586676,0.2350763005952102,0.057997896778943986,0.17798902781464798,-0.08200078301391706,0.0,0.0,0.0,0.0737535865199277,0.05049594763841192,0.0156450771991814,-4.1804215650164715e-07,1.190565390785455e-07,4.595458493953161e-07
1669909511543246625,15370,1669909511271176723,,-0.43268862500893507,-3.1960793466599906,0.23083798434392985,0.05000070010137524,0.19599841671465362,-0.07500065187722178,0.0,0.0,0.0,0.07204740244477925,0.05366797231887688,-0.0009036913778075473,-4.1828001518262773e-07,1.1937328342276533e-07,4.5714644629373886e-07
1669909511904779408,15371,1669909511500489329,,-0.4245250006194247,-3.1536860381553597,0.20927467827368784,0.04200143574061653,0.19000111744247936,-0.07500002501669598,0.0,0.0,0.0,0.0648263902861217,0.06988811552427876,-0.08207994372983762,-4.1826921245874754e-07,1.2101411900428181e-07,4.462951321204406e-07
1669909511918919592,15372,1669909511665379585,,-0.4222358064253494,-3.1305811050480683,0.19101253022820502,0.03000155466834939,0.17400212145775665,-0.07799963212093523,-3.565348497367478e-139,-3.4345327421475364e-140,-6.65210665963437e-140,0.06516163258610241,0.07727829013965604,-0.11527383610180664,-4.174320224529746e-07,1.2176339942754257e-07,4.4216031181984764e-07
1669909512008456200,15373,1669909511828918020,,-0.418236711080011,-3.1093727773735402,0.18490710202145222,0.02400048000131826,0.15800134731892637,-0.08099977624158804,-8.12759777663692e-296,-9.18737754347377e-295,2.0714799912119504e-294,0.06981844487159705,0.08473459205564282,-0.14715276945974054,-4.160305441870318e-07,1.2240431498104477e-07,4.3834766278362506e-07
1669909512135179395,15374,1669909511959042826,,-0.4156621719808104,-3.092874979900008,0.17182438206816156,0.019000625863352695,0.14800130654787272,-0.0849995104579059,-1.3471255281193133e-292,-7.803675847819147e-291,-2.0347613177304922e-290,0.07544205690329164,0.08885635935981817,-0.16574945769318106,-4.1471990160650366e-07,1.2275797813808026e-07,4.358315243461597e-07
1669909512288833256,15375,1669909512089290418,,-0.41067318698882355,-3.0733850838351384,0.15925134811123712,0.019000625863352695,0.14800130654787272,-0.0849995104579059,0.0,0.0,0.0,0.08156446160811903,0.09202766914281035,-0.1812146405499977,-4.136844931433995e-07,1.2299722769159555e-07,4.3379282299919457e-07
1669909512331161656,15376,1669909512152153252,,-0.410329070504092,-3.0661393508740318,0.1523278530032339,0.015000314323440206,0.1420005166076257,-0.08699985902785,-1.2803360808745075e-306,-8.757055101278566e-309,2.662172543035774e-309,0.08362550300176608,0.09300695823406002,-0.1862839104193057,-4.1342995732783375e-07,1.230317618027436e-07,4.3327223281257523e-07
1669909512370180012,15377,1669909512288242810,,-0.4054387482617634,-3.0464619753316695,0.1486469108005506,0.015000314323440206,0.1420005166076257,-0.08699985902785,-2.5612642583689488e-307,-9.712652579107515e-307,1.061136050711583e-309,0.08669920407391452,0.09441337556038754,-0.1941357729253106,-4.129738609231168e-07,1.2310408412721625e-07,4.322041037736155e-07
1669909512522275972,15378,1669909512324726853,,-0.4037445227045104,-3.0417074629921013,0.14506251192159675,0.015999874162136003,0.14100012821392516,-0.0860001338960833,3.3207285040249546e-143,1.037983928804689e-141,3.2796480221489064e-142,0.08778617109339137,0.09489027738135647,-0.1971156166615664,-4.128915993042608e-07,1.2310042725197218e-07,4.319099273666594e-07
1669909512608649248,15379,1669909512479029039,,-0.3977631553001108,-3.0196097505912096,0.13033615965470077,0.015999874162136003,0.14100012821392516,-0.0860001338960833,4.030773983824122e-184,9.026226373147853e-185,-3.703950778941239e-182,0.09218681641578286,0.09641091043614125,-0.21186191539113963,-4.123308097845545e-07,1.230332635524653e-07,4.297862377539513e-07
1669909513008876283,15380,1669909512566885273,,-0.39486020803310545,-3.005578123977609,0.12944163734459832,0.014000199166391645,0.14399969348965186,-0.08699991739045418,3.2203098539138805e-65,1.5321696681216373e-64,-2.541001556739943e-65,0.092750325670929,0.09658455691205425,-0.21612550510345052,-4.1236207262470715e-07,1.2297031809994527e-07,4.2923960815840316e-07
1669909513018688367,15381,1669909512726440336,,-0.3872286654801513,-2.981425484966738,0.11618294609147962,0.016999560200337244,0.14599973641352268,-0.09199932236061063,0.0,0.0,0.0,0.09314033007611755,0.096437674078242,-0.22569280096243816,-4.123547119203454e-07,1.227383943922506e-07,4.279110576910309e-07
1669909513018781917,15382,1669909512877463230,,-0.38057905070054737,-2.9591103246493855,0.10039634687803903,0.016999560200337244,0.14599973641352268,-0.09199932236061063,0.0,0.0,0.0,0.09373394742451957,0.09497891359257693,-0.23454602030765415,-4.1212239828156966e-07,1.2217658754823366e-07,4.2663418939509275e-07
1669909513178994850,15383,1669909512959716455,,-0.3771994235088416,-2.9464726470146387,0.09158309729890693,0.016999982114876702,0.14600001740373517,-0.10199899037264884,6.01416947087065e-308,1.906555764576625e-307,5.642671494153164e-308,0.09404351448415582,0.09414692445054129,-0.23712171315274944,-4.120515097287666e-07,1.2196376416033572e-07,4.263169265600074e-07
1669909513554036669,15384,1669909513104187607,,-0.37578619857280526,-2.9292803424183314,0.07827853280428351,0.007000994831712626,0.1350011311541122,-0.09100114018412336,0.0,0.0,0.0,0.09535041888449669,0.09086649232021315,-0.24542121707447784,-4.117238334588e-07,1.2124247794495525e-07,4.2515902752988247e-07
1669909513566388643,15385,1669909513278590041,,-0.36963484069301744,-2.9050631408068073,0.0699075968147105,0.007000994831712626,0.1350011311541122,-0.09100114018412336,8.39773947261032e-230,2.2255113105791582e-230,-4.395108950848586e-230,0.10016444282272552,0.08571382502796254,-0.2523836856567172,-4.0989208336809957e-07,1.1958519094976263e-07,4.2408525318279624e-07
1669909513566391019,15386,1669909513321913898,,-0.37232226133874735,-2.906295341996298,0.06782889680137975,6.960308756237883e-07,0.11800175047433206,-0.07300186167084505,0.0,0.0,0.0,0.10865834447190537,0.07754679306903789,-0.2587807096162926,-4.0777503833013545e-07,1.1744537181986617e-07,4.2309519076749776e-07
1669909513580646840,15387,1669909513450419944,,-0.36872734751589253,-2.890531506354257,0.07094844233955996,6.960308756237894e-07,0.11800175047433206,-0.07300186167084505,3.003851832650652e-292,1.2680601941572985e-290,1.0475188356149595e-291,0.1216185724718244,0.0642373733303252,-0.2676185513569127,-4.0503614313220524e-07,1.1431237350265335e-07,4.216996965509854e-07
1669909513738648675,15388,1669909513525794660,,-0.37239200059451333,-2.888996049511114,0.06812301069138835,-0.011999516750923563,0.0970008937780481,-0.04500119518646228,1.854310012250958e-292,6.717418661133684e-292,-2.0311186461175132e-292,0.13242607991110056,0.052313135956874035,-0.2750758041422934,-4.0318941193997176e-07,1.1191119649513431e-07,4.20769313158194e-07
1669909514081323895,15389,1669909513685913908,,-0.36990965463848513,-2.8725310692014663,0.06903650891870382,-0.011999516750923563,0.0970008937780481,-0.04500119518646228,7.651105579278985e-77,2.378319855992806e-77,1.0795210693868056e-78,0.15389923880315237,0.024482385473470814,-0.29216999044843206,-3.997673158898925e-07,1.0617613231416816e-07,4.1840168475895005e-07
1669909514110422760,15390,1669909513735089908,,-0.3761774916207663,-2.8756243755764417,0.06908737242455337,-0.022999349366724167,0.07900111096201329,-0.0240013022980624,0.0,0.0,0.0,0.16074498220040034,0.013747370518633062,-0.29887555710215885,-3.9898861067553095e-07,1.0422515899083313e-07,4.175859683030861e-07
1669909514137214786,15391,1669909513884491006,,-0.3760025192642381,-2.8599301953073866,0.08848606257218744,-0.025999801281611817,0.08799936757925911,-0.009001111063065708,0.0,0.0,0.0,0.17594619110885645,-0.015607144080842517,-0.31780017832290497,-3.973866315507191e-07,9.893657022045827e-08,4.1530960005330903e-07
1669909514186555855,15392,1669909514059319316,,-0.3753568510899556,-2.8436280664295457,0.09864370821414187,-0.025999801281611817,0.08799936757925911,-0.009001111063065708,0.0,0.0,0.0,0.19061274917306292,-0.06040963276450739,-0.3496511050667923,-3.9644632825497746e-07,9.070561960092866e-08,4.1120924788234073e-07
1669909514600517375,15393,1669909514127523122,,-0.3788240100867326,-2.8344344923822975,0.10019088221935935,-0.034999082902081646,0.09399939504716445,0.007998205203706803,-8.893899445133457e-231,-1.0073738634078289e-231,-8.31785275491487e-232,0.1926724218040512,-0.07448339583364394,-0.3606481706535316,-3.9690394567622354e-07,8.842238338518082e-08,4.0991181337054013e-07
1669909514610401830,15394,1669909514318683755,,-0.38304847120782537,-2.8119471690807605,0.1112410458776786,-0.04399883942599053,0.10099910273169335,0.023997875609872002,0.0,0.0,0.0,0.18272351951048016,-0.1063990107760322,-0.3916134849012387,-4.027953954488629e-07,8.483716761840931e-08,4.060002496870511e-07
1669909514751204190,15395,1669909514487886939,,-0.3521601849054553,-2.7794150015933736,0.1114616252291258,0.0029479531369051744,0.14498337443714243,0.02299453998174978,0.0,0.0,0.0,0.1357508034501258,-0.10846609235570703,-0.4222219416329054,-4.1334321692186e-07,8.826967617846189e-08,4.011914181762143e-07
1669909515128205150,15396,1669909514676315160,,-0.3336373443210277,-2.7594395768944855,0.11089993889182675,0.01995319749851726,0.14300546368591366,0.022999958153941315,0.0,0.0,0.0,0.07765050053148492,-0.07958185009856855,-0.45209351010542953,-4.230149307885256e-07,9.423389843763671e-08,3.96127660552345e-07
1669909515141390591,15397,1669909514825618134,,-0.3229745815128655,-2.7554156477392544,0.11272196738969592,0.02600186097053033,0.1130024812065794,0.031997152094482326,2.970251887802287e-259,2.5743456779620652e-259,-1.774841051834175e-258,0.04478421815065481,-0.055871990132740024,-0.4698103943222023,-4.272106153706971e-07,9.824807397845329e-08,3.9355946838005777e-07
1669909515164902333,15398,1669909514986918593,,-0.31723481463425274,-2.747186219910406,0.11159888087130049,0.020001201301319348,0.09400387216093055,0.044997342656217396,-5.9250642911425957e-64,2.289903941159096e-64,2.488381487897149e-63,0.018390215117531028,-0.027989842120323516,-0.48686803763290953,-4.3018568680860755e-07,1.0317931046715703e-07,3.9100089631298224e-07
1669909515228585066,15399,1669909515112719417,,-0.30952278799875454,-2.7379791282457053,0.11268245446773308,0.020001201301319348,0.09400387216093055,0.044997342656217396,-9.825210779138717e-77,-8.813549212476126e-77,3.1001505624908752e-77,0.0031082739594978648,0.006652953305760434,-0.5050418264036374,-4.308520872886259e-07,1.0896468189928083e-07,3.881857234782502e-07
1669909515661160406,15400,1669909515169534473,,-0.30726802651623114,-2.7466662005833915,0.11079589128668402,0.03099961852300328,0.06700092280302211,0.050999779133520155,9.39659964769238e-65,2.3194715323818467e-65,-4.127810223679649e-62,0.0017314525621543453,0.014454386748514736,-0.5089068827805665,-4.3042009697352614e-07,1.0999727829090483e-07,3.8775089853185145e-07
1669909515697717346,15401,1669909515295248188,,-0.29960503770008784,-2.7413290477610417,0.1121028911897267,0.03099961852300328,0.06700092280302211,0.050999779133520155,0.0,0.0,0.0,0.0017260655833162275,0.04146122207981762,-0.5222615220601732,-4.293830215217703e-07,1.1426343689993938e-07,3.856098759911113e-07
1669909515698116964,15402,1669909515347527401,,-0.29635716556998415,-2.739166382267198,0.11796315799716042,0.03099961852300328,0.06700092280302211,0.050999779133520155,0.0,0.0,0.0,0.0036502087672989347,0.05138957691269397,-0.5273669065605144,-4.286521966274758e-07,1.1572255220363784e-07,3.8477336940098467e-07
1669909515698178118,15403,1669909515415813609,,-0.29604160874636254,-2.745388860751778,0.121379967203011,0.03299978256530712,0.046002171462339925,0.0519998793277015,2.02137366830242e-306,1.3141251412405639e-303,0.0,0.007572117571250203,0.06300828713225215,-0.5337953396896218,-4.2767966313295794e-07,1.1684981011468593e-07,3.839893548750807e-07
1669909515749994713,15404,1669909515564350292,,-0.29267021649704544,-2.745873504444011,0.12889582284868187,0.027000625246145583,0.032001502604284866,0.048000407008349726,0.0,0.0,0.0,0.01965014534195575,0.0838758145564551,-0.5475261164076759,-4.2446150030981735e-07,1.1938848870449856e-07,3.816222337376263e-07
1669909515810356499,15405,1669909515688853826,,-0.28735595241391065,-2.744644046308571,0.13086314522325068,0.027000625246145583,0.032001502604284866,0.048000407008349726,6.635183130196601e-179,-1.6246541096412549e-181,3.500181598978591e-179,0.03918147878066591,0.093814294081497,-0.5594250142497099,-4.202571744876022e-07,1.1978026351733912e-07,3.7979766264515634e-07
1669909516140182542,15406,1669909515743252968,,-0.29445719364811523,-2.7457763257055245,0.13775539466053777,0.009001240225138235,0.01700105759925149,0.054999494112355704,3.667077334615206e-215,6.666106252318185e-217,1.1892810064156048e-215,0.046279323675861406,0.0950325981345479,-0.5628311552717378,-4.189904538322513e-07,1.1940350143551244e-07,3.793893780964419e-07
1669909516169867787,15407,1669909515863948796,,-0.29208849722805535,-2.7452600756632655,0.14877952235440997,0.009001240225138235,0.01700105759925149,0.054999494112355704,5.771409192826484e-215,1.1079297298546502e-215,6.814368347960849e-215,0.06215634534204817,0.0949419698750873,-0.5703555615691585,-4.1683695305982877e-07,1.187605682336056e-07,3.7830936944349675e-07
1669909516169893564,15408,1669909515899512077,,-0.29139715982432346,-2.7451234070090167,0.15072812286727452,0.009001240225138235,0.01700105759925149,0.054999494112355704,0.0,0.0,0.0,0.07032994786674251,0.09359192309339193,-0.5752833039692717,-4.162948330744261e-07,1.1831498350930089e-07,3.7764605165214487e-07
1669909516169958976,15409,1669909515929913367,,-0.29040401554310097,-2.7417919151711185,0.1485448073204497,0.005000289617577053,0.024999404844653586,0.05899967635444193,8.117396093991097e-304,2.596739044369766e-305,1.5678483477020369e-304,0.07499911110692281,0.0928049838725542,-0.5782150034154583,-4.15669665877472e-07,1.1782073503778451e-07,3.770713995103331e-07
1669909516191300491,15410,1669909516089678271,,-0.28721948870481734,-2.740008100801187,0.15948433905645745,0.005000289617577053,0.024999404844653586,0.05899967635444193,-8.379337864953124e-154,-4.07759233571726e-154,-4.377617211647047e-155,0.08073765514404485,0.08502561342315573,-0.592192027607485,-4.166180976632894e-07,1.1584860188632305e-07,3.7478232597071473e-07
1669909516336473589,15411,1669909516135220872,,-0.2798678948936012,-2.7315350625044568,0.16170978557460075,0.00799987926944093,0.04799919664916728,0.052000226192233386,1.7663454568698403e-77,3.4241357640457624e-78,-5.662822230614968e-79,0.08052075460368968,0.08440799465670423,-0.5930517121913521,-4.1696632586059926e-07,1.1571179731458629e-07,3.7473916468676125e-07
1669909516620940242,15412,1669909516269769710,,-0.275165975902701,-2.7276104547283304,0.16842482383279297,0.00799987926944093,0.04799919664916728,0.052000226192233386,7.790739574511919e-66,-1.2000936174330257e-64,-7.042836095139739e-64,0.07259838144193331,0.07372432946929486,-0.6066535779377684,-4.191827604696278e-07,1.1346720261221646e-07,3.724985985223718e-07
1669909516658532500,15413,1669909516329744080,,-0.2729594557344469,-2.721909278938858,0.17150034066179184,0.0029999840522058306,0.05600000982094469,0.04799997648251551,-4.155095773228939e-295,-7.524405402538852e-295,-9.535198838213883e-295,0.06759269941503732,0.06873801238477739,-0.6123196468549388,-4.201142885551484e-07,1.1247075425673926e-07,3.7166789233668604e-07
1669909516659686933,15414,1669909516443696350,,-0.26889701784695097,-2.7174217326809553,0.17339215166399172,0.0029999840522058306,0.05600000982094469,0.04799997648251551,-7.075552437016682e-294,-1.130194973361629e-295,-1.6454017951635306e-293,0.06108688638108717,0.05725810258644515,-0.6223234289233215,-4.204308211903501e-07,1.0978036007552094e-07,3.7015154758102947e-07
1669909516721598692,15415,1669909516483910199,,-0.2726680764913945,-2.7143699213733514,0.17923681765209135,-0.009999820446566976,0.052000069785898294,0.05299990093074651,0.0,0.0,0.0,0.05994884381208365,0.05109594585678323,-0.6265615594650988,-4.2005062312331724e-07,1.0867662151530608e-07,3.697577859078474e-07
1669909516797478713,15416,1669909516666130272,,-0.2685510747760253,-2.7063800757499763,0.19808626885674485,-0.009999820446566976,0.052000069785898294,0.05299990093074651,0.0,0.0,0.0,0.06523795416168454,0.021640120827100873,-0.642552873171855,-4.1775818957370256e-07,1.0270815767397309e-07,3.6751448910576886e-07
1669909516909267067,15417,1669909516722348427,,-0.2759302871268281,-2.7112446237511922,0.2018143847915912,-0.01699938901766975,0.027002247001779667,0.06799863480003904,0.0,0.0,0.0,0.06962186244763657,0.009979064167154661,-0.6477307245881931,-4.1672080824261375e-07,1.0062544652075487e-07,3.669421638432429e-07
1669909517154914694,15418,1669909516844509646,,-0.2759491110165238,-2.707851036688861,0.21153459958143148,-0.01699938901766975,0.027002247001779667,0.06799863480003904,0.0,0.0,0.0,0.0806387804798483,-0.01655226920597208,-0.6586101413373662,-4.1466814055361493e-07,9.562863699259362e-08,3.6550002881818606e-07
1669909517183147674,15419,1669909516891424614,,-0.2787424049211529,-2.7078090442648293,0.22410450939628931,-0.020999693152662494,0.02000057277882465,0.0729995772410934,0.0,0.0,0.0,0.08655959528776691,-0.03094784454884092,-0.6644416932424075,-4.140085915070747e-07,9.339455970399554e-08,3.647759371714929e-07
1669909517183150480,15420,1669909516998629584,,-0.27985122386657146,-2.705095404286555,0.23853895772640932,-0.020999693152662494,0.02000057277882465,0.0729995772410934,-1.4862896318924305e-141,-9.529249670204419e-141,-2.094961520808854e-140,0.0953119497900623,-0.056703433608269904,-0.6753887881232856,-4.1300225798139745e-07,8.879993191692104e-08,3.6328106653646303e-07
1669909517183152945,15421,1669909517039365413,,-0.28031582657358933,-2.7040433276613,0.2415256297508755,-0.020999693152662494,0.02000057277882465,0.0729995772410934,-1.4133413684670117e-152,-6.284174284821587e-153,-9.05831695932133e-153,0.09826680261452125,-0.06656094739814655,-0.679676558344239,-4.127405022794376e-07,8.712418897839516e-08,3.626939100315104e-07
1669909517230441517,15422,1669909517085886948,,-0.28086639771298716,-2.7028328643167194,0.24824546431478595,-0.020999693152662494,0.02000057277882465,0.0729995772410934,0.0,0.0,0.0,0.10219817461605629,-0.0826398197633953,-0.6869412080073225,-4.12553147472833e-07,8.439939669902526e-08,3.617215159849903e-07
1669909517378558781,15423,1669909517120974039,,-0.2776824474979744,-2.7021629011172115,0.25113226405917904,-0.014000893096905498,0.024999383635522388,0.07799935135581135,0.0,0.0,0.0,0.10219154166595956,-0.08261978768687861,-0.6869316868291584,-4.126629019783563e-07,8.464638762940777e-08,3.618047773523481e-07
1669909517691920873,15424,1669909517315606716,,-0.2784837843421309,-2.697256146722427,0.2713505933580062,-0.012000594947342442,0.025999722565869583,0.08799707490613227,0.0,0.0,0.0,0.10891754074331494,-0.12175153722000154,-0.7059693452941307,-4.1253518858098575e-07,7.851119670960037e-08,3.592938017645817e-07
1669909517722350825,15425,1669909517450478831,,-0.27948936737513513,-2.693504879004726,0.29316105481297416,-0.012000594947342442,0.025999722565869583,0.08799707490613227,0.0,0.0,0.0,0.10939109264556812,-0.14647620921884652,-0.7233657214554317,-4.136736386685759e-07,7.573583877139888e-08,3.5677741370164597e-07
1669909517735853379,15426,1669909517512608649,,-0.27165776180592477,-2.6959049062418723,0.301170309617568,0.0089938133702224,0.03199825041001676,0.09999645178788681,0.0,0.0,0.0,0.10816092863450066,-0.1515693328215022,-0.7293288453746172,-4.142798480687923e-07,7.557862310931077e-08,3.5594729434443863e-07
1669909517904144057,15427,1669909517660480962,,-0.26436514281687745,-2.6978716812283223,0.3159300187443391,0.029993921951813475,0.03299972620109543,0.10399882491736151,-5.7062274833820203e-42,-3.6804934210914675e-42,-3.6083278283201404e-41,0.10106162471448954,-0.15565587971889983,-0.7472464106046601,-4.1651569134316694e-07,7.698986970812724e-08,3.531302315793217e-07
1669909517932111426,15428,1669909517812082895,,-0.26055217546993986,-2.6967705432665503,0.33156088114526977,0.029993921951813475,0.03299972620109543,0.10399882491736151,0.0,0.0,0.0,0.08779302485232421,-0.14267391137721575,-0.7598978520831352,-4.2095885061329584e-07,8.101291551263189e-08,3.508005211320573e-07
1669909517959154883,15429,1669909517860469721,,-0.2592475114754991,-2.6964297655122946,0.3368670693662894,0.029993921951813475,0.03299972620109543,0.10399882491736151,0.0,0.0,0.0,0.08041524186716842,-0.13588535488731246,-0.7636131452470938,-4.2306768258496254e-07,8.270889783333694e-08,3.500938220581514e-07
1669909518233826293,15430,1669909517893828713,,-0.24862246459648638,-2.7021113718853758,0.33137928843865394,0.05899607069983251,0.03899920559874435,0.10699957624077355,0.0,0.0,0.0,0.06971966058345558,-0.12642119964126053,-0.767825259826223,-4.257788805502693e-07,8.487250751412054e-08,3.4930880730345417e-07
1669909518253002964,15431,1669909518033569934,,-0.24085631797978524,-2.703331988890543,0.34376464394910433,0.05899607069983251,0.03899920559874435,0.10699957624077355,0.0,0.0,0.0,0.03952263640504938,-0.09818452220918061,-0.7779090581433934,-4.3085784120653886e-07,9.00648474882864e-08,3.4755499746458056e-07
1669909518287753408,15432,1669909518079529323,,-0.22950460902925857,-2.701299060459613,0.33712434249021367,0.0709978923017859,0.05899652409978484,0.10799980719902655,6.079215462924497e-294,-1.3894390548936112e-295,1.5887382224853568e-293,0.03267933372444887,-0.09074642171152725,-0.7804333629516726,-4.3156688568288804e-07,9.113627382803122e-08,3.472312950026541e-07
1669909518355066997,15433,1669909518224958161,,-0.21736950782699008,-2.701879824708152,0.3520130149943789,0.0709978923017859,0.05899652409978484,0.10799980719902655,-4.534010818633828e-230,3.277171126978657e-233,0.0,0.006926203275352094,-0.04812363576047929,-0.7938691143337984,-4.3354879913048087e-07,9.752113119394535e-08,3.455123665840298e-07
1669909518449079034,15434,1669909518280519666,,-0.22765850348885017,-2.7097519584174843,0.35691251397089824,0.05700290574207645,0.019008351100530174,0.10700019049911712,-1.1042721534927431e-105,6.824137276394927e-108,-1.4225325284177387e-103,0.0014951871024564412,-0.03315790305237876,-0.7981018352402796,-4.337863147023122e-07,1.0020436523622869e-07,3.447797969065612e-07
1669909518488729523,15435,1669909518387112082,,-0.22222548414608828,-2.712438996674674,0.35864076444668314,0.05700290574207645,0.019008351100530174,0.10700019049911712,-1.2444220180412703e-143,4.558098855536018e-146,-6.5306380053529145e-142,-0.0009336159781625497,-0.0067165310492072194,-0.8048986259336495,-4.330911900351482e-07,1.0446823990362057e-07,3.4382913566972583e-07
1669909518770461913,15436,1669909518421624834,,-0.22507818655405157,-2.7185183140795917,0.3623237768865853,0.05799974323741121,4.6903133366256455e-06,0.10600022943627414,-3.4158124502641936e-144,2.0950913350599706e-144,6.2749614142743894e-142,-0.000895749356928377,-0.006757619841994966,-0.8048845204079047,-4.329811623920824e-07,1.0430585267084597e-07,3.438861657736825e-07
1669909518770469664,15437,1669909518520290622,,-0.22110942293622432,-2.722653850478682,0.371021074400899,0.05799974323741121,4.6903133366256455e-06,0.10600022943627414,0.0,0.0,0.0,0.0024189358157666874,0.01963469297415088,-0.8108136841793936,-4.3173085943169935e-07,1.0851471527012024e-07,3.4304759152716587e-07
1669909518770478427,15438,1669909518561506092,,-0.21942274184690455,-2.724428211672444,0.37535848522677095,0.05799974323741121,4.6903133366256455e-06,0.10600022943627414,0.0,0.0,0.0,0.006084312492522059,0.03506130016937625,-0.8140037628527086,-4.308388699827624e-07,1.1087155411983912e-07,3.425586146961171e-07
1669909518770548821,15439,1669909518594742196,,-0.21803069335583278,-2.7259332618076066,0.3780976951936311,0.05799974323741121,4.6903133366256455e-06,0.10600022943627414,0.0,0.0,0.0,0.006084298573174607,0.035061303784992504,-0.8140037514381149,-4.308388699827624e-07,1.1087155411983912e-07,3.425586146961171e-07
1669909518770592469,15440,1669909518606405005,,-0.2175463447911534,-2.726450184182581,0.37931604601121316,0.05799974323741121,4.6903133366256455e-06,0.10600022943627414,0.0,0.0,0.0,0.007547585912968557,0.04004349787801509,-0.8150431362226254,-4.305382632692105e-07,1.1155920956309863e-07,3.423936272694151e-07
1669909518839257023,15441,1669909518627248114,,-0.21910827769219599,-2.730921597069724,0.38141772854579714,0.059999458477315755,-0.009997335998373153,0.10300077950195097,-1.6148635152691763e-215,-3.5109137909402137e-217,-1.5024428704102922e-214,0.009952621268599415,0.04764863572954958,-0.8166767826557493,-4.3007554683717554e-07,1.1264710177170595e-07,3.420950034213681e-07
1669909518906374122,15442,1669909518780530072,,-0.21349663434297192,-2.7394682667161345,0.38724394891026764,0.059999458477315755,-0.009997335998373153,0.10300077950195097,-7.86913609294297e-215,-7.397579825450499e-214,-3.7637586287474896e-215,0.02177909561722835,0.07866919689629803,-0.8235688131441048,-4.2794951369114606e-07,1.1713413061723416e-07,3.4113932774054147e-07
1669909519267716182,15443,1669909518835469558,,-0.21226024839826915,-2.7406237652702683,0.39260662585367306,0.05500115064334461,-0.008000455832983519,0.10200021572541362,-3.702259446580783e-77,-1.8343300330649907e-78,-5.312504876217705e-77,0.027092262573590986,0.09015063792213418,-0.8241045073151074,-4.2725948370060213e-07,1.1840725603104749e-07,3.418027434138797e-07
1669909519306313655,15444,1669909518952571789,,-0.20808442358260465,-2.7470140565082275,0.4033574969141585,0.05500115064334461,-0.008000455832983519,0.10200021572541362,0.0,0.0,0.0,0.03541300464531183,0.10574244611295214,-0.8181685807389822,-4.263459893305642e-07,1.203412355910249e-07,3.4432886930381535e-07
1669909519306317827,15445,1669909519021598634,,-0.20558121523188477,-2.7508607757091648,0.4102918073029519,0.05500115064334461,-0.008000455832983519,0.10200021572541362,0.0,0.0,0.0,0.0415856292972574,0.11513526438993793,-0.8067936321942568,-4.2582320167316334e-07,1.214789571149669e-07,3.474250668294357e-07
1669909519306320708,15446,1669909519060841383,,-0.20413325014592293,-2.753068423684929,0.4140071619641369,0.05500115064334461,-0.008000455832983519,0.10200021572541362,0.0,0.0,0.0,0.04398745663136694,0.11820473184491576,-0.8006521376476545,-4.2566114669268633e-07,1.2184037360482678e-07,3.4888650955290254e-07
1669909519319385065,15447,1669909519084797020,,-0.2161263590725486,-2.76051988827266,0.41685276265422516,0.046000691702741334,-0.03999748951773696,0.09000092037169288,6.393351695516745e-306,1.6054034642014283e-306,3.469546436228102e-306,0.04635302637512595,0.12103287589575729,-0.7939362444207063,-4.254509803176058e-07,1.2234110281699273e-07,3.50490619580696e-07
1669909519476167360,15448,1669909519248642902,,-0.2272961181346327,-2.777240971986689,0.4227805169229712,0.03600240177996806,-0.0689929902737875,0.07800287839729576,0.0,0.0,0.0,0.05778187405886115,0.12919589837101242,-0.7461095291546957,-4.250845010802099e-07,1.2316659168376174e-07,3.598939941684124e-07
1669909519660006081,15449,1669909519400091277,,-0.23858860636222537,-2.792793245544417,0.43743528442268786,0.025001001044343947,-0.09199787173209804,0.0680009016905009,-2.4658846369167407e-65,-5.0870617141236e-65,1.3130651318815307e-63,0.06719546812951549,0.12986481035995823,-0.6914618481389532,-4.250640887703582e-07,1.2329386048534979e-07,3.695323935949804e-07
1669909519777259148,15450,1669909519547502462,,-0.2437193247373122,-2.8068448423173513,0.44368983721684585,0.025001001044343947,-0.09199787173209804,0.0680009016905009,0.0,0.0,0.0,0.07357478613434232,0.1269454827731984,-0.6417766121033832,-4.2539326078911066e-07,1.230123969695028e-07,3.7691372902367106e-07
1669909519833671629,15451,1669909519602958134,,-0.24738784568744646,-2.8124745042334025,0.4487012882602063,0.023000541906767313,-0.09599888097606679,0.06000220584494853,1.7092372534646882e-42,1.0139344191412945e-42,1.350416665941834e-41,0.07524193833894621,0.12517066838971758,-0.6251153344546942,-4.2557098109157986e-07,1.2275210610750124e-07,3.791317235556725e-07
1669909519853642559,15452,1669909519721495354,,-0.25139487132847477,-2.824148174831424,0.45080501520040756,0.023000541906767313,-0.09599888097606679,0.06000220584494853,6.343013824106321e-64,3.358731656819413e-64,1.1832034331310475e-63,0.07740955626413637,0.11997970322056517,-0.59278350842213,-4.2609784587453293e-07,1.2202294928055233e-07,3.8346587994599394e-07
1669909519975617920,15453,1669909519785448278,,-0.24909455728409935,-2.8231702654110693,0.4578672679882935,0.02100017069324044,-0.07400204932062128,0.05500044340808056,4.927627719629139e-139,5.918912851764239e-139,7.329533564407429e-140,0.0777958462044559,0.1156711865943052,-0.5737758406442985,-4.266145321195697e-07,1.2130463021260203e-07,3.863044984736685e-07
1669909520015508467,15454,1669909519897396194,,-0.25131669252019245,-2.832100119126499,0.4630581468590368,0.02100017069324044,-0.07400204932062128,0.05500044340808056,0.0,0.0,0.0,0.07635301634880243,0.1078908438622097,-0.5500374200767588,-4.274839961524915e-07,1.201616972652816e-07,3.893469400099465e-07
1669909520043950397,15455,1669909519935868883,,-0.25202920607821777,-2.8351769184328703,0.45837153303166095,0.02100017069324044,-0.07400204932062128,0.05500044340808056,-1.565228125463374e-42,-1.1130828091948201e-42,-1.4640364269068304e-41,0.07563110969739029,0.10535051587485889,-0.5435638377104475,-4.2777429248890427e-07,1.197511840804253e-07,3.902467179409525e-07
1669909520065118897,15456,1669909519958047842,,-0.25242857170029154,-2.836951701676926,0.459408847222123,0.02100017069324044,-0.07400204932062128,0.05500044340808056,-1.565228125463374e-42,-1.1130828091948201e-42,-1.4640364269068304e-41,0.07563110114365657,0.10535051786923333,-0.5435638288300346,-4.2777429248890427e-07,1.197511840804253e-07,3.902467179409525e-07
1669909520388062420,15457,1669909519977090975,,-0.25187678895780174,-2.8338650857072447,0.4602540762438875,0.016999983469194038,-0.06399999313859907,0.05099997562277462,0.0,0.0,0.0,0.07433878517050907,0.10129788138792328,-0.5342040358075817,-4.2829215934326516e-07,1.1902463489195991e-07,3.9182533172122535e-07
1669909520388138810,15458,1669909520087945191,,-0.2536157905964684,-2.8415193522597373,0.4694574898205954,0.016999983469194038,-0.06399999313859907,0.05099997562277462,0.0,0.0,0.0,0.07007891105127229,0.09048648186249508,-0.514347068542591,-4.2940378934623107e-07,1.1736544172511413e-07,3.945659487072096e-07
1669909520388191851,15459,1669909520128780573,,-0.2542215018926195,-2.844336970236307,0.46796287175255313,0.016999983469194038,-0.06399999313859907,0.05099997562277462,-4.005650510175927e-155,6.469670449546573e-155,4.362329031056136e-154,0.06920995536842689,0.08842368851534488,-0.5110274305857736,-4.2961058046177794e-07,1.1705014886899688e-07,3.950517547649899e-07
1669909520388250049,15460,1669909520187652725,,-0.25509063470866494,-2.8483988479210045,0.47059260789768115,0.016999983469194038,-0.06399999313859907,0.05099997562277462,-3.0016271136929566e-287,-2.120362131883582e-289,-4.231414193307491e-285,0.06715809843738718,0.08384340592040829,-0.504349070939691,-4.300210055040352e-07,1.1644813848425069e-07,3.9587651316930037e-07
1669909520476713458,15461,1669909520240201894,,-0.2542086888887429,-2.847981640213763,0.47843293689641553,0.01600019149670381,-0.05500186464016353,0.04500122425784062,1.3369230101651446e-139,1.9880160296063208e-145,7.756483201605891e-144,0.0651728570217962,0.07924692681169887,-0.4973410899766968,-4.307192562111751e-07,1.1535074531150436e-07,3.9753854629076764e-07
1669909520816888394,15462,1669909520410797272,,-0.25725295268818477,-2.8579130235459127,0.48211317169986667,0.013000351295481029,-0.0559998675035488,0.044000098682320965,0.0,0.0,0.0,0.05636862742505144,0.06008037168238367,-0.46898883687810766,-4.323158397219923e-07,1.1286346639291816e-07,4.0280455793595467e-07
1669909520883144366,15463,1669909520532274910,,-0.25873533059992887,-2.865080882958897,0.49189393112921487,0.013000351295481029,-0.0559998675035488,0.044000098682320965,-1.4645476698199521e-244,1.4645476698199521e-244,-9.153422936374701e-246,0.04996708440446973,0.0462487901185753,-0.4410724982444094,-4.336228583135224e-07,1.1099174909242922e-07,4.0782827701229766e-07
1669909520883225821,15464,1669909520574236275,,-0.2592071668235522,-2.8675531813243587,0.4906056918141939,0.013000351295481029,-0.0559998675035488,0.044000098682320965,-1.667415211536058e-42,-1.8565507864407473e-42,-3.808052708075084e-41,0.0480886868559498,0.04245737272444927,-0.4331009235148855,-4.339971453264168e-07,1.1045958535476411e-07,4.090434270338568e-07
1669909520883316147,15465,1669909520599346377,,-0.2662427353715242,-2.878846058571239,0.49131146826650085,0.010000423893827489,-0.08299603166989176,0.038000856004420505,1.36204108392765e-77,1.8823762003518154e-78,-3.734733800249846e-78,0.04411238272931328,0.03537869316084041,-0.4187643253917379,-4.3536436450370567e-07,1.0882929360453069e-07,4.118785619553426e-07
1669909520913493762,15466,1669909520727929540,,-0.26929030096279133,-2.8893776127744597,0.5006084693232423,0.010000423893827489,-0.08299603166989176,0.038000856004420505,-7.355040479840964e-295,-1.5591211954588795e-294,-2.2496124195618656e-292,0.03605241317669261,0.023592994951673774,-0.39560714813756803,-4.367758861714166e-07,1.0725594489138239e-07,4.1563687211601886e-07
1669909521009868998,15467,1669909520774299860,,-0.2595305038765427,-2.888961486240792,0.5001518556405575,0.03099355507722199,-0.06200641530765008,0.028003040110909032,-1.1224821546296292e-142,5.752815315907815e-141,4.693946575681191e-140,0.03264703684940784,0.01835277941263236,-0.38164281611868667,-4.3707625994520616e-07,1.0677164343270775e-07,4.187909291164084e-07
1669909521083016216,15468,1669909520938257005,,-0.2584300768076671,-2.900428175523027,0.49957250828891564,0.03099355507722199,-0.06200641530765008,0.028003040110909032,1.2441607529174284e-306,-4.141749389833201e-307,3.93066453307172e-309,0.02887763688955225,0.006422355818369141,-0.3180165184038515,-4.369826952142117e-07,1.0569513187295795e-07,4.3304850597905426e-07
1669909521391342495,15469,1669909521009978526,,-0.2619888975212292,-2.916588984841635,0.5001659802082755,0.03199983562288943,-0.08799611194692084,0.006003256881793612,3.638295060293497e-218,-1.412362748508903e-217,-2.8741498362326637e-216,0.029052207431799815,0.003857213737507692,-0.2944044710436451,-4.367995167498571e-07,1.0553947368906252e-07,4.3765666435067597e-07
1669909521432164051,15470,1669909521157284988,,-0.267143848887324,-2.9372707721691604,0.4999205162879428,0.023000176884809286,-0.10999951696536821,-0.019999469866129986,0.0,0.0,0.0,0.03077238399269433,-0.0032757899477395824,-0.20565362293057277,-4.363932144805208e-07,1.0528456669968047e-07,4.5221433855596316e-07
1669909521432189091,15471,1669909521271021028,,-0.2669865759491521,-2.949984784548623,0.49960832754757145,0.023000176884809286,-0.10999951696536821,-0.019999469866129986,-3.858074472792457e-142,4.530993048333018e-143,-7.870389101802087e-140,0.03144147989271495,-0.005653377217170075,-0.14913134925594562,-4.3636262174427637e-07,1.0553845739768984e-07,4.6103867089847304e-07
1669909521432457604,15472,1669909521316837843,,-0.26668284354499283,-2.955097591016477,0.4985400245479997,0.023000176884809286,-0.10999951696536821,-0.019999469866129986,7.049443822421808e-219,3.894856692626803e-220,2.2613535567592544e-217,0.031563336894805616,-0.005919840132296628,-0.13888027286074056,-4.3630528665031814e-07,1.0557755025642677e-07,4.6256645693578543e-07
1669909521453496700,15473,1669909521336394508,,-0.26653982042718993,-2.957279289965615,0.4912207115137383,0.023000176884809286,-0.10999951696536821,-0.019999469866129986,0.0,0.0,0.0,0.03184420039816871,-0.006258015907580017,-0.12406612013674945,-4.3618207464834404e-07,1.0563746403033954e-07,4.6474781641960153e-07
1669909521558821022,15474,1669909521371071873,,-0.26222575417219757,-2.953532068561395,0.4904292816979641,0.028997223652100477,-0.08900965026635013,-0.036992189372319434,-1.3462231545592511e-213,-1.6340565870615716e-212,-2.607497713554572e-212,0.03265993926129873,-0.006568523719343133,-0.10525767699338218,-4.359172167425519e-07,1.0571832909404531e-07,4.6683683334964833e-07
1669909521614223282,15475,1669909521483088359,,-0.25995780677166885,-2.963649602475712,0.4890667678353968,0.028997223652100477,-0.08900965026635013,-0.036992189372319434,-8.11662841651559e-218,-8.066571646321417e-218,-1.6972824430461243e-216,0.036894246961548305,-0.0066839322013834135,-0.05302675104564081,-4.348958219228492e-07,1.0622694063740416e-07,4.7339887785549427e-07
1669909521788652452,15476,1669909521539093017,,-0.2517569157261579,-2.9583557715278697,0.4822552923151897,0.04199473290477676,-0.06201088969278064,-0.05199395512820204,-1.2451169568765034e-294,-9.733658424070719e-294,1.0179481196042624e-291,0.038268799042754154,-0.006452466776458721,-0.04075607292565664,-4.345913349730537e-07,1.0639959829690901e-07,4.7546001557238066e-07
1669909521816489468,15477,1669909521654840851,,-0.24709781951218912,-2.9654621007402193,0.4720578662679627,0.04199473290477676,-0.06201088969278064,-0.05199395512820204,0.0,0.0,0.0,0.043658263312183365,-0.0050229667500367725,-0.0027743753361697543,-4.3385149836541697e-07,1.0692409063809898e-07,4.802631659588118e-07
1669909521816732801,15478,1669909521696357934,,-0.24535340854551707,-2.9679503505682345,0.4697983840732664,0.04199473290477676,-0.06201088969278064,-0.05199395512820204,-1.7830457057325083e-77,2.383594542314902e-77,1.0011495975974322e-78,0.044514539770924344,-0.004728845412214966,0.0031767242660212247,-4.3376053291094006e-07,1.0702337017367168e-07,4.810466583324562e-07
1669909521833139951,15479,1669909521724215199,,-0.24418436380424804,-2.9696215092574807,0.4682826123303594,0.04199473290477676,-0.06201088969278064,-0.05199395512820204,0.0,0.0,0.0,0.04643056967800163,-0.003965886647071315,0.01691637544980651,-4.3356106547601354e-07,1.072667813199415e-07,4.829038649302048e-07
1669909521943550026,15480,1669909521746759554,,-0.23729251985446886,-2.964484072013467,0.4628588885165337,0.0559949956807598,-0.046005678662897585,-0.0839886135753196,-6.848900340020421e-44,-8.065612459188405e-43,-1.7328716357069532e-41,0.04684621820951307,-0.0037913936384494917,0.020057622280582166,-4.3346215485809403e-07,1.0736849389420719e-07,4.835936561833675e-07
1669909521990171618,15481,1669909521870233267,,-0.23020826683475162,-2.9694847430939584,0.4508467128382818,0.0559949956807598,-0.046005678662897585,-0.0839886135753196,0.0,0.0,0.0,0.04966229546801948,-0.0017855038779082122,0.048045885682459044,-4.33398113667083e-07,1.0791429291867098e-07,4.874917121454774e-07
1669909522102840083,15482,1669909521919105936,,-0.2302152279075968,-2.9687650206042724,0.44464234721007456,0.049003271850979344,-0.041002322566605395,-0.11498545463545883,0.0,0.0,0.0,0.050018403761210806,-0.0011752472584678486,0.05616797392412565,-4.3351059137519557e-07,1.0804139503666128e-07,4.885090099441617e-07
1669909522145198414,15483,1669909522030534353,,-0.22451540538596934,-2.972351134911906,0.4253520472523047,0.049003271850979344,-0.041002322566605395,-0.11498545463545883,1.3084006726802813e-295,1.678733867376601e-294,2.725709441025113e-293,0.04966730806854258,0.00031971110662532,0.07471309176095176,-4.339845918643956e-07,1.0840463984734749e-07,4.907661749953727e-07
1669909522400874102,15484,1669909522075593939,,-0.22219811290412464,-2.973774814915346,0.4200848134566053,0.049003271850979344,-0.041002322566605395,-0.11498545463545883,0.0,0.0,0.0,0.0493001088431253,0.0005454499537798085,0.07708509933341823,-4.340877970526981e-07,1.0845445801397911e-07,4.909873132360847e-07
1669909522467094816,15485,1669909522108425886,,-0.2205105417591933,-2.974812835661715,0.4162467148879566,0.049003271850979344,-0.041002322566605395,-0.11498545463545883,0.0,0.0,0.0,0.04784865304924679,0.0013383191167903874,0.08552045607380343,-4.3437398068699055e-07,1.0857475909748754e-07,4.919664180915203e-07
1669909522467138349,15486,1669909522135801395,,-0.22287543913261437,-2.9721304989579806,0.4159256200471257,0.04000406681199585,-0.03300359740031176,-0.1409882290319175,1.396620709893135e-44,4.8984728570130686e-43,1.021474859779886e-41,0.047705719860454465,0.0014694828031522889,0.08698767290359655,-4.345054530312071e-07,1.086076735539572e-07,4.921951371928703e-07
1669909522467178199,15487,1669909522242047436,,-0.21841846839595477,-2.9745405868348143,0.4047214080070232,0.04000406681199585,-0.03300359740031176,-0.1409882290319175,-4.202215021877606e-306,-9.075672087449768e-308,-3.829790342262425e-308,0.046933731509184895,0.0021598826015019057,0.09955432161103772,-4.3422995791297896e-07,1.0876243056208822e-07,4.94492979467791e-07
1669909522467219382,15488,1669909522286679318,,-0.21654081810680753,-2.9755450567400694,0.3983635207766316,0.04000406681199585,-0.03300359740031176,-0.1409882290319175,-1.4420389785867066e-217,-6.8459634776388045e-217,1.4819490689393485e-215,0.0478708312566507,0.002428456429340642,0.10767714923279037,-4.337915326268013e-07,1.0885776600855943e-07,4.958954842610036e-07
1669909522521748732,15489,1669909522308937095,,-0.22467349057280464,-2.9742649677703676,0.39533022422758346,0.01900256966308743,-0.02700070816277866,-0.13700051207201325,-7.551849575747232e-218,-2.934776522414354e-216,-2.4088778660056046e-215,0.04774069009986981,0.0024890259230563316,0.10835780973354403,-4.338143693725576e-07,1.0886684726881811e-07,4.960719307758118e-07
1669909522577140306,15490,1669909522451727038,,-0.22169627700135358,-2.976823976640017,0.3729229886181114,0.01900256966308743,-0.02700070816277866,-0.13700051207201325,0.0,0.0,0.0,0.05589322760852866,0.003179469477700536,0.1384404123842522,-4.319864386022739e-07,1.0932120060917554e-07,5.015158630294751e-07
1669909522794199273,15491,1669909522504787495,,-0.2479356081231008,-2.9724291737090494,0.365753393133769,-0.05497584693794881,-0.004007480499166133,-0.13500067477087135,7.659156408312781e-221,1.129601139767587e-217,-7.006771726175144e-216,0.057822831817034626,0.003351400964589857,0.14454932599289982,-4.316651002905954e-07,1.0943833207048553e-07,5.025421536830952e-07
1669909522824697957,15492,1669909522624978457,,-0.2545998307501038,-2.972951583526531,0.3527526621423443,-0.05497584693794881,-0.004007480499166133,-0.13500067477087135,-5.3287695535664794e-155,-6.76745850729174e-154,-9.655302002430907e-155,0.0645573349931805,0.004151476762050521,0.16672925800599003,-4.306298019152617e-07,1.0990863022969443e-07,5.064128303382145e-07
1669909522824745526,15493,1669909522681463077,,-0.2577378669216406,-2.97321150907982,0.34035641143756606,-0.05497584693794881,-0.004007480499166133,-0.13500067477087135,0.0,0.0,0.0,0.0693254898896214,0.004965611727083541,0.18315609045920667,-4.298807136975911e-07,1.1030712424770156e-07,5.092096176612397e-07
1669909522824826338,15494,1669909522715769572,,-0.25964531434518684,-2.9733730122338877,0.33573454057161367,-0.05497584693794881,-0.004007480499166133,-0.13500067477087135,0.0,0.0,0.0,0.07249196722870721,0.005596550083080132,0.19417633990238947,-4.293681092059738e-07,1.105848505218736e-07,5.110881509938228e-07
1669909522961515882,15495,1669909522738270307,,-0.27624011242962676,-2.9663485980994158,0.3346456528310831,-0.08699083923816406,0.016994012674262378,-0.1330005946589812,0.0,0.0,0.0,0.07312464142220776,0.005725949652475748,0.19635968937111592,-4.2929778804324107e-07,1.1063427769317628e-07,5.113539129210106e-07
1669909523072706717,15496,1669909522883379870,,-0.300192567452531,-2.960223149760944,0.31864033501312483,-0.11399303278925495,0.035995119270744766,-0.12900105671280754,-2.577064940655514e-141,-9.021471221941144e-141,3.305876316813618e-140,0.0822322997404683,0.0075936180014153365,0.22605663692369404,-4.2779868328032655e-07,1.1140591996435307e-07,5.161804293110772e-07
1669909523130423656,15497,1669909523002884647,,-0.3148527425192974,-2.9579435963090037,0.3062012852148433,-0.11399303278925495,0.035995119270744766,-0.12900105671280754,0.0,0.0,0.0,0.08836518370749502,0.008823483915387342,0.2454756663411395,-4.2694763611865825e-07,1.1188155656665877e-07,5.192791971222635e-07
1669909523164415049,15498,1669909523055676542,,-0.3213595087150858,-2.9570112945088245,0.2937187155678371,-0.11399303278925495,0.035995119270744766,-0.12900105671280754,-4.158013359495219e-42,-3.9866226459056243e-41,-4.3490298295119776e-40,0.09239865659319157,0.009798977886784854,0.26045138443457283,-4.2666481568699955e-07,1.1227163511047147e-07,5.214612225167166e-07
1669909523462672960,15499,1669909523094858384,,-0.3289598449398987,-2.9498348202321627,0.28863841844319554,-0.1169993051156564,0.05199625048285972,-0.13699813272186911,-1.2137374288233974e-183,2.1867301747081685e-180,-2.691800327156534e-180,0.09388793260217021,0.010306057598951313,0.2674092268504822,-4.2660698913424203e-07,1.1245741871676691e-07,5.223905367112301e-07
1669909523515713590,15500,1669909523200876439,,-0.3428974563904466,-2.946583935116962,0.26820465445697483,-0.1169993051156564,0.05199625048285972,-0.13699813272186911,-2.1208840711637184e-218,2.6246563787276173e-218,-6.188682349375433e-216,0.09646098330697761,0.011852505220602438,0.28602857092053036,-4.26740509074076e-07,1.1294903249252495e-07,5.24731753800416e-07
1669909523515747386,15501,1669909523240117453,,-0.3480743593411786,-2.9454257600533227,0.264433430316446,-0.1169993051156564,0.05199625048285972,-0.13699813272186911,5.488189808763348e-65,-5.127360496823332e-65,-2.659430902787692e-63,0.09672930713752947,0.012630513804950283,0.2939291708862868,-4.269630086117321e-07,1.13178165752409e-07,5.256035297733268e-07
1669909523515796922,15502,1669909523272536575,,-0.35491241555454534,-2.9454414985068844,0.2597984157457557,-0.12399977974260677,0.04900013584628844,-0.16199917824769533,0.0,0.0,0.0,0.09666592253452144,0.012774279417840262,0.29514972379632276,-4.2719063598508505e-07,1.1312901485735914e-07,5.25171334151293e-07
1669909523515805832,15503,1669909523371526359,,-0.3687117928584966,-2.9429948333127567,0.24438075686245553,-0.12399977974260677,0.04900013584628844,-0.16199917824769533,-1.1659335327113228e-68,2.7394814012712784e-68,-6.487661822714735e-67,0.09514717348807089,0.014524920569417787,0.3057233098419694,-4.2793389012284574e-07,1.136194536400707e-07,5.260996378827842e-07
1669909523533596816,15504,1669909523406713350,,-0.3736246985045936,-2.942152381442224,0.2389336755623366,-0.12399977974260677,0.04900013584628844,-0.16199917824769533,1.9072841108882186e-299,1.6292244886492656e-299,3.938540340065788e-297,0.09307403300948813,0.015785157862270083,0.30997788749546196,-4.2860119282071896e-07,1.1391694109713516e-07,5.263628646766563e-07
1669909523557294193,15505,1669909523446887793,,-0.3792453647165106,-2.9412515492684297,0.22594584942639775,-0.12399977974260677,0.04900013584628844,-0.16199917824769533,-1.793776011062847e-43,-1.0756487296961105e-42,-1.1472998887752994e-41,0.09307401612975141,0.01578516045367806,0.30997790897831123,-4.2860119282071896e-07,1.1391694109713516e-07,5.263628646766563e-07
1669909523580126487,15506,1669909523470746492,,-0.38258075306347344,-2.940699380006311,0.22225336924974404,-0.12399977974260677,0.04900013584628844,-0.16199917824769533,8.745430641794687e-79,-7.518832426892807e-78,-3.411985508791542e-77,0.09194804303731985,0.01629966704080843,0.3108661537528459,-4.288215251263568e-07,1.1399214184203132e-07,5.263652529169443e-07
1669909523618634274,15507,1669909523496309544,,-0.38615826878921,-2.940134421487317,0.21829688538834505,-0.12399977974260677,0.04900013584628844,-0.16199917824769533,8.745430641794687e-79,-7.518832426892807e-78,-3.411985508791542e-77,0.0919480322981272,0.016299668707016934,0.3108661674208548,-4.288215251263568e-07,1.1399214184203132e-07,5.263652529169443e-07
1669909523868349983,15508,1669909523535639107,,-0.39637055640989227,-2.946090112462668,0.20734254762591936,-0.1369975069399499,0.03700235233923395,-0.17699712888988542,-8.466228858003838e-297,-5.1302750415276735e-295,-1.0460643105681308e-294,0.08751939508679385,0.01834917012830317,0.31439191492030005,-4.29884211692444e-07,1.1438632276604353e-07,5.262637791265063e-07
1669909523898868097,15509,1669909523703019273,,-0.42374403458795257,-2.9534283119468054,0.17549551603709118,-0.14798735458904322,0.019020755182761608,-0.18798736268068944,0.0,0.0,0.0,0.07634471114959318,0.02243952115627401,0.3143494486826732,-4.3220536881630197e-07,1.1503954341343612e-07,5.252014467606251e-07
1669909523914621634,15510,1669909523813991050,,-0.44094162842904067,-2.955156686255315,0.15353242685926455,-0.14798735458904322,0.019020755182761608,-0.18798736268068944,6.527823846570667e-296,-1.2923761783583875e-295,1.236808860196529e-294,0.06558075564616317,0.025448870390544442,0.30844533457468337,-4.3446403439855733e-07,1.1542657402607815e-07,5.230902628221141e-07
1669909523945544137,15511,1669909523844250209,,-0.4456311057778235,-2.955655816333831,0.145942659090478,-0.14798735458904322,0.019020755182761608,-0.18798736268068944,-8.207363394288237e-44,-2.173860320131494e-43,-3.252524416079431e-42,0.0655807429075157,0.025448872838458314,0.30844535060299627,-4.3446403439855733e-07,1.1542657402607815e-07,5.230902628221141e-07
1669909523970013758,15512,1669909523871583634,,-0.44986741832680566,-2.9561039211171183,0.14095396362512846,-0.14798735458904322,0.019020755182761608,-0.18798736268068944,0.0,0.0,0.0,0.06472900441609397,0.02559596384808671,0.3076794505193945,-4.3460575616534047e-07,1.1543285100997875e-07,5.229305821572681e-07
1669909523992877106,15513,1669909523888893737,,-0.4525501504868618,-2.95638872555018,0.137794656664576,-0.14798735458904322,0.019020755182761608,-0.18798736268068944,0.0,0.0,0.0,0.06137912320473049,0.026236792279810572,0.3048142284442896,-4.3515948717757837e-07,1.1546599061396438e-07,5.223445728057224e-07
1669909524156588127,15514,1669909523920389127,,-0.4574529872958693,-2.9569159899133743,0.13228951606250927,-0.14800001580763025,0.019000038679456006,-0.18899985988861293,0.0,0.0,0.0,0.05413756541378767,0.027584072185534936,0.29863170547493567,-4.368842430036369e-07,1.1558545722847069e-07,5.205800384070347e-07
1669909524264744780,15515,1669909524081909242,,-0.47775542986366754,-2.952173563738731,0.10810881476465753,-0.13100251745086935,0.03399782885143265,-0.186000466650556,2.2350444524625733e-64,3.8122035029353677e-64,2.244459671178495e-62,0.031347691856666415,0.029158913492929983,0.27711455585764355,-4.40828595954374e-07,1.1529691606099168e-07,5.165750249859747e-07
