%time,field.header.seq,field.header.stamp,field.header.frame_id,field.position.x,field.position.y,field.position.z,field.velocity.x,field.velocity.y,field.velocity.z,field.acceleration.x,field.acceleration.y,field.acceleration.z,field.orientation.x,field.orientation.y,field.orientation.z,field.angular_velocity.x,field.angular_velocity.y,field.angular_velocity.z
1669909388915306127,14148,1669909388785200110,,-1.5843466738901877,-4.647814239896672,0.7595951801354682,-1.2941658377330428e-08,-0.019999966083975085,0.05799998091552682,-4.118046071574423e-84,-4.118046071574423e-84,-1.0542197943230523e-81,0.008792068277330145,-0.0030913098499176783,0.40465269648756674,-3.9018830121447436e-07,1.1640356526829853e-07,4.712797388075343e-07
1669909389164201427,14149,1669909388891436947,,-1.5834999051758902,-4.649824147586275,0.7627231367500547,-1.294165837733057e-08,-0.019999966083975085,0.05799998091552682,0.0,0.0,0.0,0.009891258054693708,-0.000876856826002026,0.4076477164517325,-3.9007844705018346e-07,1.1672947211368694e-07,4.7190201213002287e-07
1669909389184370837,14150,1669909388948060551,,-1.5830404599037566,-4.650894751107621,0.7680408819511682,-1.294165837733057e-08,-0.019999966083975085,0.05799998091552682,-2.4633195521484586e-154,-6.883861555060974e-154,-4.035717986096287e-156,0.0102810447638646,-0.00016234261336123268,0.4090148221151253,-3.900519820052136e-07,1.1679887771036733e-07,4.7218911784223236e-07
1669909389184717747,14151,1669909388981539337,,-1.5833597765749419,-4.652224542159222,0.7699756501719188,-0.0020000131088402768,-0.020999966297314866,0.0579999806689913,3.088646781076394e-78,-3.665998866833645e-78,2.7109212145866238e-80,0.010594751257031021,0.00031951657674333944,0.4104474989200444,-3.9004969102024877e-07,1.1678596737959462e-07,4.724189171547105e-07
1669909389197146336,14152,1669909389102009628,,-1.5825373276667885,-4.654707301173248,0.7733954102448086,-0.0020000131088402768,-0.020999966297314866,0.0579999806689913,0.0,0.0,0.0,0.011123297140038346,0.0007967051142436787,0.4139490303515405,-3.900774863733981e-07,1.1673391922402611e-07,4.7311428365976164e-07
1669909389357006940,14153,1669909389186657217,,-1.583838754184519,-4.6567629009048686,0.7795420350643799,-0.0059998864787754735,-0.01999999806834619,0.05799998050846877,0.0,0.0,0.0,0.01121853406995399,0.0005998952180235051,0.41594680394654304,-3.901347204850832e-07,1.165916068457982e-07,4.7347932555489373e-07
1669909389708537106,14154,1669909389354600894,,-1.5851922136732768,-4.660246827414504,0.7888296908632061,-0.010000013386195312,-0.01799996644464733,0.05699998025998848,-1.790956273733416e-78,-1.6236334604076688e-80,-2.6033762454780202e-79,0.011274677127349975,-0.00130116424553961,0.42209934761411105,-3.90217904189403e-07,1.160994881029105e-07,4.7466072574884026e-07
1669909389759624481,14155,1669909389467974506,,-1.585368672083885,-4.662644823756996,0.7976842490751652,-0.010000013386195312,-0.01799996644464733,0.05699998025998848,4.100614229367527e-154,-1.5954473351914797e-155,-5.470561234849739e-156,0.011411749496637924,-0.0033511984658112226,0.42627431481092515,-3.9020079821586425e-07,1.1569580488891461e-07,4.7545122898355665e-07
1669909389759627291,14156,1669909389522756322,,-1.585454664154344,-4.66380639236155,0.800793326648282,-0.010000013386195312,-0.01799996644464733,0.05699998025998848,3.1986784346843036e-78,6.48378476431385e-79,4.214383458307818e-79,0.011590624672580319,-0.004772990621930262,0.4288985989191154,-3.901765081790092e-07,1.1543789753097763e-07,4.759610062894412e-07
1669909389759629807,14157,1669909389548684014,,-1.5862184518229308,-4.665500231100654,0.800195117521033,-0.01300001343937307,-0.01999996632963452,0.05599998018156967,5.675720988397106e-67,-4.50140934826998e-67,-1.3382042715734475e-64,0.011757792832085556,-0.006062271476869441,0.4311526020701031,-3.901606063553781e-07,1.1518891000145212e-07,4.764036322526013e-07
1669909389772311065,14158,1669909389674081185,,-1.5866559599840129,-4.668555367765093,0.8086683033170107,-0.01300001343937307,-0.01999996632963452,0.05599998018156967,-1.0572047467237567e-146,1.666609255114939e-145,5.554423412227993e-144,0.012145765151441168,-0.009331168467038964,0.4367136556827589,-3.901493692879899e-07,1.146490989520625e-07,4.775012201290846e-07
1669909389789602466,14159,1669909389734437999,,-1.58686749644038,-4.67003147524917,0.8174014454189945,-0.01300001343937307,-0.01999996632963452,0.05599998018156967,1.438423616690813e-43,1.7013562338328028e-43,1.3851841908297006e-41,0.012312033970530933,-0.01063671592204507,0.43914452987571906,-3.901437393064476e-07,1.1446301340074524e-07,4.779542465902225e-07
1669909389937041622,14160,1669909389772764399,,-1.5878207282939065,-4.671343319731896,0.8195331681585061,-0.015000013410031059,-0.019999966129562497,0.05599998022483899,-1.8726705418768793e-96,9.363352709384397e-97,-9.363352709384397e-97,0.012341870504922525,-0.011740664833256531,0.4413485888778652,-3.901927904746057e-07,1.1437645869632113e-07,4.781950786123162e-07
1669909390205360596,14161,1669909389927497982,,-1.5886428052855663,-4.67527702256246,0.8253311069608009,-0.015000013410031059,-0.019999966129562497,0.05599998022483899,0.0,0.0,0.0,0.012019582123880213,-0.014557361845771055,0.4478059415191318,-3.9036019701247625e-07,1.1405971185760363e-07,4.793358176639156e-07
1669909390240653010,14162,1669909389992054100,,-1.589397674334755,-4.677134954928806,0.8297346391494694,-0.016000013336614265,-0.019999965628420477,0.05899998033310339,0.0,0.0,0.0,0.011676505018835215,-0.01609090722960893,0.4531788445547402,-3.9045304111383485e-07,1.1394178241983989e-07,4.804329579225123e-07
1669909390265913483,14163,1669909390150554173,,-1.5905625660528904,-4.680904852937272,0.8381048208728521,-0.0160000132813278,-0.018999965105983486,0.06199998041463182,0.0,0.0,0.0,0.011537415655958227,-0.017237238233471786,0.46011336532146174,-3.904356921766726e-07,1.139054639396216e-07,4.816678443728611e-07
1669909390311750368,14164,1669909390264444569,,-1.591302536554415,-4.683781452029127,0.8489183196815897,-0.0160000132813278,-0.018999965105983486,0.06199998041463182,-1.3966174774613794e-66,-2.2882911285442575e-66,-2.7371578555341858e-64,0.012029054437803666,-0.01745201198988866,0.4657406269789526,-3.903232884637917e-07,1.1398322790242406e-07,4.826089257340836e-07
1669909390480039543,14165,1669909390311142410,,-1.5906523377720418,-4.6859367643634435,0.8518231474483492,-0.015000013233270248,-0.02199996472104484,0.0629999804855001,1.0285550207373662e-217,1.0178818220457081e-217,-1.2323757200319607e-217,0.01231075560085415,-0.017419946640865547,0.4683526345604889,-3.902736772468271e-07,1.1405319823371653e-07,4.830672740099876e-07
1669909390751448703,14166,1669909390456721902,,-1.5912304107539352,-4.689956127681584,0.858564638681175,-0.015000013233270248,-0.02199996472104484,0.0629999804855001,1.725298384345491e-215,1.613484980397574e-215,2.3573548406818146e-216,0.013209386570299131,-0.016702789099632298,0.47628021585883573,-3.90159632555916e-07,1.1433526247053111e-07,4.844472242932866e-07
1669909390772039234,14167,1669909390559355675,,-1.5920420188180688,-4.692003977825918,0.8671969635350829,-0.015000013168568603,-0.01999996421337943,0.06599998058091266,5.290472763655741e-145,9.315806052959787e-145,-6.217776886492275e-144,0.01421464203039946,-0.015113613229438272,0.4837363564564896,-3.9002781046482246e-07,1.1473033963644125e-07,4.85643474324236e-07
1669909390851725721,14168,1669909390712254318,,-1.5931200490418937,-4.696204616867203,0.8747325142467854,-0.016000013195028407,-0.019999963937100976,0.0679999805418936,0.0,0.0,0.0,0.014952958981393039,-0.013349384062651737,0.48992542977059017,-3.899875044100588e-07,1.1514371212280889e-07,4.86773130119483e-07
1669909390900557141,14169,1669909390843713766,,-1.5937611866476022,-4.699686576571935,0.8777887752121672,-0.016000013195028407,-0.019999963937100976,0.0679999805418936,-1.1654930455462036e-43,-1.5721475412361458e-43,-1.0422445692480173e-41,0.01505871807164283,-0.010983983582004697,0.49697769875627884,-3.9015122953543064e-07,1.1563395305100597e-07,4.88050959556035e-07
1669909391251637424,14170,1669909390890174319,,-1.593815394977437,-4.700372396773955,0.8809417773505925,-0.015000057312885852,-0.019000007640772337,0.0689999363674147,0.0,0.0,0.0,0.014967738433250943,-0.010575511917208402,0.49803339899066223,-3.901829780280161e-07,1.1569110134545524e-07,4.881570769495869e-07
1669909391312371160,14171,1669909391022082390,,-1.5943560073663543,-4.703678548243354,0.8923388865218231,-0.015000057312885852,-0.019000007640772337,0.0689999363674147,0.0,0.0,0.0,0.013875725567954689,-0.006621133451776728,0.5077460289815239,-3.904788630734754e-07,1.1636923484105839e-07,4.89668179626633e-07
1669909391312609731,14172,1669909391086734222,,-1.595429641377803,-4.704723636802581,0.8992942396322271,-0.01599997622591966,-0.01700003791012929,0.07099990580457986,-3.556413999176124e-161,-2.8451311993408992e-160,2.2761049594727193e-159,0.013460277704119505,-0.005223837375002205,0.5112365479000172,-3.906121036522834e-07,1.1666395293145201e-07,4.904638348475527e-07
1669909391376485732,14173,1669909391243233173,,-1.5966189347238058,-4.7086133839737325,0.9069124244333358,-0.017000013550482737,-0.01699996339720003,0.07099998001772131,0.0,0.0,0.0,0.012739467637690183,-0.0021366010301608895,0.5193934993788396,-3.907414419065279e-07,1.1714946970516133e-07,4.918059537783155e-07
1669909391404042655,14174,1669909391363661830,,-1.5973350298207796,-4.711508918319017,0.9182674013428956,-0.017000013550482737,-0.01699996339720003,0.07099998001772131,0.0,0.0,0.0,0.012449792823112205,-0.0004081647041598302,0.5249530371337698,-3.908092100197089e-07,1.1738984509870814e-07,4.927734650542311e-07
1669909391509609507,14175,1669909391403503959,,-1.5981131910845252,-4.7123199311421216,0.9211255255501515,-0.018000013579139027,-0.015999963358117993,0.0719999799754632,2.0726443165763598e-79,-2.12098934507845e-79,8.814081519168427e-81,0.012410845044758645,4.769632424483916e-05,0.5266573155061458,-3.9080169525695024e-07,1.1742584748320491e-07,4.930103496632083e-07
1669909391787978398,14176,1669909391507036706,,-1.5988372428901254,-4.714768137558059,0.9307302207429401,-0.018000013579139027,-0.015999963358117993,0.0719999799754632,0.0,0.0,3.1462666995810097e-122,0.0123880366920055,0.0011180232062013573,0.531551242431032,-3.908466094112074e-07,1.1754506281168684e-07,4.938611913457805e-07
1669909391825096841,14177,1669909391561451661,,-1.5992122696166018,-4.716054404709261,0.9318302520395729,-0.018000013579139027,-0.015999963358117993,0.0719999799754632,0.0,0.0,0.0,0.012322374049727358,0.0017104768909543822,0.5373972312038067,-3.9091736842625905e-07,1.1753730876626168e-07,4.94916070870916e-07
1669909391825114026,14178,1669909391618532623,,-1.5995962541403401,-4.717404656429382,0.9359302536641172,-0.018000013579139027,-0.015999963358117993,0.0719999799754632,0.0,0.0,0.0,0.012308271241247226,0.001736432421651557,0.5389883718090722,-3.9093409109232933e-07,1.1753448918918944e-07,4.951975536831174e-07
1669909391825167195,14179,1669909391638520186,,-1.6004357188328797,-4.718287406050465,0.937301933630712,-0.019999933072752194,-0.015999963289271852,0.07199997995512492,-3.6419630010836753e-78,-3.424205201389109e-79,-1.0417122302264067e-79,0.0122892687312941,0.0017266949134793208,0.5405495285226394,-3.9095221020864456e-07,1.1750172645859364e-07,4.954211925547356e-07
1669909391843178859,14180,1669909391766014929,,-1.6014969952646312,-4.721438560287353,0.948377618560149,-0.019999933072752194,-0.015999963289271852,0.07199997995512492,-2.7912725039211638e-67,-1.1233413498089865e-66,-9.005389999889353e-65,0.012104493428591212,0.0014887192418857609,0.5461116464363016,-3.9106922344241225e-07,1.1743083371851232e-07,4.964390760719078e-07
1669909391976587024,14181,1669909391820427612,,-1.6025504245309827,-4.722627607774104,0.9521642732096852,-0.021000013610214176,-0.01499996321593745,0.0709999799296381,-3.835229269763849e-93,1.9176146348819244e-93,4.794036587204811e-94,0.011947249667517923,0.0011619671366727147,0.5492802040312164,-3.9112890083747727e-07,1.1735324397236048e-07,4.970271393133783e-07
1669909392301195729,14182,1669909391973792061,,-1.60503509793538,-4.726132154683629,0.959974307229605,-0.02300001362682715,-0.012999963011408724,0.07199997990513969,0.0,0.0,0.0,0.011442110845118592,-0.00014378137145243386,0.558079235490748,-3.9130749559705007e-07,1.1711655836273908e-07,4.985937418059014e-07
1669909392333281662,14183,1669909392094391123,,-1.6065053445946837,-4.729017310632149,0.9710723090847418,-0.02300001362682715,-0.012999963011408724,0.07199997990513969,0.0,0.0,0.0,0.011008928690124264,-0.0012071936338902134,0.5634458560931428,-3.9144375268363237e-07,1.1694091665395001e-07,4.995433573690458e-07
1669909392333287576,14184,1669909392133369255,,-1.6069794277773903,-4.729951566023021,0.9680328228011997,-0.02300001362682715,-0.012999963011408724,0.07199997990513969,2.411865846354457e-309,-1.9599525429694365e-306,5.76405914218373e-310,0.010781375990177366,-0.001779565342946654,0.5661087454947165,-3.914977433616042e-07,1.1685584991943676e-07,4.999542333171153e-07
1669909392333352303,14185,1669909392164361144,,-1.6073554392775207,-4.730696260947982,0.9702585287023736,-0.02300001362682715,-0.012999963011408724,0.07199997990513969,-3.7771045896796337e-66,-2.8569591686614453e-66,-3.134043456824955e-64,0.010756649880447,-0.0018472305920163024,0.5663951018031614,-3.9150236440534977e-07,1.168446334600449e-07,4.999823027553144e-07
1669909392333401921,14186,1669909392201803867,,-1.6078095890986672,-4.731596266992835,0.9729474078292937,-0.02300001362682715,-0.012999963011408724,0.07199997990513969,9.328583914239943e-80,2.5056088291691542e-79,1.982538022540086e-80,0.010677226681870877,-0.0020848136774560544,0.5673264172137031,-3.9151731770162906e-07,1.1681151085847629e-07,5.000552599545269e-07
1669909392392925757,14187,1669909392223831240,,-1.6080771099136129,-4.732125682370836,0.9745291729174579,-0.02300001360682775,-0.012999962734998864,0.07199997993463189,0.0,0.0,0.0,0.010566056791418532,-0.002437327880912221,0.5684744834466642,-3.915440788854951e-07,1.167641735863663e-07,5.000393624155192e-07
1669909392475114620,14188,1669909392362465385,,-1.611393807366039,-4.732889549567608,0.9886090409966866,-0.023000013552905922,-0.004999962385765215,0.07299998001414794,1.095526234390179e-308,-7.59698543137679e-309,0.0,0.010519180720873322,-0.003736400595938605,0.5680671778112565,-3.9146728917431526e-07,1.1658180290000394e-07,4.985385588145101e-07
1669909392547683131,14189,1669909392472128922,,-1.6132096438055437,-4.73479455251472,0.9989372152354091,-0.023000013552905922,-0.004999962385765215,0.07299998001414794,-1.1113793747425387e-162,1.4225655996704496e-160,1.8208839675781755e-158,0.012257884588485979,-0.004841236635412471,0.549278682015057,-3.911796683752152e-07,1.1646619908143851e-07,4.939235125325841e-07
1669909392904632921,14190,1669909392540882520,,-1.6192388789107064,-4.7259838608498805,0.9977169474711339,-0.02000001349821313,0.022000037891918654,0.07399998009480091,-3.6146020950921e-291,-2.053579449273455e-291,-2.3117043289142512e-293,0.012991150894992032,-0.005153043408364866,0.5384902492616437,-3.9113841592654066e-07,1.1643673762652286e-07,4.916340676561188e-07
1669909392927736428,14191,1669909392683601438,,-1.6248404882486385,-4.72370808821719,1.0098087501784185,-0.021999805443837048,0.026999518021582132,0.07300008418679396,3.178090055271943e-144,-1.0937732111884285e-145,1.9117163886011657e-141,0.013211940028844182,-0.005116807868889239,0.5177865605353471,-3.9139033522744567e-07,1.1653512094133832e-07,4.888512222542671e-07
1669909392927738914,14192,1669909392795441558,,-1.6284518442541904,-4.722405004331676,1.0199686078973214,-0.021999805443837048,0.026999518021582132,0.07300008418679396,0.0,0.0,0.0,0.012465661358017854,-0.004545765378718869,0.502877457593101,-3.9169550956585947e-07,1.166836221763436e-07,4.868523763367362e-07
1669909392929488048,14193,1669909392840246409,,-1.629892151651205,-4.721863817507447,1.0168032248214833,-0.021999805443837048,0.026999518021582132,0.07300008418679396,-2.6063637452733896e-139,-3.0957587652629094e-139,-7.09171272410004e-141,0.012120933435429748,-0.004334912034090976,0.49908759833864025,-3.9179940709281726e-07,1.1672843080235863e-07,4.863366645715723e-07
1669909393069570597,14194,1669909392887756563,,-1.630219744347021,-4.722529203036737,1.020286777803802,-0.02100006517064981,0.023000244139388924,0.07399992842724709,-3.831956494859942e-218,8.959487431709034e-216,-4.7172733650259285e-214,0.011626638946721002,-0.004056928419299055,0.49499847715130585,-3.9190753015261666e-07,1.1678461341996605e-07,4.860404272858107e-07
1669909393405340783,14195,1669909393057242464,,-1.6345807115465054,-4.72194979058292,1.0371397863125418,-0.02100001355622955,0.020000036605588814,0.07299998000924675,5.8355207958967e-216,2.4459316237029806e-217,8.496257030869304e-216,0.008743696543305646,-0.0024826088692009307,0.47543766661112663,-3.9256895052233486e-07,1.1706410445016955e-07,4.833261933093512e-07
1669909393422269835,14196,1669909393200484982,,-1.6385253286433528,-4.721752194858493,1.0416762989115609,-0.022000013542791436,0.01800003611670159,0.07399998002906331,-1.4692502796562931e-147,-3.370548514644777e-146,1.0405770524060256e-142,0.006743278487466142,-0.001585586439222908,0.4652740393842105,-3.929100845048208e-07,1.1720464213107449e-07,4.820092669811629e-07
1669909393482822688,14197,1669909393328251796,,-1.641202068198015,-4.72184427534759,1.0524984931519301,-0.02100001346521227,0.015000035655629384,0.07399998014346577,5.43690949987121e-299,8.038747868923094e-298,9.879543985096293e-294,0.005227663447893605,-0.0006385944684339506,0.45477639104020895,-3.9306301437969594e-07,1.1734193866207603e-07,4.806775127150379e-07
1669909393579319679,14198,1669909393474246596,,-1.6454020441475294,-4.722770347357272,1.0684528961068773,-0.0240000133646612,0.012000035276759947,0.07399998029174384,8.16319694838281e-233,-2.604008856024001e-230,-4.500634268922354e-232,0.004882707235495332,-7.550626975749708e-05,0.4483290195905276,-3.9308046682311376e-07,1.1743493715194446e-07,4.798814076625816e-07
1669909393633176152,14199,1669909393568755624,,-1.6479226102578635,-4.722757598094865,1.0680900364055856,-0.0240000133646612,0.012000035276759947,0.07399998029174384,0.0,0.0,0.0,0.0047025049127285,0.00033121902553645555,0.44388859153165683,-3.9315362281706355e-07,1.1750126432033394e-07,4.793330196727832e-07
1669909393747606650,14200,1669909393622961132,,-1.6493676457137914,-4.722746203168619,1.0721046341526876,-0.0240000133646612,0.012000035276759947,0.07399998029174384,-1.1841267022480953e-293,-1.6977210068705175e-290,2.2218217720503473e-290,0.004552868249266595,0.0005614510242502035,0.44145046295288637,-3.932249845974369e-07,1.1753277907617006e-07,4.790532678289582e-07
1669909393791025273,14201,1669909393667776255,,-1.6503667966061404,-4.7221716703259835,1.077659524106723,-0.023000013259372922,0.013000034964839462,0.07399998044700767,-4.763744187483496e-70,3.3507914707953155e-69,-8.169511001871757e-67,0.004225957280679538,0.0009046761295667949,0.43673377698136306,-3.9330387307471797e-07,1.1754899390726186e-07,4.783536277362866e-07
1669909393911450855,14202,1669909393789102571,,-1.6540554091497979,-4.721768628008079,1.088043000627979,-0.023999966205829372,0.013999987726522804,0.07499993352034025,0.0,0.0,0.0,0.0042209417297236485,0.0008184903502375107,0.43186726173416545,-3.932648910312798e-07,1.1747957393435945e-07,4.776913285923817e-07
1669909393956805852,14203,1669909393907133261,,-1.6572975992324297,-4.721481590335171,1.0924627290251598,-0.023999966205829372,0.013999987726522804,0.07499993352034025,4.053355974254127e-147,7.74416008117156e-145,5.202753923004648e-143,0.004603276279500079,0.0003557221237624475,0.42740828117186247,-3.932225794011622e-07,1.1736491091729828e-07,4.770464128204116e-07
1669909393989879353,14204,1669909393950001248,,-1.6584752565071699,-4.721375266853268,1.0956810033504867,-0.023999966205829372,0.013999987726522804,0.07499993352034025,0.0,0.0,0.0,0.004859436416744245,-6.755201801489363e-05,0.4250397814099749,-3.9319898099888034e-07,1.1725898811395073e-07,4.767003338412641e-07
1669909394013991884,14205,1669909393981320347,,-1.6593360616694268,-4.721296499340202,1.098662448981235,-0.023999966205829372,0.013999987726522804,0.07499993352034025,0.0,0.0,0.0,0.004943722522511962,-0.0002363746566196312,0.42431218912970436,-3.931933650744106e-07,1.1722709636473339e-07,4.766024363160907e-07
1669909394141613249,14206,1669909394003091232,,-1.6602014118666943,-4.722963925926444,1.1002808443011745,-0.02599988755435123,0.011000223018615947,0.07400004335041108,-2.1723289560274455e-219,-7.71374772873408e-220,3.772379753644701e-217,0.005092728142031433,-0.0005601398039924987,0.42307365568136746,-3.9317244872539537e-07,1.1715524317514742e-07,4.7646530398870533e-07
1669909394438758617,14207,1669909394132431441,,-1.6649093597737923,-4.7235813660531845,1.1119507637245718,-0.02900001317577345,0.01100003425601275,0.073999980570288,2.8492597932583817e-78,1.4033247537423746e-77,2.3727295104983393e-78,0.00577148879350986,-0.0019616508016184753,0.4189684209418125,-3.930719254081555e-07,1.1687224039971419e-07,4.7593641766625826e-07
1669909394458961718,14208,1669909394257333201,,-1.6694457618605012,-4.724157232372165,1.1169060558570403,-0.030999784643562255,0.011000034131300756,0.07399998056787518,5.826902135107054e-298,1.9074454784865635e-296,4.9555565295650355e-295,0.006750608853794304,-0.003607861812096047,0.41514821768099175,-3.929296183846344e-07,1.1659418181741485e-07,4.7541194473883466e-07
1669909394459039496,14209,1669909394357171010,,-1.6727255417779712,-4.724457097047441,1.124289846339697,-0.030999784643562255,0.011000034131300756,0.07399998056787518,-3.312168642111238e-170,-6.624337284222476e-170,8.280421605278095e-171,0.007742040047002519,-0.005205407746537105,0.41202053154950136,-3.9281255106308815e-07,1.1635480658685615e-07,4.750501698510028e-07
1669909394473967820,14210,1669909394411233921,,-1.6745061303212856,-4.724620061459948,1.129759173939253,-0.030999784643562255,0.011000034131300756,0.07399998056787518,0.0,0.0,0.0,0.008464698222720557,-0.006355524673836044,0.4098678249704033,-3.9273555633942234e-07,1.1618339961132139e-07,4.747703811846302e-07
1669909394586674921,14211,1669909394450199221,,-1.6752532247178196,-4.72494751653683,1.1327668065039243,-0.030000127193113443,0.01000014809315986,0.07399998056088382,-9.095514023131929e-79,2.5645765135358302e-77,1.3487620817999976e-77,0.009141934931435003,-0.00742487955401927,0.40781182993549336,-3.92620888789107e-07,1.1597224818175629e-07,4.7438766798107624e-07
1669909394788439766,14212,1669909394577418529,,-1.678938094886237,-4.72524538925126,1.1453255860402694,-0.02900007332732838,0.010000034041939063,0.07399998054573464,0.0,0.0,0.0,0.010358306360245706,-0.009167613231168659,0.40395577523962345,-3.924916332329205e-07,1.1581548362879697e-07,4.738593068414693e-07
1669909394867759228,14213,1669909394691267130,,-1.6824595178773203,-4.725607221760549,1.149722497987761,-0.02900007332732838,0.010000034041939063,0.07399998054573464,1.0651634909900104e-65,4.526344614517251e-67,6.4669295257680474e-65,0.011541637173280606,-0.010203406450056463,0.40048675035869863,-3.9238470064677215e-07,1.1571713939727761e-07,4.733448896341127e-07
1669909394873735722,14214,1669909394735226641,,-1.6834591471850817,-4.725600076034484,1.1531046277681536,-0.0280000764115767,0.010000034036716423,0.07599985413040958,-6.254128505786497e-233,-2.418041471465921e-232,-3.2958145198241024e-233,0.01199148729479127,-0.010664306825729497,0.3985275586161947,-3.9240712246344306e-07,1.1568482796166991e-07,4.730708424723755e-07
1669909394964415830,14215,1669909394846696252,,-1.6866248848467398,-4.725448186416551,1.1626108316648465,-0.02700007905045684,0.010999968267695353,0.07699991464965797,8.911178671610245e-296,-4.247889185908851e-297,3.2393789923012846e-294,0.012504160867159442,-0.01124028797493537,0.3954621726113672,-3.9239268796916566e-07,1.1563426214586715e-07,4.7264367333466914e-07
1669909394993736741,14216,1669909394955371629,,-1.6898401397196885,-4.7256077220499995,1.1730181053143174,-0.02700007905045684,0.010999968267695353,0.07699991464965797,0.0,0.0,0.0,0.01295579148395376,-0.011617909270611904,0.39173195026345553,-3.9242700070395754e-07,1.1566291735547179e-07,4.720783893817015e-07
1669909395025515778,14217,1669909394989528516,,-1.6908511753290911,-4.7256557385886415,1.178083741865089,-0.02700007905045684,0.010999968267695353,0.07699991464965797,7.927417483896476e-293,1.1075089488611121e-294,2.0092930142938656e-295,0.012955777891981768,-0.011617905529170969,0.39173196643906394,-3.9242700070395754e-07,1.1566291735547179e-07,4.720783893817015e-07
1669909395053167605,14218,1669909395014403181,,-1.6915874627161558,-4.725691833692424,1.1799945221272417,-0.02700007905045684,0.010999968267695353,0.07699991464965797,0.0,0.0,0.0,0.013000766294862132,-0.011606346352174057,0.3901834198740666,-3.9246983391753356e-07,1.1568782643759824e-07,4.718717982111577e-07
1669909395133732867,14219,1669909395043524641,,-1.6925748749002625,-4.725430691424828,1.1820563647302758,-0.02700001336637575,0.011999931576489573,0.0769999802924132,-8.881776660208426e-221,-3.278264625118548e-221,2.46552828958239e-218,0.0130163191568613,-0.011609841678939858,0.3899685316832411,-3.924840379101885e-07,1.1569484178700312e-07,4.718295753858136e-07
1669909395178606519,14220,1669909395132016800,,-1.6952278065548028,-4.7254673499015905,1.18256108007759,-0.02700001336637575,0.011999931576489573,0.0769999802924132,1.221252061644945e-155,4.151537478766236e-155,-1.4624398358391397e-158,0.01281300476641789,-0.0114465175327787,0.38650421591421136,-3.926425895221199e-07,1.1575828645857805e-07,4.713142959207561e-07
1669909395462156408,14221,1669909395167429697,,-1.696420618680611,-4.725170852624161,1.1864097202622088,-0.027000013387101614,0.012999954866893836,0.07799990118677788,1.4007704962780979e-155,-8.301388345966829e-156,1.2088714173706316e-156,0.012812162913409253,-0.011445585694950466,0.3865092144559519,-3.92644139243261e-07,1.1575948438036404e-07,4.7132905854007366e-07
1669909395480047554,14222,1669909395256205513,,-1.6991157276106323,-4.725118602921838,1.1933205651559506,-0.027000013387101614,0.012999954866893836,0.07799990118677788,1.5227594040569012e-231,7.880797624669896e-232,5.099050233511673e-232,0.012274975629093632,-0.011068700535947329,0.3834817785128166,-3.927973199027523e-07,1.1584028722658096e-07,4.709755629976414e-07
1669909395480097437,14223,1669909395308333513,,-1.7006976025322258,-4.725080544190835,1.1987427744145778,-0.027000013387101614,0.012999954866893836,0.07799990118677788,0.0,0.0,0.0,0.011856767883985597,-0.010798057314790555,0.381687885337211,-3.9291559536689625e-07,1.1590298855461393e-07,4.70751630876734e-07
1669909395480186509,14224,1669909395340095731,,-1.701326112326298,-4.7249109910648075,1.2011903038148306,-0.02600001341902025,0.013000033851831426,0.07799998021158304,0.0,0.0,0.0,0.011799406362397846,-0.010762953496985972,0.3812381794766626,-3.929829871266085e-07,1.159398045670377e-07,4.705845788656954e-07
1669909395494938256,14225,1669909395440413683,,-1.7042752729539326,-4.724779955117879,1.2116977609932227,-0.02600001341902025,0.013000033851831426,0.07799998021158304,-6.29572064771705e-67,-3.4881697921986727e-65,2.106186929386126e-63,0.011105711387550343,-0.010336416122928682,0.37897617155884866,-3.931822885110353e-07,1.1602886017463213e-07,4.702513159280388e-07
1669909395553413119,14226,1669909395485684884,,-1.7056055821377705,-4.72471493604342,1.2082553928785509,-0.02600001341902025,0.013000033851831426,0.07799998021158304,-6.696347206590373e-155,-1.4353507982955506e-154,1.8122238937151593e-156,0.010021071983718599,-0.00974448855702903,0.37602363428396757,-3.9343359222559553e-07,1.1613394307684056e-07,4.6982678552547706e-07
1669909395682361357,14227,1669909395546708565,,-1.707398294523026,-4.724621462729764,1.2130072680959496,-0.026000013428937964,0.013000033723450226,0.07799998019695785,0.0,0.0,0.0,0.00932498430790929,-0.00942044790365415,0.3743423909597645,-3.935833506463445e-07,1.1618916201980399e-07,4.696130693615697e-07
1669909395850338154,14228,1669909395672951361,,-1.7113291042440966,-4.724919387095635,1.224981367523616,-0.02700001340782283,0.012000033572851659,0.07899998022809536,0.0,0.0,0.0,0.007404720125315123,-0.00848766565662018,0.3701257015012498,-3.94003082570905e-07,1.1638820042567373e-07,4.689657890894899e-07
1669909395865340711,14229,1669909395794448818,,-1.714964712463906,-4.724835341167419,1.2375507675053659,-0.02700001340782283,0.012000033572851659,0.07899998022809536,0.0,0.0,0.0,0.005474336648097378,-0.0075551846429569025,0.36600561181602487,-3.9437760688861974e-07,1.1654790078296813e-07,4.683464073098583e-07
1669909395986567055,14230,1669909395842807768,,-1.7161781922334396,-4.724260440316981,1.2414135655343381,-0.026000013360426597,0.013000033413722441,0.07999998029798844,0.0,0.0,0.0,0.004999451127812193,-0.007282531887426558,0.36476905267526405,-3.944331528203839e-07,1.166018480509061e-07,4.6817746812888244e-07
1669909396110327748,14231,1669909395983228528,,-1.7205253912818672,-4.724451907439781,1.246659592264976,-0.026999919600764612,0.012000126921091519,0.07900007409498866,4.23827438834197e-230,-1.8367053964986384e-230,-5.749753926430512e-232,0.003831964758260753,-0.006302618671615079,0.3607356983409922,-3.946090667537346e-07,1.1679202970976507e-07,4.676167871948238e-07
1669909396150259892,14232,1669909396104698656,,-1.7241509434107793,-4.724297428882205,1.2582569634680947,-0.026999919600764612,0.012000126921091519,0.07900007409498866,1.2400080077030055e-65,1.289461916853255e-65,-1.9833302386669966e-63,0.003427801425718968,-0.005665361652907208,0.35800505058014664,-3.946361012799518e-07,1.1688739700461369e-07,4.6723792326657506e-07
1669909396249767204,14233,1669909396138013180,,-1.7251443978240522,-4.72425245222638,1.2608849992173283,-0.0270000131407185,0.012000033051407979,0.07899998060828066,0.0,0.0,0.0,0.0034146896728426412,-0.005543535317803716,0.35740926965367237,-3.9462168847203855e-07,1.1690542335815154e-07,4.671704278761354e-07
1669909396501097454,14234,1669909396246140058,,-1.7283660336356956,-4.724098675502413,1.2696356504894282,-0.0270000131407185,0.012000033051407979,0.07899998060828066,2.6642156487805552e-301,2.2963421710432817e-301,2.0729155654519822e-296,0.0038444916519200234,-0.004795762038167339,0.35310934306889585,-3.9451644734452085e-07,1.1702585555860971e-07,4.6653971616619747e-07
1669909396529902230,14235,1669909396299866381,,-1.7296962412546983,-4.724734096267353,1.2685597512198008,-0.027000013096822525,0.010000259049127594,0.07899998068671178,0.0,0.0,0.0,0.004177751304785815,-0.004590515857008981,0.3516483717757186,-3.944757493051698e-07,1.1705510138165366e-07,4.6632984001241107e-07
1669909396544681945,14236,1669909396433953496,,-1.7339294254014768,-4.7249072031387715,1.2798791535571998,-0.028000013065027352,0.010000032726543248,0.07899998073360022,-2.039083597462304e-78,6.909261583346386e-79,-1.3186138423615275e-79,0.005034658755112886,-0.004267441276828876,0.34855390490061566,-3.943587933813925e-07,1.1709721515081131e-07,4.658954141493145e-07
1669909396610631757,14237,1669909396547909395,,-1.7373372543897743,-4.724981116449489,1.2906751631374818,-0.028000013065027352,0.010000032726543248,0.07899998073360022,4.111229186588399e-223,1.7035090086493497e-222,5.809628044132819e-220,0.005924142337349281,-0.00408534997602672,0.34552427696368504,-3.942870852758074e-07,1.1713485395559185e-07,4.6542764279629147e-07
1669909396724326111,14238,1669909396604886129,,-1.7390397065404315,-4.725017045998387,1.295173030355354,-0.02800001307260795,0.010000032597608939,0.07899998072242145,8.202717645138475e-155,-1.6308264600983317e-155,-1.7154304011685598e-156,0.006298069034020415,-0.004033140879354136,0.3438135872173369,-3.9428458160161945e-07,1.1713138119176877e-07,4.6516668046131225e-07
1669909396904059580,14239,1669909396719868013,,-1.7425826079352347,-4.724781737755789,1.3034921165068196,-0.02800001313515992,0.011000032445726938,0.07899998063017892,0.0,0.0,0.0,0.006747783574592603,-0.0039916394611854145,0.34064235676539134,-3.943162497055261e-07,1.1714811356796795e-07,4.64664671369365e-07
1669909396920962614,14240,1669909396816982341,,-1.7455138856468173,-4.72474114540157,1.307229352066886,-0.02800001313515992,0.011000032445726938,0.07899998063017892,-1.9675540065860764e-78,8.804815974602397e-79,-1.1724546963979202e-79,0.006928022941453449,-0.004028624646810641,0.33759528122847016,-3.9435576779282315e-07,1.1713330500883736e-07,4.641856766024835e-07
1669909396920964885,14241,1669909396861506989,,-1.7468576469815806,-4.724720536907739,1.309933390687863,-0.02800001313515992,0.011000032445726938,0.07899998063017892,-1.2974699701764996e-147,-3.69793920425947e-147,1.2321126456102808e-145,0.0069996774995004785,-0.004108461888790771,0.3357786001638452,-3.9437788014570656e-07,1.1711735778295858e-07,4.6390964021724473e-07
1669909397021771640,14242,1669909396892502462,,-1.748044807976568,-4.723997800375107,1.312382316014868,-0.028000013189649852,0.012999531239235211,0.0789999805498251,0.0,0.0,0.0,0.007010404929488345,-0.004125242093691028,0.3354778646222023,-3.9438270045958273e-07,1.1711415901154751e-07,4.638747583280953e-07
1669909397063413223,14243,1669909397010915882,,-1.751697412501877,-4.7237077441743525,1.322230917287997,-0.028000013189649852,0.012999531239235211,0.0789999805498251,0.0,0.0,0.0,0.007272759459221234,-0.004450391394588138,0.33225014335090997,-3.94357831827097e-07,1.1703489472049255e-07,4.633942475470353e-07
1669909397208582838,14244,1669909397058035590,,-1.7528928473853136,-4.724327025629,1.3271177583113243,-0.02800001324200372,0.011000032213974447,0.07899998047262125,-7.748285946472678e-68,-1.1058704905586226e-67,-1.8512897809022824e-65,0.007502355497363666,-0.004688338867026687,0.33050546375116063,-3.9432551791052786e-07,1.1699628158845014e-07,4.6311736566398267e-07
1669909397254293840,14245,1669909397204411648,,-1.7573160719621757,-4.724231533463306,1.3410644824075058,-0.02800001324200372,0.011000032213974447,0.07899998047262125,4.952047955603241e-79,-6.044343522309345e-78,-2.476905978693882e-79,0.008298272819285302,-0.005346495719072308,0.32613705268705573,-3.942550721340029e-07,1.1689666171895027e-07,4.6245701895637766e-07
1669909397556518914,14246,1669909397245187726,,-1.7585655963839288,-4.722721572666025,1.3378424265188589,-0.02700089143050569,0.013997397612177467,0.07899998044308637,-3.424623314394318e-156,5.505902099369505e-153,7.905573017077673e-154,0.008393467682767053,-0.005440011584596505,0.325559521514009,-3.9425735498689717e-07,1.1688649542861274e-07,4.62376640029009e-07
1669909397595563324,14247,1669909397366873924,,-1.7627246126095129,-4.720847639456981,1.3490913034933987,-0.027000013270289714,0.01800003196044643,0.07899998043090918,1.6734912319319337e-65,2.0657429171197826e-65,-3.945081752336878e-63,0.008634540500654708,-0.005940655330316957,0.3223938106472737,-3.943406309629554e-07,1.1681565085703212e-07,4.6196516868979684e-07
1669909397595657645,14248,1669909397464453931,,-1.7658027778910352,-4.720091855690972,1.3578938093476,-0.027000013270289714,0.01800003196044643,0.07899998043090918,0.0,0.0,0.0,0.008568367991736991,-0.006370252353272932,0.31961418644899453,-3.944459155490018e-07,1.1677487131168261e-07,4.615852103958285e-07
1669909397634639259,14249,1669909397505752618,,-1.7669931384679083,-4.718971069617131,1.3612170191602289,-0.026000203077144967,0.01999965230592616,0.07800017018573024,3.189062724555969e-78,-4.992746265758545e-79,1.629084422522674e-79,0.008435623437108575,-0.006626134342184287,0.31784978782074447,-3.9452347902423375e-07,1.1673288748600745e-07,4.612618444882407e-07
1669909397697878348,14250,1669909397629149560,,-1.7708477502716802,-4.717722751729463,1.3665111851200986,-0.026000203077144967,0.01999965230592616,0.07800017018573024,1.3946413827019857e-298,1.6270959044175937e-298,9.333789146518006e-298,0.007905699316532733,-0.007052630464226439,0.31486691088432117,-3.947294918690341e-07,1.1668844159791009e-07,4.608228023023861e-07
1669909397798230652,14251,1669909397681649412,,-1.7726090756397594,-4.716822216504876,1.3706048435681792,-0.026000013317568044,0.021000031794201544,0.07799998036118999,3.391660689521908e-167,-1.3566642758087631e-166,4.239575861902385e-168,0.0076380310190629075,-0.007134876566098569,0.31389830111203665,-3.947922788570882e-07,1.1668705747318852e-07,4.607025316848588e-07
1669909397936502848,14252,1669909397791299282,,-1.7760696084231755,-4.715589023171718,1.3801072432206813,-0.026000013317568044,0.021000031794201544,0.07799998036118999,1.7365302730352168e-164,5.556896873712694e-163,3.556413999176124e-161,0.006606967914509099,-0.007303086437797646,0.31057348100140203,-3.9505655231417456e-07,1.1670700101566368e-07,4.602660168749695e-07
1669909397983292980,14253,1669909397828949211,,-1.7771220523429214,-4.7142456445423635,1.3847225555784977,-0.025000013314940124,0.023000031733076597,0.07799998036506525,7.151111669042735e-248,-1.1441778670468376e-246,-8.938889586303419e-249,0.005856504486802194,-0.007308966111773785,0.3087737524503744,-3.953069706007915e-07,1.1675042277880375e-07,4.599143877629724e-07
1669909397997468296,14254,1669909397947114527,,-1.780810078491389,-4.712624029802065,1.3911154132583297,-0.025000013314940124,0.023000031733076597,0.07799998036506525,6.741592940310469e-68,1.7995183456945275e-67,3.758458469002316e-66,0.004403453965661441,-0.007110537798071803,0.3059150397997783,-3.9565263900812153e-07,1.168375836307544e-07,4.5946949780127834e-07
1669909398138924307,14255,1669909398010176002,,-1.7826433312926324,-4.712175556052497,1.3961365900456693,-0.025000013289204804,0.022000031648959126,0.07899998040301597,0.0,0.0,0.0,0.003368460312742627,-0.006816332766341304,0.30428472326362765,-3.959598031644568e-07,1.1696655294150928e-07,4.592074376654848e-07
1669909398329163297,14256,1669909398131206050,,-1.7834317479149302,-4.709641512983705,1.4040341408857284,-0.017000013227792463,0.02200003153974717,0.07499998049357794,0.0,0.0,0.0,0.0003174470405369334,-0.0057819452184233455,0.3012105540851664,-3.968174225934315e-07,1.172674688877747e-07,4.5871337407819477e-07
1669909398360421186,14257,1669909398268246603,,-1.7866041356860671,-4.707451655051293,1.409931863224341,-0.017000013227792463,0.02200003153974717,0.07499998049357794,0.0,0.0,0.0,-0.004553502187576441,-0.004336542475073202,0.2980666830523546,-3.979471709740949e-07,1.1756265566649007e-07,4.5824310986620184e-07
1669909398863976907,14258,1669909398345379960,,-1.7827597757445006,-4.7029045557397495,1.410435297067718,-0.004000013177571182,0.025000031458533932,0.03899998056763697,9.851766226702137e-68,2.737108709199163e-68,-1.066709675740715e-65,-0.011025087722858373,-0.002603351396892606,0.29506708375050295,-3.9921096940656253e-07,1.1791998155357094e-07,4.57941815125148e-07
1669909398885001414,14259,1669909398509774715,,-1.7845852244653464,-4.701851990130085,1.4093462580057656,-0.006000013039456534,0.01900003124407349,-0.0020000192286916546,-5.814930210987762e-301,-4.415042247525099e-298,-1.527709917366792e-296,-0.022830114875374008,0.0011338944490120184,0.2917775469195778,-4.01573048688577e-07,1.1876805434875825e-07,4.5764532965300403e-07
1669909398885168351,14260,1669909398636942019,,-1.7855906133815718,-4.70108207775981,1.3919968341942721,-0.006000012816535107,0.016000031011701013,-0.033000018899959606,-1.2465809200138278e-231,4.3766114085986924e-229,2.0099238810754998e-230,-0.031018711094509044,0.0042427326513987396,0.2907833689318924,-4.029789315045804e-07,1.1938877176373017e-07,4.577661899376131e-07
1669909399368525487,14261,1669909398752197191,,-1.7864291588515278,-4.702071345227969,1.3839481331778307,-0.007000012460992657,0.01000003079555415,-0.060000018375657375,-1.3301711718124453e-77,2.4999649707420846e-77,1.2950707573956427e-78,-0.03814434117191823,0.007456331036033603,0.29081292385586366,-4.0382126362303064e-07,1.198773208625271e-07,4.5801213901148877e-07
1669909399368528842,14262,1669909398906781835,,-1.7878808287636112,-4.701288661011021,1.371895547422143,-0.007000012460992657,0.01000003079555415,-0.060000018375657375,0.0,0.0,0.0,-0.043923197681010606,0.010962795463974828,0.29210050285499456,-4.042905297955611e-07,1.2036975968964548e-07,4.585231678825524e-07
1669909399368531844,14263,1669909398944297103,,-1.7874130858044162,-4.705500077037148,1.3628948227130442,-0.007999961068122063,5.402061992541137e-07,-0.08499874365555449,0.0,0.0,0.0,-0.04558751077048839,0.01250166584157597,0.29326543661958837,-4.0438137066131914e-07,1.2058786853199873e-07,4.5889417720221065e-07
1669909399368534766,14264,1669909399074056523,,-1.7883980051446362,-4.7063286249046605,1.3511163326690518,-0.007999961068122063,5.40206199254112e-07,-0.08499874365555449,-1.141186321522761e-77,-8.64902628927029e-78,-1.602740498223807e-78,-0.04641869828406442,0.015769126022128432,0.29780545360692656,-4.040301582007636e-07,1.2096258353709887e-07,4.599174623426804e-07
1669909399423208746,14265,1669909399121399374,,-1.7884504474035567,-4.711056121061892,1.344520334747969,-0.00998565190912368,-0.008935349255102025,-0.10783487623587767,-6.434336730269224e-229,-1.2855852629789934e-229,-5.110018944576519e-231,-0.045204581154685286,0.016540330717555563,0.2998425664964941,-4.034371099252069e-07,1.2099630824920746e-07,4.6046661124145e-07
1669909399914466412,14266,1669909399264221427,,-1.7962409100230987,-4.719228634141397,1.334479066731927,-0.028952232396876495,-0.016979705234650238,-0.11498201205139778,5.19773534118772e-67,-2.4293997867956814e-67,-6.5435497016590445e-68,-0.03851719967032352,0.01672324841506523,0.30521822320215364,-4.0163804327683285e-07,1.2074356522567078e-07,4.6162216239560455e-07
1669909399914486940,14267,1669909399390790631,,-1.798082393456642,-4.727191532250575,1.3285733826961146,-0.029999950039192216,-0.02899927087031782,-0.08600170134965043,0.0,0.0,0.0,-0.028723718640879525,0.015544257391400862,0.31098032423440003,-3.995017328428968e-07,1.2031429519693716e-07,4.6273237836349324e-07
1669909399914507028,14268,1669909399512269877,,-1.8005300804060589,-4.731941973529776,1.3176321128435502,-0.029999950039192216,-0.02899927087031782,-0.08600170134965043,2.6663238941080396e-220,8.645002956563344e-223,-2.3466859595765073e-221,-0.013232886722978066,0.012699812030543711,0.3188382264271894,-3.9656475662109717e-07,1.1964816103976382e-07,4.6419066963394145e-07
1669909399914527345,14269,1669909399584725705,,-1.8009611757686013,-4.737680371804418,1.3169869898708138,-0.030000011004952098,-0.03699463817006063,-0.07500734755331458,-1.229492459991913e-220,-1.7431389768453748e-221,-1.2229039612982357e-220,-0.00047481872797838776,0.009678649994402377,0.3249862378918742,-3.944171725371918e-07,1.1901915433614225e-07,4.6531064972303077e-07
1669909399951306762,14270,1669909399733154372,,-1.8020818253049777,-4.744646928104305,1.3128453765755297,-0.027000623137079804,-0.038999560439083494,-0.06800144561454086,3.0661541004095203e-238,2.1356735032888866e-238,3.159632859212078e-236,0.013014712182512156,0.005609872597432286,0.3317408964003299,-3.923612526073735e-07,1.1826093590384339e-07,4.6651841671188243e-07
1669909399951507991,14271,1669909399849879640,,-1.8036508865654142,-4.749885636371245,1.3020868732510293,-0.027000623137079804,-0.038999560439083494,-0.06800144561454086,0.0,0.0,0.0,0.024215411148503563,0.0011974213682197643,0.33844179666525065,-3.913230224377208e-07,1.1770121728955805e-07,4.67476887042116e-07
1669909400377129161,14272,1669909399891457536,,-1.805610647346195,-4.7513125043874345,1.2991589222154887,-0.029997112318978867,-0.03700190210343266,-0.06300485356454402,-3.079830794043371e-78,4.421738306528159e-77,-6.01754138833978e-78,0.030626932518240224,-0.0017857932599962822,0.34274328461491876,-3.902664925503488e-07,1.1707301166814816e-07,4.684373441670791e-07
1669909400377152982,14273,1669909400006619361,,-1.808331661555131,-4.753807417320146,1.297250643200232,-0.03000001269636769,-0.03000093160171474,-0.05500112054754223,0.0,0.0,0.0,0.036144885227940904,-0.00591334750733985,0.348177119277171,-3.8994497373585045e-07,1.163644189394948e-07,4.694318472512702e-07
1669909400377174852,14274,1669909400123466424,,-1.8104546642195274,-4.758062272819338,1.2941391056614604,-0.03000001269636769,-0.03000093160171474,-0.05500112054754223,0.0,0.0,0.0,0.03726151216912399,-0.010527846850031608,0.35484791185739795,-3.907942147310892e-07,1.158098797714889e-07,4.7060120506340917e-07
1669909400377209653,14275,1669909400175093767,,-1.8109806120331076,-4.755179231216472,1.2905749159999784,-0.025000013910601374,-0.01899996783803065,-0.053000020513329214,1.2510034724136985e-65,3.528726350504008e-65,-1.966431324816057e-63,0.03612888655169755,-0.012117084673498368,0.35739570767754536,-3.912790478500888e-07,1.1561114460647541e-07,4.710527299092868e-07
1669909400443230359,14276,1669909400309130253,,-1.815565007311089,-4.756560926702353,1.2864574168341087,-0.029000014501512066,-0.011999967377847946,-0.049000021384718255,3.3584333649592505e-196,-2.1758115329812798e-197,-3.1713841279685124e-197,0.02961426998843031,-0.015848105359685505,0.36478338605228267,-3.9296748005119395e-07,1.1521876042949635e-07,4.7235597765467753e-07
1669909400831651281,14277,1669909400434170415,,-1.8183763797327541,-4.759068664094475,1.2818272415117946,-0.029000014501512066,-0.011999967377847946,-0.049000021384718255,0.0,0.0,0.0,0.020025457681942527,-0.018153467767557885,0.3721010360883419,-3.9495959095847483e-07,1.1504689338055756e-07,4.736920961477078e-07
1669909400884790275,14278,1669909400483238730,,-1.8194677911582289,-4.760068125228643,1.2793854008586678,-0.029000014501512066,-0.011999967377847946,-0.049000021384718255,-4.98059786876918e-218,-8.177660302152894e-218,-7.843947599229377e-215,0.01589767338919046,-0.01863888082712606,0.37490067284589834,-3.956630071812761e-07,1.1506496983784461e-07,4.741688999146432e-07
1669909400884809072,14279,1669909400516149688,,-1.8191395148466627,-4.75917969167725,1.2782527247168727,-0.025000014713444662,-0.008999966850239398,-0.040000021697245584,-1.5824994106818532e-217,-1.2881877993810706e-217,1.0789775648698275e-214,0.01589793104082915,-0.018637937167829577,0.374899238318271,-3.9565259942485455e-07,1.1507063794140263e-07,4.7415862151834465e-07
1669909400884840648,14280,1669909400671667353,,-1.821797792915271,-4.761721310707748,1.2695326179598418,-0.024000014419438682,-0.008999966456095115,-0.034000021263688375,0.0,0.0,0.0,0.0031680923017702867,-0.018490384239949975,0.38417207814680054,-3.97584232667648e-07,1.1542100583902744e-07,4.7580274544563697e-07
1669909400923650458,14281,1669909400791000289,,-1.8213102638431484,-4.765534861908072,1.268878228953788,-0.01900001392353346,-0.015999966099385376,-0.028000020532399576,0.0,0.0,-9.469014902418045e-121,-0.0031480571668378587,-0.017065335177111507,0.39019721972424826,-3.9830677754847007e-07,1.1580602700538907e-07,4.7680230690382585e-07
1669909401221629864,14282,1669909400920120456,,-1.8227264258728768,-4.768374100817628,1.2611879121862286,-0.01900001392353346,-0.015999966099385376,-0.028000020532399576,4.885889073038196e-308,5.835539551626922e-308,-6.4563060301664e-310,-0.00828213728701499,-0.01361989327244828,0.39937434206070144,-3.9857250837496216e-07,1.165405270612155e-07,4.784884139653284e-07
1669909401239507376,14283,1669909400976977440,,-1.823909471902954,-4.769424755229928,1.2601342510715703,-0.02000001334891064,-0.014999965805418278,-0.023000019685029516,9.414350618099899e-66,3.4192187370647075e-65,4.0501449708481994e-64,-0.008313151758281734,-0.013511692847304246,0.399621166024529,-3.9851858934509707e-07,1.1656029788651167e-07,4.785079536294063e-07
1669909401314840222,14284,1669909401171334575,,-1.826061979104385,-4.773051628886778,1.2597994128084744,-0.01900011195659772,-0.01400006468547349,-0.019000415428592096,0.0,0.0,0.0,-0.0035400040854440817,-0.007970138164594687,0.4116023695967339,-3.9678761909841955e-07,1.1754297449934651e-07,4.806214228892113e-07
1669909401448477724,14285,1669909401316510463,,-1.8265946979269614,-4.776486409248912,1.2593043605505438,-0.01700021424989414,-0.015999763662926055,-0.01500042195579204,0.0,0.0,0.0,0.004151936139603407,-0.004146314756630076,0.4196014654595519,-3.954176516597055e-07,1.1824153391012987e-07,4.819654467268386e-07
1669909401761088094,14286,1669909401445435422,,-1.8278820227775279,-4.777908420079883,1.260421385960349,-0.016000012424781797,-0.012999965258803791,-0.01200001832225887,0.0,0.0,0.0,0.010803363167505964,-0.00043350331737812553,0.4263062036962708,-3.9450008036067824e-07,1.1892924482851996e-07,4.830384647270389e-07
1669909401772392349,14287,1669909401569248311,,-1.8290250909780752,-4.780178659454451,1.2600693954281845,-0.016000012424781797,-0.012999965258803791,-0.01200001832225887,0.0,0.0,0.0,0.016535066927769293,0.003889164919042898,0.43269608484357747,-3.939175035925936e-07,1.1963187256455363e-07,4.838110631981139e-07
1669909401772395182,14288,1669909401613239469,,-1.8294895744484214,-4.777296297308787,1.2596854281691683,-0.01300001258426516,-0.005999965174858811,-0.00800001855744171,-3.416114848226336e-222,-7.004956800301068e-222,-3.236854161142279e-219,0.018348015870374823,0.005381167854157098,0.43440312856197316,-3.935827893620425e-07,1.1996325282840202e-07,4.839847637488249e-07
1669909401916192383,14289,1669909401764949810,,-1.831089085857499,-4.773534962522174,1.2598042128676044,-0.008000013291629443,0.006000034887372534,-0.004000019600559548,0.0,0.0,0.0,0.02601535622073392,0.01116395010773985,0.43012034477144034,-3.921213060371125e-07,1.2075837924920315e-07,4.809002448882893e-07
1669909401968683802,14290,1669909401914449038,,-1.8325614725427293,-4.773196394998848,1.2597856141461248,-0.008000013291629443,0.006000034887372534,-0.004000019600559548,0.0,0.0,0.0,0.034930326396516165,0.014898082565940385,0.40541704768821063,-3.9044704130851864e-07,1.2099547470969498e-07,4.744421536923547e-07
1669909402282304244,14291,1669909401961981815,,-1.8360369710794378,-4.754109246594047,1.252250735290432,0.002999986203791905,0.046000034813298826,-2.0344638666469e-08,1.2960734199150146e-305,2.7687567850320003e-308,-4.091344364159522e-308,0.03783720531415469,0.01592914753235597,0.3932118992486675,-3.9013431542461163e-07,1.2100942924095664e-07,4.720507166540508e-07
1669909402294447472,14292,1669909402117616666,,-1.8456180697182842,-4.731552524911135,1.2505439741222693,0.001999985745411653,0.08300003456000396,-2.1020591110424114e-08,0.0,0.0,0.0,0.04211209151187667,0.018068871044055967,0.35751099526886776,-3.901390124254045e-07,1.209612897804591e-07,4.6636340711951145e-07
1669909402434808446,14293,1669909402266283227,,-1.8515054823058672,-4.723673360637337,1.2598637676223905,-0.005000014707564152,0.07700003375256413,-2.1688573864414404e-08,1.241539158560505e-140,6.42642354773073e-141,3.6842015913589377e-141,0.041378237257386985,0.01838622734200257,0.3263225775115579,-3.906968846432144e-07,1.2060931802134296e-07,4.6170723578850424e-07
1669909402808037621,14294,1669909402425589301,,-1.8585156911370675,-4.715227321463744,1.2602103461175462,-0.012000015181841787,0.07300003247572556,0.001999977612030542,-8.084171713635561e-223,2.5764602224657616e-222,-2.754650352539824e-220,0.038009893540568385,0.01686171931217295,0.2964247615571054,-3.9146693567271293e-07,1.2002973978758122e-07,4.5797227608271024e-07
1669909402825043163,14295,1669909402585151640,,-1.8675802031656785,-4.703354099797214,1.2604624777471254,-0.01899932619962772,0.0779995389556607,0.0029998787262423927,2.672893643091852e-66,4.506329087046599e-66,4.843103979189011e-65,0.0335207821804957,0.013304446990552776,0.26875924605411683,-3.9207053047402654e-07,1.1913848278452458e-07,4.541354900972008e-07
1669909402908857569,14296,1669909402757385079,,-1.8759352786874501,-4.6872664085961,1.2597548906790947,-0.020000015451118534,0.08600003053911869,0.00399997721494041,-1.984596661866675e-44,-7.449451331829419e-44,-2.3084096143280635e-42,0.032245382267749534,0.008259448022258198,0.24915626388888867,-3.9206977409967737e-07,1.1808751469851922e-07,4.5161716374320587e-07
1669909403035795242,14297,1669909402903074231,,-1.8843610859757522,-4.6717141523398125,1.2601285098988546,-0.023000015134220047,0.09600002960320364,0.003999977682256153,0.0,0.0,0.0,0.03323245945293962,0.003476688367868519,0.23643241778032476,-3.916711179869513e-07,1.1742125888840606e-07,4.502194529529808e-07
1669909403361233471,14298,1669909403034816689,,-1.892497829071259,-4.6565682590869075,1.2604286281386075,-0.025999720348713715,0.10499914582310216,0.0049998799595346605,0.0,0.0,0.0,0.036058396128765935,0.0003745682562268371,0.22774329063698673,-3.910197357088226e-07,1.1696225927053319e-07,4.4893976679317107e-07
1669909403374215278,14299,1669909403165809458,,-1.8992829422816868,-4.642298320867625,1.2596680489820404,-0.026000014654114677,0.10900002915447314,0.00599997839024564,-4.974896482152527e-140,-3.1959763722191123e-140,-3.733184031656917e-144,0.04090702222534759,-0.0015161766490656703,0.22017145953180872,-3.900238452816465e-07,1.1682482300365808e-07,4.479732636441546e-07
1669909403424257989,14300,1669909403289244254,,-1.9056779998437452,-4.628387828184552,1.26373238778533,-0.026000014568421933,0.11300002913971298,0.00999997851661282,1.3038011031584112e-214,7.500382056120366e-215,1.0768199576926426e-212,0.04604690532436706,-0.0020003837002509073,0.21440371389423873,-3.893257363357644e-07,1.169092409100468e-07,4.4727833025999904e-07
1669909403576491820,14301,1669909403428314150,,-1.9143168347116926,-4.611089114970535,1.2697516509592561,-0.029000014649297596,0.12100002913742167,0.01199997839734917,-1.7311668280172793e-220,2.202708934392343e-218,-7.814290318320045e-218,0.05193562737610691,-0.0011445036272927922,0.20760906890835962,-3.885599502440529e-07,1.1726152389724689e-07,4.462913791552645e-07
1669909403847465295,14302,1669909403573500245,,-1.923034485164607,-4.593329922239441,1.269359205463231,-0.03099981074215614,0.12599951848788662,0.01399977371434874,-2.9972806991442113e-45,-2.401405849661699e-43,-4.437323977073614e-42,0.054134256383726154,0.0008708430845629778,0.20143051322778582,-3.8874275927067735e-07,1.1765557428329779e-07,4.446898443394152e-07
1669909403860024595,14303,1669909403663886671,,-1.928024271275739,-4.582791478192189,1.2691291135983611,-0.03099981074215614,0.12599951848788662,0.01399977371434874,-9.840967589922941e-293,-2.708011239489013e-291,-1.8264422672786838e-293,0.053432534795762265,0.002754956728793445,0.1912912824268833,-3.891864046055233e-07,1.1787454409946216e-07,4.4245765778655927e-07
1669909403860044949,14304,1669909403718325336,,-1.9309822179854088,-4.576422156956252,1.2702620308370074,-0.03099981074215614,0.12599951848788662,0.01399977371434874,0.0,0.0,0.0,0.05265297161018978,0.0036781619844941105,0.18612845407944079,-3.8935112859077794e-07,1.1796930949132661e-07,4.4191225728530637e-07
1669909403860098833,14305,1669909403747753204,,-1.9325830654629284,-4.572979761634881,1.270875513430566,-0.03099981074215614,0.12599951848788662,0.01399977371434874,0.0,0.0,0.0,0.05089685503344299,0.005571230717476894,0.17623536639073478,-3.89645846979434e-07,1.1817378767153773e-07,4.4103159482182613e-07
1669909403934304366,14306,1669909403770716863,,-1.9290264161103172,-4.569309760538526,1.2693255952875562,-0.02000001521539601,0.12600002889424128,0.01499997756254966,0.0,0.0,0.0,0.05067203971054823,0.006062482679256576,0.173666388766474,-3.899524709979802e-07,1.1836415687575962e-07,4.3934589407058115e-07
1669909404057137787,14307,1669909403915377500,,-1.939058074761406,-4.559399843158484,1.2703626073086898,-0.034000015565216875,0.10900002849369539,0.013999977046684797,0.0,0.0,0.0,0.04881868684999624,0.009260294101745004,0.16020961305824244,-3.8999714740657184e-07,1.1874393505450684e-07,4.379315218735925e-07
1669909404368331497,14308,1669909404055859698,,-1.9463749526012315,-4.541339361298466,1.271175580476704,-0.0330000155888791,0.1190000276025231,0.014999977011791194,-9.641774191541039e-155,-7.889335922827158e-155,-6.258168461800521e-158,0.048437774976493486,0.01171410477265411,0.15102818249851424,-3.89953298016178e-07,1.1905503402227262e-07,4.368123692218072e-07
1669909404384094410,14309,1669909404178114359,,-1.9542977265437,-4.5250863178488085,1.2693060964826133,-0.03700001546402632,0.12700002701942548,0.014999977195905886,-1.3950678504989729e-216,-1.5306106400160937e-216,-7.768955308353269e-217,0.04775724771371159,0.01351024239883003,0.14466896085123437,-3.9041171591034886e-07,1.1930333357507905e-07,4.3589779585879344e-07
1669909404384146045,14310,1669909404267507056,,-1.9591678951001883,-4.5143880556715414,1.2712308381949642,-0.03700001546402632,0.12700002701942548,0.014999977195905886,-3.312168642111238e-170,1.3248674568444952e-169,3.312168642111238e-170,0.04485765827916843,0.015004485604343643,0.1390206080500178,-3.9119361618835825e-07,1.1945561572464236e-07,4.3508209207235956e-07
1669909404384240230,14311,1669909404322100350,,-1.962110717141042,-4.5078387431571585,1.2747039730658951,-0.03700001546402632,0.12700002701942548,0.014999977195905886,0.0,0.0,0.0,0.042095047127578056,0.015896111548498126,0.13509721162947308,-3.918439917507273e-07,1.1954470614977517e-07,4.3446198044511356e-07
1669909404498750683,14312,1669909404363184821,,-1.9648119022256934,-4.507272015511922,1.2757519562034645,-0.03999970440145365,0.116001167066674,0.015999873575256018,3.2707281832326628e-77,1.2207240387157374e-77,-1.6512874443563719e-78,0.040470067719700964,0.01634193544264484,0.13290519032348058,-3.923143404287634e-07,1.196163096351157e-07,4.3398332184288323e-07
1669909404626460815,14313,1669909404494668070,,-1.9715563757936947,-4.495820824001058,1.2797389861381114,-0.04000001544696144,0.10800002632902832,0.01599997722107069,4.659172871518433e-66,1.372789254742453e-65,3.461498707680777e-64,0.03252634123034959,0.0172363137961824,0.1243533416844329,-3.938835348800171e-07,1.1958894723465393e-07,4.325821058623767e-07
1669909404892026075,14314,1669909404622387517,,-1.9782587111896328,-4.4828121518847315,1.2803928848529815,-0.04000001544696144,0.10800002632902832,0.01599997722107069,4.2168791772922093e-81,4.2168791772922093e-81,6.747006683667535e-80,0.025609656597485042,0.017051166587350508,0.11751599916377842,-3.951485947626033e-07,1.1941763198199193e-07,4.314777109751138e-07
1669909404905166337,14315,1669909404668807617,,-1.9808971758228213,-4.482450726666252,1.281347156401186,-0.04200001533577249,0.0970000259463091,0.016999977385035964,5.878253109058814e-77,2.804639459164156e-77,4.624813754746814e-78,0.021423552542444213,0.016570102464857683,0.11353932380040987,-3.9585984775292205e-07,1.192583908377805e-07,4.3086607402017065e-07
1669909404905817647,14316,1669909404799911046,,-1.9877365787738652,-4.470463239402158,1.2796529088059088,-0.04200001533577249,0.0970000259463091,0.016999977385035964,6.4288209123784666e-77,1.1426568858275424e-77,5.330311279870476e-78,0.014002914671404909,0.015045948934702125,0.10666675298403838,-3.971225298784503e-07,1.1886760443945396e-07,4.2984297342052086e-07
1669909404981538072,14317,1669909404851990626,,-1.9910370703387026,-4.468555831983559,1.280605229404959,-0.04399958912474437,0.09100130363599454,0.016000190709468787,0.0,0.0,0.0,0.011017123799987871,0.014076142748647769,0.10383397906505465,-3.9741833531332793e-07,1.1867568652930915e-07,4.2947150114716757e-07
1669909405044747676,14318,1669909404980590997,,-1.9978195690221956,-4.4575011136906415,1.2793616571425792,-0.04399958912474437,0.09100130363599454,0.016000190709468787,0.0,0.0,0.0,0.005145523306643085,0.010298221731689594,0.09634984225604803,-3.976765460604792e-07,1.1796633902152285e-07,4.286591372127496e-07
1669909405166222547,14319,1669909405028516362,,-2.002021291448325,-4.456865996663811,1.2801853708566648,-0.049000014430481985,0.08300002526922992,0.01699997872002657,1.0598939654755962e-168,-5.299469827377981e-169,2.6497349136889905e-169,0.004667279946701797,0.008794342194706317,0.09440080221458658,-3.975126294600773e-07,1.1774605995483195e-07,4.285041420792502e-07
