%time,field.force.x,field.force.y,field.force.z,field.torque.x,field.torque.y,field.torque.z
1669909748942692944,7.260702181204096,-6.878708431049584,9.526784402502388,-1.0,-5.999999999982681,-2.703366950149541
1669909748942764638,7.260702181204096,-6.878708431049584,9.526784402502388,-1.0,-5.999999999982681,-2.703366950149541
1669909748958314674,7.260702181204096,-6.878708431049584,9.526784402502388,-1.0,-5.999999999982681,-2.703366950149541
1669909748960111314,7.2498558339394386,-6.858357132631582,9.49677522360557,-1.0,-5.999999999982682,-2.7033669501495416
1669909748966910937,7.2498558339394386,-6.858357132631582,9.49677522360557,-1.0,-5.999999999982682,-2.7033669501495416
1669909748966938568,7.2498558339394386,-6.858357132631582,9.49677522360557,-1.0,-5.999999999982682,-2.7033669501495416
1669909748966957537,7.244980111385352,-6.85198932794486,9.49667278310002,-1.0,-5.999999999982682,-2.703366950149541
1669909748966968551,7.244980111385352,-6.85198932794486,9.49667278310002,-1.0,-5.999999999982682,-2.703366950149541
1669909748966975573,7.244980111385352,-6.85198932794486,9.49667278310002,-1.0,-5.999999999982682,-2.703366950149541
1669909748966980615,7.244980111385352,-6.85198932794486,9.49667278310002,-1.0,-5.999999999982682,-2.703366950149541
1669909748966983020,7.244980111385352,-6.85198932794486,9.49667278310002,-1.0,-5.999999999982682,-2.703366950149541
1669909748966996455,7.244980111385352,-6.85198932794486,9.49667278310002,-1.0,-5.999999999982682,-2.703366950149541
1669909748966999186,7.244980111385352,-6.85198932794486,9.49667278310002,-1.0,-5.999999999982682,-2.703366950149541
1669909748967009639,7.244980111385352,-6.85198932794486,9.49667278310002,-1.0,-5.999999999982682,-2.703366950149541
1669909748967695329,7.254734856950034,-6.879070274222012,9.47664059456873,-1.0,-5.999999999982682,-2.703366950149542
1669909748993380229,7.254734856950034,-6.879070274222012,9.47664059456873,-1.0,-5.999999999982682,-2.703366950149542
1669909749010250551,7.210064155923117,-6.914554707396145,9.775708129075051,-1.0,-5.999999999982682,-2.762314751739508
1669909749033445360,7.210064155923117,-6.914554707396145,9.775708129075051,-1.0,-5.999999999982682,-2.762314751739508
1669909749068565385,7.210064155923117,-6.914554707396145,9.775708129075051,-1.0,-5.999999999982682,-2.762314751739508
1669909749077185714,7.232345605904076,-6.932086776070552,9.765601635391032,-1.0,-5.999999999982682,-2.7623147517395115
1669909749102189928,7.232345605904076,-6.932086776070552,9.765601635391032,-1.0,-5.999999999982682,-2.7623147517395115
1669909749115816098,7.232345605904076,-6.932086776070552,9.765601635391032,-1.0,-5.999999999982682,-2.7623147517395115
1669909749148681629,7.232345605904076,-6.932086776070552,9.765601635391032,-1.0,-5.999999999982682,-2.7623147517395115
1669909749162920140,7.234762147334806,-6.924137314432965,9.765533621929071,-1.0,-5.999999999982681,-2.7623147517395137
1669909749180033033,7.234762147334806,-6.924137314432965,9.765533621929071,-1.0,-5.999999999982681,-2.7623147517395137
1669909749196046171,7.237810272010234,-6.917041783531322,9.76547476064325,-1.0,-5.999999999982681,-2.7623147517395163
1669909749217219972,7.866538542540935,-8.076482658584727,9.827659019938714,-1.0,-5.999999999982681,-2.8478175401640082
1669909749329626568,7.866538542540935,-8.076482658584727,9.827659019938714,-1.0,-5.999999999982681,-2.8478175401640082
1669909749335603659,7.866538542540935,-8.076482658584727,9.827659019938714,-1.0,-5.999999999982681,-2.8478175401640082
1669909749335641436,7.866538542540935,-8.076482658584727,9.827659019938714,-1.0,-5.999999999982681,-2.8478175401640082
1669909749335696851,7.866538542540935,-8.076482658584727,9.827659019938714,-1.0,-5.999999999982681,-2.8478175401640082
1669909749335701392,7.866538542540935,-8.076482658584727,9.827659019938714,-1.0,-5.999999999982681,-2.8478175401640082
1669909749335786003,7.866538542540935,-8.076482658584727,9.827659019938714,-1.0,-5.999999999982681,-2.8478175401640082
1669909749346937617,7.8379145334769325,-8.053951080199917,9.807638611132377,-1.0,-5.999999999982682,-2.8478175401640096
1669909749364510928,7.8379145334769325,-8.053951080199917,9.807638611132377,-1.0,-5.999999999982682,-2.8478175401640096
1669909749388994865,7.8379145334769325,-8.053951080199917,9.807638611132377,-1.0,-5.999999999982682,-2.8478175401640096
1669909749410877813,7.8379145334769325,-8.053951080199917,9.807638611132377,-1.0,-5.999999999982682,-2.8478175401640096
1669909749428411537,7.8379145334769325,-8.053951080199917,9.807638611132377,-1.0,-5.999999999982682,-2.8478175401640096
1669909749449767881,7.8379145334769325,-8.053951080199917,9.807638611132377,-1.0,-5.999999999982682,-2.8478175401640096
1669909749466819405,7.8379145334769325,-8.053951080199917,9.807638611132377,-1.0,-5.999999999982682,-2.8478175401640096
1669909749493599072,7.8379145334769325,-8.053951080199917,9.807638611132377,-1.0,-5.999999999982682,-2.8478175401640096
1669909749505401700,7.27773458467017,-7.717100794669826,9.668860595161194,-1.0,-5.999999999982682,-2.8722238540601888
1669909749533747885,7.287621863050749,-7.702365095301488,9.63874173048741,-1.0,-5.888931393911936,-2.8722238540601963
1669909749550816042,7.287621863050749,-7.702365095301488,9.63874173048741,-1.0,-5.999999999982686,-2.8722238540601963
1669909749581995180,7.287621863050749,-7.702365095301488,9.63874173048741,-1.0,-5.999999999982686,-2.8722238540601963
1669909749611922298,7.287621863050749,-7.702365095301488,9.63874173048741,-1.0,-5.999999999982686,-2.8722238540601963
1669909749612089438,7.920125491781523,-8.8242276260098,9.697318157887523,-1.0,-5.999999999982686,-2.888885512943291
1669909749630377735,7.920125491781523,-8.8242276260098,9.697318157887523,-1.0,-5.999999999982686,-2.888885512943291
1669909749650482225,7.920125491781523,-8.8242276260098,9.697318157887523,-1.0,-5.999999999982686,-2.888885512943291
1669909749667947347,7.920125491781523,-8.8242276260098,9.697318157887523,-1.0,-5.999999999982686,-2.888885512943291
1669909749691799278,7.944170449720261,-8.826239305910452,9.67729728803653,-1.0,-5.814265224921261,-2.8888855129432978
1669909749710603202,7.944170449720261,-8.826239305910452,9.67729728803653,-1.0,-5.814265224921261,-2.8888855129432978
1669909749734718820,7.944170449720261,-8.826239305910452,9.67729728803653,-1.0,-5.9999999999826805,-2.8888855129432978
1669909749975128928,7.944170449720261,-8.826239305910452,9.67729728803653,-1.0,-5.9999999999826805,-2.8888855129432978
1669909750003290851,7.944170449720261,-8.826239305910452,9.67729728803653,-1.0,-5.9999999999826805,-2.8888855129432978
1669909750003351418,7.944170449720261,-8.826239305910452,9.67729728803653,-1.0,-5.9999999999826805,-2.8888855129432978
1669909750003456892,7.240133498655197,-8.343917328295095,9.311399274921602,-1.0,-5.9999999999826805,-2.84816086291793
1669909750003512128,7.2833193125102085,-8.314773918694542,9.311628193243472,-0.9871797317703588,-5.609255597257695,-2.8481608629179327
1669909750003553537,7.2833193125102085,-8.314773918694542,9.311628193243472,-0.9871797317703588,-5.609255597257695,-2.8481608629179327
1669909750003592702,7.2833193125102085,-8.314773918694542,9.311628193243472,-1.0,-5.999999999982666,-2.8481608629179327
1669909750003631773,7.2833193125102085,-8.314773918694542,9.311628193243472,-1.0,-5.999999999982666,-2.8481608629179327
1669909750005105220,7.291651926219787,-8.332978917087273,9.311901086602798,-0.9899549687120263,-5.867123515128738,-2.848160862917932
1669909750005112650,7.291651926219787,-8.332978917087273,9.311901086602798,-1.0,-5.994614705469804,-2.848160862917932
1669909750005114850,7.291651926219787,-8.332978917087273,9.311901086602798,-1.0,-5.994614705469804,-2.848160862917932
1669909750005341605,7.291651926219787,-8.332978917087273,9.311901086602798,-1.0,-5.995553774801199,-2.848160862917932
1669909750005403046,7.291651926219787,-8.332978917087273,9.311901086602798,-1.0,-5.995553774801199,-2.848160862917932
1669909750014264689,7.291651926219787,-8.332978917087273,9.311901086602798,-1.0,-5.996502661991088,-2.848160862917932
1669909750022799020,7.326978996156152,-8.314072646027963,9.302152693319334,-0.9230787024991434,-5.825447535730469,-2.8481608629179282
1669909750054018458,7.326978996156152,-8.314072646027963,9.302152693319334,-0.9230787024991434,-5.825447535730469,-2.8481608629179282
1669909750071559178,7.326978996156152,-8.314072646027963,9.302152693319334,-1.0,-5.987945571971859,-2.8481608629179282
1669909750090059129,7.326978996156152,-8.314072646027963,9.302152693319334,-1.0,-5.988355414998251,-2.8481608629179282
1669909750117063705,7.334334169723846,-8.36526091673846,9.30254908290777,-0.7588681910246547,-5.7530227818111905,-2.8481608629179194
1669909750138282684,7.334334169723846,-8.36526091673846,9.30254908290777,-1.0,-5.975497930187021,-2.8481608629179194
1669909750154688492,6.472307359077789,-8.387464839010189,9.182005841406916,-1.0,-5.975814527583147,-2.787487730379124
1669909750172948625,6.472307359077789,-8.387464839010189,9.182005841406916,-1.0,-5.975814527583147,-2.787487730379124
1669909750199072269,6.472307359077789,-8.387464839010189,9.182005841406916,-1.0,-5.9764348906904985,-2.787487730379124
1669909750213200318,6.472307359077789,-8.387464839010189,9.182005841406916,-1.0,-5.9764348906904985,-2.787487730379124
1669909750226279156,6.472307359077789,-8.387464839010189,9.182005841406916,-1.0,-5.977047764950837,-2.787487730379124
1669909750277433077,7.3559046489964794,-9.716734522310087,9.86965977510068,-0.8966408317294248,-5.938603223883684,-2.7658454328727875
1669909750404884930,7.3559046489964794,-9.716734522310087,9.86965977510068,-0.8966408317294248,-5.938603223883684,-2.7658454328727875
1669909750404976021,7.357103297108818,-9.767292272007088,9.869657277594932,-0.8675601555854242,-5.9558592549970975,-2.765845432872778
1669909750405020206,7.357103297108818,-9.767292272007088,9.869657277594932,-0.8675601555854242,-5.9558592549970975,-2.765845432872778
1669909750405060131,7.357103297108818,-9.767292272007088,9.869657277594932,-0.9917286266304288,-5.974107696429125,-2.765845432872778
1669909750405156819,7.357103297108818,-9.767292272007088,9.869657277594932,-0.9917286266304288,-5.974107696429125,-2.765845432872778
1669909750405162281,7.357103297108818,-9.767292272007088,9.869657277594932,-0.9916259034433962,-5.97465520011382,-2.765845432872778
1669909750428789366,7.357103297108818,-9.767292272007088,9.869657277594932,-0.9915365887831608,-5.975131417175404,-2.765845432872778
1669909750442689074,7.357103297108818,-9.767292272007088,9.869657277594932,-0.9914598203731253,-5.975540556361647,-2.765845432872778
1669909750442811417,7.357103297108818,-9.767292272007088,9.869657277594932,-0.9914598203731253,-5.975540556361647,-2.765845432872778
1669909750461566215,6.35679523114372,-9.17828288447593,9.061274137829367,-0.9914598203731253,-5.975540556361644,-2.755768150086407
1669909750481245868,6.35679523114372,-9.17828288447593,9.061274137829367,-0.9615220569239991,-5.977959363950652,-2.755768150086407
1669909750491740153,6.35679523114372,-9.17828288447593,9.061274137829367,-0.9615220569239991,-5.977959363950652,-2.755768150086407
1669909750510955690,6.35679523114372,-9.17828288447593,9.061274137829367,-0.9879760671074251,-5.976861406692996,-2.755768150086407
1669909750532370411,6.353668079356847,-9.212582981829343,9.061077626860833,-0.8105356509244915,-5.999999999982543,-2.7557681500864013
1669909750554594482,7.132512435893712,-10.242595350985226,9.886119233883118,-0.8105356509244915,-5.999999999982543,-2.778995856637953
1669909750578443733,7.132512435893712,-10.242595350985226,9.886119233883118,-0.9770508388296183,-5.98357882138963,-2.778995856637953
1669909750599113767,7.132512435893712,-10.242595350985226,9.886119233883118,-0.9768673166719422,-5.983991544646813,-2.778995856637953
1669909750614728494,7.132512435893712,-10.242595350985226,9.886119233883118,-0.9768673166719422,-5.983991544646813,-2.778995856637953
1669909750632527144,7.132512435893712,-10.242595350985226,9.886119233883118,-0.9766077451796019,-5.984575065235653,-2.778995856637953
1669909750649498158,6.193570599536596,-9.860169565920529,8.951173069394326,-0.9766077451796019,-5.984575065235653,-2.756556496019362
1669909750672832938,6.193570599536596,-9.860169565920529,8.951173069394326,-0.9763270087851577,-5.985207342546401,-2.756556496019362
1669909750689197878,6.201615645490311,-9.92876055743621,8.931101695284166,-0.932975720862193,-5.999999999982538,-2.7565564960193587
1669909750726187464,6.201615645490311,-9.92876055743621,8.931101695284166,-0.932975720862193,-5.999999999982538,-2.7565564960193587
1669909750743790102,6.201615645490311,-9.92876055743621,8.931101695284166,-0.9732082994775147,-5.989852131767406,-2.7565564960193587
1669909750755564056,6.201615645490311,-9.92876055743621,8.931101695284166,-0.9730344937642292,-5.990225876095599,-2.7565564960193587
1669909750772587736,6.201615645490311,-9.92876055743621,8.931101695284166,-0.9728676338063947,-5.990585123764114,-2.7565564960193587
1669909750791285499,6.201615645490311,-9.92876055743621,8.931101695284166,-0.9728676338063947,-5.990585123764114,-2.7565564960193587
1669909751032850368,6.467770053945206,-9.964207439684134,9.406020254477777,-0.9725482346747659,-5.991272962903952,-2.789625897998805
1669909751048569526,6.467770053945206,-9.964207439684134,9.406020254477777,-0.9725482346747659,-5.991272962903952,-2.789625897998805
1669909751048576485,6.481269637113933,-10.018368288360596,9.395964587042087,-0.9608518871418612,-5.999999999982542,-2.7896258979988002
1669909751048580785,6.481269637113933,-10.018368288360596,9.395964587042087,-0.9706886483888031,-5.999999999982542,-2.7896258979988002
1669909751048584187,6.481269637113933,-10.018368288360596,9.395964587042087,-0.9706886483888031,-5.999999999982542,-2.7896258979988002
1669909751048586645,6.481269637113933,-10.018368288360596,9.395964587042087,-0.9704361758583475,-5.999999999982542,-2.7896258979988002
1669909751048589042,6.481269637113933,-10.018368288360596,9.395964587042087,-0.9702391918611,-5.999999999982542,-2.7896258979988002
1669909751048591746,6.481269637113933,-10.018368288360596,9.395964587042087,-0.9702391918611,-5.999999999982542,-2.7896258979988002
1669909751048594257,6.4748031448120935,-9.995613972039122,9.396107359567429,-1.0,-5.999999999982567,-2.789625897998801
1669909751048671151,6.4748031448120935,-9.995613972039122,9.396107359567429,-0.9767767552843896,-5.999999999982567,-2.789625897998801
1669909751048676493,6.4748031448120935,-9.995613972039122,9.396107359567429,-0.9767767552843896,-5.999999999982567,-2.789625897998801
1669909751050478602,6.4748031448120935,-9.995613972039122,9.396107359567429,-0.9765524350709236,-5.999999999982567,-2.789625897998801
1669909751050488680,6.4748031448120935,-9.995613972039122,9.396107359567429,-0.9765524350709236,-5.999999999982567,-2.789625897998801
1669909751073149997,6.4748031448120935,-9.995613972039122,9.396107359567429,-0.9763421076766228,-5.999999999982567,-2.789625897998801
1669909751085099303,6.4748031448120935,-9.995613972039122,9.396107359567429,-0.9763421076766228,-5.999999999982567,-2.789625897998801
1669909751107731723,6.4748031448120935,-9.995613972039122,9.396107359567429,-0.9760972542036522,-5.999999999982567,-2.789625897998801
1669909751129692145,6.4748031448120935,-9.995613972039122,9.396107359567429,-0.9759697215927353,-5.999999999982567,-2.789625897998801
1669909751174302276,5.383420343279348,-9.62329713472833,9.042443944850708,-0.9759697215927353,-5.999999999982567,-2.723296210165015
1669909751182917744,5.383420343279348,-9.62329713472833,9.042443944850708,-0.9757222752940685,-5.999999999982567,-2.723296210165015
1669909751197394084,5.390344299420699,-9.641907935360118,9.032540341871755,-0.9757222752940685,-5.999999999982588,-2.7232962101650173
1669909751212262541,5.390344299420699,-9.641907935360118,9.032540341871755,-1.0,-5.999999999982588,-2.7232962101650173
1669909751231611597,5.390344299420699,-9.641907935360118,9.032540341871755,-0.9820195427875389,-5.999999999982588,-2.7232962101650173
1669909751243026074,5.390344299420699,-9.641907935360118,9.032540341871755,-0.9820195427875389,-5.999999999982588,-2.7232962101650173
1669909751270292942,5.390344299420699,-9.641907935360118,9.032540341871755,-0.9818525109758189,-5.999999999982588,-2.7232962101650173
1669909751287211045,5.390344299420699,-9.641907935360118,9.032540341871755,-0.9818525109758189,-5.999999999982588,-2.7232962101650173
1669909751315138665,6.352876760110243,-10.931319718578502,9.302452152627485,-0.9816943005397484,-5.999999999982588,-2.6384400576305325
1669909751432971294,6.352876760110243,-10.931319718578502,9.302452152627485,-0.9816943005397484,-5.999999999982588,-2.6384400576305325
1669909751440915835,6.352876760110243,-10.931319718578502,9.302452152627485,-0.9815365377909255,-5.999999999982588,-2.6384400576305325
1669909751440940247,6.346383932645175,-10.90051043538903,9.302451371910388,-1.0,-5.999999999982644,-2.638440057630538
1669909751441030220,6.346383932645175,-10.90051043538903,9.302451371910388,-1.0,-5.999999999982644,-2.638440057630538
1669909751441035413,6.346383932645175,-10.90051043538903,9.302451371910388,-1.0,-5.999999999982644,-2.638440057630538
1669909751441143844,6.346383932645175,-10.90051043538903,9.302451371910388,-1.0,-5.999999999982644,-2.638440057630538
1669909751441268176,6.346383932645175,-10.90051043538903,9.302451371910388,-1.0,-5.999999999982644,-2.638440057630538
1669909751463761632,6.346383932645175,-10.90051043538903,9.302451371910388,-1.0,-5.999999999982644,-2.638440057630538
1669909751488741130,6.346383932645175,-10.90051043538903,9.302451371910388,-1.0,-5.999999999982644,-2.638440057630538
1669909751504916835,6.346383932645175,-10.90051043538903,9.302451371910388,-1.0,-5.999999999982644,-2.638440057630538
1669909751529820633,6.346383932645175,-10.90051043538903,9.302451371910388,-1.0,-5.999999999982644,-2.638440057630538
1669909751549640302,5.4198321137975185,-10.231655125902641,9.133436217667873,-1.0,-5.999999999982644,-2.364471852774619
1669909751569182563,5.418205587309786,-10.18721200509651,9.103259129585918,-1.0,-5.9999999999826725,-2.3644718527746202
1669909751589219502,5.418205587309786,-10.18721200509651,9.103259129585918,-1.0,-5.9999999999826725,-2.3644718527746202
1669909751612024313,5.418205587309786,-10.18721200509651,9.103259129585918,-1.0,-5.9999999999826725,-2.3644718527746202
1669909751623597799,5.418205587309786,-10.18721200509651,9.103259129585918,-1.0,-5.9999999999826725,-2.3644718527746202
1669909751645100283,5.243773786467501,-10.5507854370652,9.470298683407005,-1.0,-5.9999999999826725,-1.982787027950287
1669909751668004875,5.243773786467501,-10.5507854370652,9.470298683407005,-1.0,-5.9999999999826725,-1.982787027950287
1669909751689951285,5.243773786467501,-10.5507854370652,9.470298683407005,-1.0,-5.9999999999826725,-1.982787027950287
1669909751702204004,5.243773786467501,-10.5507854370652,9.470298683407005,-1.0,-5.9999999999826725,-1.982787027950287
1669909751729360479,5.243773786467501,-10.5507854370652,9.470298683407005,-1.0,-5.9999999999826725,-1.982787027950287
1669909751750654599,5.243773786467501,-10.5507854370652,9.470298683407005,-1.0,-5.9999999999826725,-1.982787027950287
1669909751768439355,5.2452787733191055,-10.47083348890842,9.44015152587895,-1.0,-5.999999999982703,-1.9827870279502895
1669909751801092777,5.921230611812453,-10.870876022782932,9.572919940793557,-1.0,-5.999999999982703,-2.460915371770861
1669909751817059587,5.921230611812453,-10.870876022782932,9.572919940793557,-1.0,-5.999999999982703,-2.460915371770861
1669909752081078380,5.921230611812453,-10.870876022782932,9.572919940793557,-1.0,-5.999999999982703,-2.460915371770861
1669909752081133198,5.921230611812453,-10.870876022782932,9.572919940793557,-1.0,-5.999999999982703,-2.460915371770861
1669909752095225455,5.921230611812453,-10.870876022782932,9.572919940793557,-1.0,-5.999999999982703,-2.460915371770861
1669909752095271011,5.948949428369006,-10.865429433275471,9.552995836832558,-1.0,-5.999999999982716,-2.460915371770864
1669909752095312110,5.948949428369006,-10.865429433275471,9.552995836832558,-1.0,-5.931328277376417,-2.460915371770864
1669909752095352090,5.948949428369006,-10.865429433275471,9.552995836832558,-1.0,-5.931328277376417,-2.460915371770864
1669909752095391566,5.948949428369006,-10.865429433275471,9.552995836832558,-1.0,-5.999999999982716,-2.460915371770864
1669909752095432113,5.958426301235022,-10.887695726939791,9.553191840095558,-1.0,-5.999999999982714,-2.460915371770864
1669909752095529506,5.958426301235022,-10.887695726939791,9.553191840095558,-0.9559339673876388,-5.881861929459583,-2.460915371770864
1669909752095534797,5.958426301235022,-10.887695726939791,9.553191840095558,-1.0,-5.999999999982714,-2.460915371770864
1669909752095593334,5.958426301235022,-10.887695726939791,9.553191840095558,-1.0,-5.999999999982714,-2.460915371770864
1669909752095641545,5.958426301235022,-10.887695726939791,9.553191840095558,-1.0,-5.999999999982714,-2.460915371770864
1669909752095645465,5.958426301235022,-10.887695726939791,9.553191840095558,-1.0,-5.999999999982714,-2.460915371770864
1669909752108424999,5.958426301235022,-10.887695726939791,9.553191840095558,-1.0,-5.999999999982714,-2.460915371770864
1669909752114302334,5.958426301235022,-10.887695726939791,9.553191840095558,-1.0,-5.999999999982714,-2.460915371770864
1669909752126459814,5.963210871936092,-10.882321027104767,9.543283863016635,-1.0,-5.999999999982709,-2.460915371770864
1669909752159530562,3.752192369223844,-9.824498322789582,9.235597981163531,-0.9833860780050083,-5.97260475403111,-1.2751883268308692
1669909752176948564,3.752192369223844,-9.824498322789582,9.235597981163531,-0.9833860780050083,-5.97260475403111,-1.2751883268308692
1669909752187861532,3.752192369223844,-9.824498322789582,9.235597981163531,-1.0,-5.999999999982709,-1.2751883268308692
1669909752210490306,5.462153962374935,-11.808518794362458,10.120788013586074,-1.0,-5.999999999982709,-1.5784766524982505
1669909752228108772,5.462153962374935,-11.808518794362458,10.120788013586074,-1.0,-5.999999999982709,-1.5784766524982505
1669909752250346789,5.462153962374935,-11.808518794362458,10.120788013586074,-1.0,-5.999999999982709,-1.5784766524982505
1669909752294272066,5.462153962374935,-11.808518794362458,10.120788013586074,-1.0,-5.999999999982709,-1.5784766524982505
1669909752313485175,5.462153962374935,-11.808518794362458,10.120788013586074,-1.0,-5.999999999982709,-1.5784766524982505
1669909752313493922,5.449981215050827,-11.856216364580499,10.110923400955706,-1.0,-5.999999999982699,-1.5784766524982536
1669909752330131250,5.449981215050827,-11.856216364580499,10.110923400955706,-0.8780157442231289,-5.7295872861779,-1.5784766524982536
1669909752349653664,4.15157687907518,-10.716123753267633,9.15735298289588,-0.8780157442231289,-5.7295872861779,-1.2194312363815392
1669909752366685077,4.15157687907518,-10.716123753267633,9.15735298289588,-0.9980548274053141,-5.9990860839979705,-1.2194312363815392
1669909752479657591,4.15157687907518,-10.716123753267633,9.15735298289588,-0.9980548274053141,-5.9990860839979705,-1.2194312363815392
1669909752496090305,4.15157687907518,-10.716123753267633,9.15735298289588,-0.9980397856064332,-5.999372028681905,-1.2194312363815392
1669909752496096190,4.15157687907518,-10.716123753267633,9.15735298289588,-0.9980308933461651,-5.999540559206406,-1.2194312363815392
1669909752496180132,4.15157687907518,-10.716123753267633,9.15735298289588,-0.9980308933461651,-5.999540559206406,-1.2194312363815392
1669909752496189809,4.15157687907518,-10.716123753267633,9.15735298289588,-0.9980180136067046,-5.999785122911326,-1.2194312363815392
1669909752496197302,4.202997350089827,-10.783433668070913,9.157269926705826,-0.9980180136067046,-5.99978512291132,-1.219431236381548
1669909752519132846,4.202997350089827,-10.783433668070913,9.157269926705826,-0.8914158231622868,-5.632944350289374,-1.219431236381548
1669909752532587530,4.202997350089827,-10.783433668070913,9.157269926705826,-0.9863552416753782,-5.960111295651666,-1.219431236381548
1669909752555228763,4.202997350089827,-10.783433668070913,9.157269926705826,-0.9863552416753782,-5.960111295651666,-1.219431236381548
1669909752566512448,4.202997350089827,-10.783433668070913,9.157269926705826,-0.9861905888916506,-5.959870272909971,-1.219431236381548
1669909752588571820,4.231696214006936,-10.810506951161686,9.157048439408912,-0.8427675936073935,-5.048143120313479,-1.2194312363815627
1669909752603999983,4.110311354921853,-10.944169174977604,9.629156304325237,-0.8427675936073935,-5.048143120313479,-1.292321272189649
1669909752630045825,4.110311354921853,-10.944169174977604,9.629156304325237,-0.9774953278102025,-5.905792522285187,-1.292321272189649
1669909752661455866,4.110311354921853,-10.944169174977604,9.629156304325237,-0.9772705140716925,-5.905025330871268,-1.292321272189649
1669909752672259600,4.110311354921853,-10.944169174977604,9.629156304325237,-0.9772705140716925,-5.905025330871268,-1.292321272189649
1669909752684852199,4.110311354921853,-10.944169174977604,9.629156304325237,-0.9770800562000228,-5.904374861623589,-1.292321272189649
1669909752703486628,4.019051577375924,-11.33352936441547,9.307240372325554,-0.9770800562000228,-5.904374861623589,-1.1264493316364608
1669909752745204973,4.019051577375924,-11.33352936441547,9.307240372325554,-0.9768026858619274,-5.903427282652665,-1.1264493316364608
1669909752756247877,4.029432730808023,-11.424692672669542,9.29705527015902,-0.916661341528777,-5.24432286472985,-1.12644933163647
1669909752769886275,4.029432730808023,-11.424692672669542,9.29705527015902,-0.916661341528777,-5.24432286472985,-1.12644933163647
1669909752789370029,4.029432730808023,-11.424692672669542,9.29705527015902,-0.9728990357972856,-5.863844079029574,-1.12644933163647
1669909752810002622,3.983358042373422,-11.178568405091417,9.611644785487428,-0.9728990357972856,-5.863844079029574,-1.3695564866018708
1669909752835078768,3.983358042373422,-11.178568405091417,9.611644785487428,-0.9725780967606983,-5.862407219459297,-1.3695564866018708
1669909752847769655,3.983358042373422,-11.178568405091417,9.611644785487428,-0.9725780967606983,-5.862407219459297,-1.3695564866018708
1669909752871698292,3.983358042373422,-11.178568405091417,9.611644785487428,-0.9722582725570789,-5.860975740203137,-1.3695564866018708
1669909752890753904,4.004415212008877,-11.245897116010886,9.611429937424116,-0.9848505878367511,-4.9676953169012155,-1.3695564866018903
1669909753133458231,4.004415212008877,-11.245897116010886,9.611429937424116,-0.9848505878367511,-4.9676953169012155,-1.3695564866018903
1669909753144333199,4.004415212008877,-11.245897116010886,9.611429937424116,-0.9726051938639217,-5.800682734500219,-1.3695564866018903
1669909753144339440,3.5151129391402613,-10.966313388807306,9.723721346127842,-1.0,-5.378248243921133,-1.4991929009509775
1669909753144379091,3.5151129391402613,-10.966313388807306,9.723721346127842,-0.9764648358018204,-5.774220583640197,-1.4991929009509775
1669909753144384682,3.5151129391402613,-10.966313388807306,9.723721346127842,-0.9763263015211721,-5.772860353807853,-1.4991929009509775
1669909753144396749,3.5257159730138947,-10.932865572794698,9.723762004181523,-1.0,-5.434919904871556,-1.4991929009509841
1669909753144432265,3.5257159730138947,-10.932865572794698,9.723762004181523,-1.0,-5.434919904871556,-1.4991929009509841
1669909753144437351,3.5257159730138947,-10.932865572794698,9.723762004181523,-0.9863796099361265,-5.749344720512315,-1.4991929009509841
1669909753144582784,3.5257159730138947,-10.932865572794698,9.723762004181523,-0.9863796099361265,-5.749344720512315,-1.4991929009509841
1669909753144586041,3.5257159730138947,-10.932865572794698,9.723762004181523,-0.9862263831983332,-5.745809053972527,-1.4991929009509841
1669909753144588048,3.5257159730138947,-10.932865572794698,9.723762004181523,-0.9862263831983332,-5.745809053972527,-1.4991929009509841
1669909753160278006,3.5257159730138947,-10.932865572794698,9.723762004181523,-0.986132412346495,-5.7436405863416224,-1.4991929009509841
1669909753160279885,3.5257159730138947,-10.932865572794698,9.723762004181523,-0.986132412346495,-5.7436405863416224,-1.4991929009509841
1669909753169212945,3.528620483265101,-10.947805126391858,9.73374139461159,-1.0,-5.688779744443029,-1.4991929009509881
1669909753185482797,3.528620483265101,-10.947805126391858,9.73374139461159,-0.9875366331415143,-5.734165855724957,-1.4991929009509881
1669909753208643391,3.528620483265101,-10.947805126391858,9.73374139461159,-0.9875366331415143,-5.734165855724957,-1.4991929009509881
1669909753226611729,3.528620483265101,-10.947805126391858,9.73374139461159,-0.9874367043148858,-5.731312738850528,-1.4991929009509881
1669909753242642760,2.8682910221673836,-10.58456309624812,9.414470660867684,-0.9873865370596182,-5.729880366216259,-1.6761457174969514
1669909753271910540,2.8682910221673836,-10.58456309624812,9.414470660867684,-0.9873865370596182,-5.729880366216259,-1.6761457174969514
1669909753285781402,2.8682910221673836,-10.58456309624812,9.414470660867684,-0.9872849716429759,-5.726979301920453,-1.6761457174969514
1669909753311549997,2.870540527609831,-10.559902008525626,9.42442812220824,-1.0,-5.656590638547861,-1.6761457174969512
1669909753332783193,2.870540527609831,-10.559902008525626,9.42442812220824,-1.0,-5.656590638547861,-1.6761457174969512
1669909753358343792,3.46472000887776,-11.490770991794363,10.039631183814976,-1.0,-5.718486037608331,-1.9591565430117446
1669909753385547676,3.46472000887776,-11.490770991794363,10.039631183814976,-1.0,-5.716802804962369,-1.9591565430117446
1669909753421788291,3.46472000887776,-11.490770991794363,10.039631183814976,-1.0,-5.715215942759798,-1.9591565430117446
1669909753525893042,3.46472000887776,-11.490770991794363,10.039631183814976,-1.0,-5.715215942759798,-1.9591565430117446
1669909753525896178,3.4502396486832065,-11.443024581107865,10.089446533351326,-1.0,-5.997790393875228,-1.9591565430117341
1669909753525898384,3.7134102486206455,-11.566304867896806,10.087411484095389,-1.0,-5.997790393875228,-1.6349421814037057
1669909753525900206,3.693495702452997,-11.535824551305865,10.087282839100773,-1.0,-5.999999999982729,-1.6349421814036935
1669909753525902385,3.693495702452997,-11.535824551305865,10.087282839100773,-1.0,-5.772899673753976,-1.6349421814036935
1669909753525909058,3.693495702452997,-11.535824551305865,10.087282839100773,-1.0,-5.771769105880749,-1.6349421814036935
1669909753525929646,3.693495702452997,-11.535824551305865,10.087282839100773,-1.0,-5.771769105880749,-1.6349421814036935
1669909753546919094,3.693495702452997,-11.535824551305865,10.087282839100773,-1.0,-5.769779728846067,-1.6349421814036935
1669909753568393284,3.693495702452997,-11.535824551305865,10.087282839100773,-1.0,-5.769779728846067,-1.6349421814036935
1669909753588119090,3.639732669849538,-11.48084288197139,10.117254279897773,-1.0,-5.837035891384246,-1.6349421814036904
1669909753611555169,3.639732669849538,-11.48084288197139,10.117254279897773,-1.0,-5.773845822199664,-1.6349421814036904
1669909753628440810,3.639732669849538,-11.48084288197139,10.117254279897773,-1.0,-5.773845822199664,-1.6349421814036904
1669909753642145988,2.0921739151669967,-10.480747872167617,9.366645332769716,-1.0,-5.77189404379113,-2.2054414451075135
1669909753671088129,2.0921739151669967,-10.480747872167617,9.366645332769716,-1.0,-5.770557243102077,-2.2054414451075135
1669909753711777148,2.0921739151669967,-10.480747872167617,9.366645332769716,-1.0,-5.770557243102077,-2.2054414451075135
1669909753727521150,2.052010123186455,-10.43835877825752,9.356485194405884,-1.0,-5.9999999999827365,-2.205441445107503
1669909753727588106,2.052010123186455,-10.43835877825752,9.356485194405884,-1.0,-5.805592613737583,-2.205441445107503
1669909753748965884,2.4009574693969347,-10.927899474401624,10.070302296774805,-1.0,-5.805592613737583,-1.962794736022992
1669909753765165017,2.4009574693969347,-10.927899474401624,10.070302296774805,-1.0,-5.804109504342817,-1.962794736022992
1669909753784700184,2.3895680781372426,-10.91375893557138,10.070145746699636,-1.0,-5.999999999982741,-1.962794736022989
1669909753818078425,2.3895680781372426,-10.91375893557138,10.070145746699636,-1.0,-5.823781810225895,-1.962794736022989
1669909753836624809,2.3783945983450345,-10.900296758301211,10.069966760231434,-1.0,-5.823781810225899,-1.9627947360229847
1669909753870846486,2.0507931655447416,-10.692205022461367,9.312090276973574,-1.0,-5.999999999982745,-1.8761220574331638
1669909753888266277,2.0507931655447416,-10.692205022461367,9.312090276973574,-1.0,-5.999999999982745,-1.8761220574331638
1669909753888268275,2.0507931655447416,-10.692205022461367,9.312090276973574,-1.0,-5.842440165299458,-1.8761220574331638
1669909753915953427,2.0507931655447416,-10.692205022461367,9.312090276973574,-1.0,-5.841939607788576,-1.8761220574331638
1669909753932422396,2.0507931655447416,-10.692205022461367,9.312090276973574,-1.0,-5.841939607788576,-1.8761220574331638
1669909754179570516,2.0507931655447416,-10.692205022461367,9.312090276973574,-1.0,-5.841039027738014,-1.8761220574331638
1669909754191619880,2.0507931655447416,-10.692205022461367,9.312090276973574,-1.0,-5.841039027738014,-1.8761220574331638
1669909754191623116,2.0507931655447416,-10.692205022461367,9.312090276973574,-1.0,-5.83997477006927,-1.8761220574331638
1669909754191634450,2.0006120605405546,-10.68750998448978,9.60200349826839,-1.0,-5.839974770069277,-1.8632565066170994
1669909754191711685,2.0006120605405546,-10.68750998448978,9.60200349826839,-1.0,-5.999999999982752,-1.8632565066170994
1669909754191892784,2.0006120605405546,-10.68750998448978,9.60200349826839,-1.0,-5.857044809446782,-1.8632565066170994
1669909754191897927,2.0006120605405546,-10.68750998448978,9.60200349826839,-1.0,-5.856662554044185,-1.8632565066170994
1669909754191901915,2.0006120605405546,-10.68750998448978,9.60200349826839,-1.0,-5.856662554044185,-1.8632565066170994
1669909754191904233,2.0006120605405546,-10.68750998448978,9.60200349826839,-1.0,-5.856071558772423,-1.8632565066170994
1669909754191959572,2.0006120605405546,-10.68750998448978,9.60200349826839,-1.0,-5.85566782015007,-1.8632565066170994
1669909754191964660,1.9716890627732204,-10.648299085302394,9.611658729990852,-1.0,-5.855667820150088,-1.8632565066170899
1669909754192009245,1.9716890627732204,-10.648299085302394,9.611658729990852,-1.0,-5.999999999982769,-1.8632565066170899
1669909754204044803,1.9716890627732204,-10.648299085302394,9.611658729990852,-1.0,-5.999999999982769,-1.8632565066170899
1669909754214770753,1.9716890627732204,-10.648299085302394,9.611658729990852,-1.0,-5.889954278707556,-1.8632565066170899
1669909754229069085,1.9716890627732204,-10.648299085302394,9.611658729990852,-1.0,-5.889954278707556,-1.8632565066170899
1669909754250133771,1.9716890627732204,-10.648299085302394,9.611658729990852,-1.0,-5.889719971189098,-1.8632565066170899
1669909754270253414,1.9716890627732204,-10.648299085302394,9.611658729990852,-1.0,-5.889719971189098,-1.8632565066170899
1669909754317089274,1.8968301139066888,-10.586840885991096,9.611416350964722,-1.0,-5.999999999982789,-1.8632565066170836
1669909754329910306,1.8968301139066888,-10.586840885991096,9.611416350964722,-1.0,-5.999999999982789,-1.8632565066170836
1669909754330034314,1.8968301139066888,-10.586840885991096,9.611416350964722,-1.0,-5.917259647043985,-1.8632565066170836
1669909754365908604,1.8968301139066888,-10.586840885991096,9.611416350964722,-1.0,-5.917259647043985,-1.8632565066170836
1669909754377395226,1.8968301139066888,-10.586840885991096,9.611416350964722,-1.0,-5.917423613764381,-1.8632565066170836
1669909754392643801,1.8968301139066888,-10.586840885991096,9.611416350964722,-1.0,-5.917423613764381,-1.8632565066170836
1669909754409743358,0.8234680060523523,-9.80755903136158,9.208415899340329,-1.0,-5.917525895104391,-1.5344984829378272
1669909754429569621,0.8234680060523523,-9.80755903136158,9.208415899340329,-1.0,-5.9175964074670615,-1.5344984829378272
1669909754446748871,0.7743759444843784,-9.75099512019049,9.198259981495646,-1.0,-5.917596407467083,-1.534498482937823
1669909754564829684,0.7743759444843784,-9.75099512019049,9.198259981495646,-1.0,-5.99999999998281,-1.534498482937823
1669909754592864270,0.7743759444843784,-9.75099512019049,9.198259981495646,-1.0,-5.99999999998281,-1.534498482937823
1669909754592930716,0.7540432599767848,-9.90432091631781,9.721302734834461,-1.0,-5.93499283875354,-1.1092936992597682
1669909754592972332,0.7540432599767848,-9.90432091631781,9.721302734834461,-1.0,-5.935177750789486,-1.1092936992597682
1669909754593047844,0.7540432599767848,-9.90432091631781,9.721302734834461,-1.0,-5.93535852262999,-1.1092936992597682
1669909754593067566,0.7540432599767848,-9.90432091631781,9.721302734834461,-1.0,-5.9355408724459755,-1.1092936992597682
1669909754606855355,0.7540432599767848,-9.90432091631781,9.721302734834461,-1.0,-5.9355408724459755,-1.1092936992597682
1669909754607688565,0.7186133511756522,-9.88302738849203,9.711263697626222,-1.0,-5.999999999982829,-1.1092936992597653
1669909754625699276,0.7186133511756522,-9.88302738849203,9.711263697626222,-1.0,-5.999999999982829,-1.1092936992597653
1669909754654706747,0.7186133511756522,-9.88302738849203,9.711263697626222,-1.0,-5.946533056646074,-1.1092936992597653
1669909754666397190,0.7186133511756522,-9.88302738849203,9.711263697626222,-1.0,-5.946533056646074,-1.1092936992597653
1669909754690141739,0.7186133511756522,-9.88302738849203,9.711263697626222,-1.0,-5.9469668624183525,-1.1092936992597653
1669909754709005918,0.29598617152506246,-9.469723417201442,8.879985582115282,-1.0,-5.947225220762554,-1.0368219762992932
1669909754729179622,0.29598617152506246,-9.469723417201442,8.879985582115282,-1.0,-5.947225220762554,-1.0368219762992932
1669909754746874751,0.29598617152506246,-9.469723417201442,8.879985582115282,-1.0,-5.947704923958176,-1.0368219762992932
1669909754767505605,0.29598617152506246,-9.469723417201442,8.879985582115282,-1.0,-5.947704923958176,-1.0368219762992932
1669909754785561422,0.2619006294007298,-9.457591710794082,8.880152370901527,-1.0,-5.99999999998285,-1.0368219762992883
1669909754808220652,0.4853172223265167,-9.60803085397493,9.111107926936569,-1.0,-5.99999999998285,-1.4012246578884149
1669909754829307486,0.4853172223265167,-9.60803085397493,9.111107926936569,-1.0,-5.956384183455408,-1.4012246578884149
1669909754851388394,0.4853172223265167,-9.60803085397493,9.111107926936569,-1.0,-5.9566830297171425,-1.4012246578884149
1669909754863063814,0.4853172223265167,-9.60803085397493,9.111107926936569,-1.0,-5.9566830297171425,-1.4012246578884149
1669909754889216833,0.4853172223265167,-9.60803085397493,9.111107926936569,-1.0,-5.957272491261974,-1.4012246578884149
1669909754907455959,0.4320795885885502,-9.56457414485089,9.11144865046263,-0.9765648730754278,-5.999999999982867,-1.4012246578884089
1669909754935037619,0.4320795885885502,-9.56457414485089,9.11144865046263,-1.0,-5.963946824489255,-1.4012246578884089
1669909754952845482,-0.2312226355408882,-9.054584287177246,9.077798103196624,-1.0,-5.963946824489255,-0.5070094205391372
1669909754992744437,-0.2312226355408882,-9.054584287177246,9.077798103196624,-1.0,-5.964569309653658,-0.5070094205391372
1669909755284164245,-0.2312226355408882,-9.054584287177246,9.077798103196624,-1.0,-5.964569309653658,-0.5070094205391372
1669909755284206462,-0.2312226355408882,-9.054584287177246,9.077798103196624,-1.0,-5.965255773446315,-0.5070094205391372
1669909755284345169,-0.2822148045521925,-9.047450394018195,9.078048009717168,-1.0,-5.965255773446325,-0.5070094205391352
1669909755284414552,-0.2822148045521925,-9.047450394018195,9.078048009717168,-1.0,-5.982392368378241,-0.5070094205391352
1669909755284483104,-0.2822148045521925,-9.047450394018195,9.078048009717168,-1.0,-5.982392368378241,-0.5070094205391352
1669909755284508286,-0.2822148045521925,-9.047450394018195,9.078048009717168,-1.0,-5.968612076853077,-0.5070094205391352
1669909755284578720,-0.2822148045521925,-9.047450394018195,9.078048009717168,-1.0,-5.968612076853077,-0.5070094205391352
1669909755284728016,-0.2822148045521925,-9.047450394018195,9.078048009717168,-1.0,-5.969327180918747,-0.5070094205391352
1669909755284748091,-0.31210382185920077,-9.047646179062756,9.078236458087398,-1.0,-5.96932718091876,-0.5070094205391342
1669909755284750893,-0.31210382185920077,-9.047646179062756,9.078236458087398,-1.0,-5.967293103571758,-0.5070094205391342
1669909755284863625,-0.31210382185920077,-9.047646179062756,9.078236458087398,-1.0,-5.969971445612566,-0.5070094205391342
1669909755306592216,-0.30996090673463356,-9.054857583449152,9.078369083344286,-1.0,-5.969971445612586,-0.5070094205391357
1669909755306761244,-0.3090207130888223,-9.055435576210185,9.07838147048181,-1.0,-5.917770572593734,-0.5070094205391367
1669909755306815557,-0.3090207130888223,-9.055435576210185,9.07838147048181,-1.0,-5.965263886397604,-0.5070094205391367
1669909755306879150,-0.3090207130888223,-9.055435576210185,9.07838147048181,-1.0,-5.965617283345487,-0.5070094205391367
1669909755306923269,-0.3090207130888223,-9.055435576210185,9.07838147048181,-1.0,-5.966043747256646,-0.5070094205391367
1669909755315838134,-1.4143589736202478,-8.196333565483256,8.364074117581305,-1.0,-5.966043747256646,0.33537634648859904
1669909755328195367,-1.4143589736202478,-8.196333565483256,8.364074117581305,-1.0,-5.966486347183765,0.33537634648859904
1669909755346285866,-1.4143589736202478,-8.196333565483256,8.364074117581305,-1.0,-5.966486347183765,0.33537634648859904
1669909755370042218,-1.4143589736202478,-8.196333565483256,8.364074117581305,-1.0,-5.967091972203848,0.33537634648859904
1669909755394151573,-1.462926096912979,-8.15659044773494,8.344083165824742,-1.0,-5.921242167628499,0.3353763464885979
1669909755409659415,-1.1023373675314176,-8.395540700267897,8.49362987846169,-1.0,-5.921242167628499,-0.4703070223283739
1669909755444755715,-1.1023373675314176,-8.395540700267897,8.49362987846169,-1.0,-5.965339493262509,-0.4703070223283739
1669909755459897426,-1.0557174728668068,-8.439174895611618,7.927139956261726,-1.0,-5.965339493262524,-0.23554799146473718
1669909755479568780,-1.0557174728668068,-8.439174895611618,7.927139956261726,-1.0,-5.8190739171235935,-0.23554799146473718
1669909755496401005,-1.0557174728668068,-8.439174895611618,7.927139956261726,-1.0,-5.8190739171235935,-0.23554799146473718
1669909755508951608,-1.0557174728668068,-8.439174895611618,7.927139956261726,-1.0,-5.950378760605342,-0.23554799146473718
1669909755610682769,-1.0557174728668068,-8.439174895611618,7.927139956261726,-1.0,-5.950378760605342,-0.23554799146473718
1669909755640612691,-1.6485936985767222,-8.003628855076647,8.018984157349678,-1.0,-5.950756398068334,0.2690380252945392
1669909755640669865,-1.6485936985767222,-8.003628855076647,8.018984157349678,-1.0,-5.950756398068334,0.2690380252945392
1669909755640708565,-1.6485936985767222,-8.003628855076647,8.018984157349678,-1.0,-5.951123545367698,0.2690380252945392
1669909755640767463,-1.6485936985767222,-8.003628855076647,8.018984157349678,-1.0,-5.951310490094567,0.2690380252945392
1669909755640772381,-1.7034519586362502,-8.011354059160503,8.01894995674208,-1.0,-5.951310490094572,0.2690380252945362
1669909755650297302,-1.7034519586362502,-8.011354059160503,8.01894995674208,-1.0,-5.864000703762867,0.2690380252945362
1669909755671488846,-1.7034519586362502,-8.011354059160503,8.01894995674208,-1.0,-5.942255682417043,0.2690380252945362
1669909755689677665,-1.7034519586362502,-8.011354059160503,8.01894995674208,-1.0,-5.942255682417043,0.2690380252945362
1669909755707087676,-1.4385078224935195,-8.030188530863079,8.164319277849945,-1.0,-5.9424879205230186,-0.11921467724711317
1669909755728763740,-1.4385078224935195,-8.030188530863079,8.164319277849945,-1.0,-5.942611720298572,-0.11921467724711317
1669909755745911496,-1.4385078224935195,-8.030188530863079,8.164319277849945,-1.0,-5.942764423465895,-0.11921467724711317
1669909755773516475,-1.4759216197752425,-8.005504617458755,8.164240579440555,-1.0,-5.942764423465899,-0.11921467724712123
1669909755792653634,-1.4759216197752425,-8.005504617458755,8.164240579440555,-1.0,-5.701755911497063,-0.11921467724712123
1669909755806449949,-1.8588446565889785,-7.673546681171828,7.440313856437169,-1.0,-5.701755911497063,0.12513216119735013
1669909755830186479,-1.8588446565889785,-7.673546681171828,7.440313856437169,-1.0,-5.919555394964013,0.12513216119735013
1669909755846629811,-1.8588446565889785,-7.673546681171828,7.440313856437169,-1.0,-5.919555394964013,0.12513216119735013
1669909755863332058,-1.8588446565889785,-7.673546681171828,7.440313856437169,-1.0,-5.919494805640154,0.12513216119735013
1669909755903690014,-1.8588446565889785,-7.673546681171828,7.440313856437169,-1.0,-5.919494805640154,0.12513216119735013
1669909755917237002,-1.680269370881304,-7.882347658284004,7.8128323112058755,-1.0,-5.744613248680732,-0.17468330449880956
1669909755934141453,-1.680269370881304,-7.882347658284004,7.8128323112058755,-1.0,-5.900373249230714,-0.17468330449880956
1669909755952285360,-1.680269370881304,-7.882347658284004,7.8128323112058755,-1.0,-5.900373249230714,-0.17468330449880956
1669909755969198572,-1.680269370881304,-7.882347658284004,7.8128323112058755,-1.0,-5.900064557793752,-0.17468330449880956
1669909755992665045,-1.680269370881304,-7.882347658284004,7.8128323112058755,-1.0,-5.8999085685143395,-0.17468330449880956
1669909756014433899,-1.7094295838772091,-7.862753034286157,7.7928197947943385,-1.0,-5.6355831614395395,-0.17468330449881384
1669909756271062571,-1.7094295838772091,-7.862753034286157,7.7928197947943385,-1.0,-5.879339467158728,-0.17468330449881384
1669909756301596186,-2.0152237633167536,-7.425670386008875,7.673159000059384,-1.0,-5.879339467158728,-0.009027084447353863
1669909756301622465,-2.0152237633167536,-7.425670386008875,7.673159000059384,-1.0,-5.878866293206231,-0.009027084447353863
1669909756302706930,-2.0152237633167536,-7.425670386008875,7.673159000059384,-1.0,-5.87857677479067,-0.009027084447353863
1669909756302748304,-2.0152237633167536,-7.425670386008875,7.673159000059384,-1.0,-5.87857677479067,-0.009027084447353863
1669909756302753046,-2.0152237633167536,-7.425670386008875,7.673159000059384,-1.0,-5.878006896331496,-0.009027084447353863
1669909756302755316,-2.0369913364537466,-7.3956164777404,7.663135223771114,-1.0,-5.878006896331499,-0.009027084447357793
1669909756302757293,-2.0369913364537466,-7.3956164777404,7.663135223771114,-1.0,-5.736078032441089,-0.009027084447357793
1669909756302759038,-2.0369913364537466,-7.3956164777404,7.663135223771114,-1.0,-5.736078032441089,-0.009027084447357793
1669909756302760786,-2.0369913364537466,-7.3956164777404,7.663135223771114,-1.0,-5.861353293169652,-0.009027084447357793
1669909756302762508,-2.0369913364537466,-7.3956164777404,7.663135223771114,-1.0,-5.8609550426022885,-0.009027084447357793
1669909756302764317,-2.0369913364537466,-7.3956164777404,7.663135223771114,-1.0,-5.8609550426022885,-0.009027084447357793
1669909756312580962,-2.0591688557894807,-7.38667747090185,7.653126335594868,-1.0,-5.724470125384272,-0.009027084447360239
1669909756312935750,-2.0591688557894807,-7.38667747090185,7.653126335594868,-1.0,-5.8451088144439405,-0.009027084447360239
1669909756312939252,-2.0591688557894807,-7.38667747090185,7.653126335594868,-1.0,-5.8451088144439405,-0.009027084447360239
1669909756348092151,-2.0591688557894807,-7.38667747090185,7.653126335594868,-1.0,-5.8441917495997,-0.009027084447360239
1669909756365766539,-2.0591688557894807,-7.38667747090185,7.653126335594868,-1.0,-5.843688746815535,-0.009027084447360239
1669909756365772229,-2.2561316593916994,-7.15425809929693,7.238563812229847,-1.0,-5.843688746815535,0.019964395910584725
1669909756391546634,-2.2561316593916994,-7.15425809929693,7.238563812229847,-1.0,-5.842743441635729,0.019964395910584725
1669909756406856594,-2.28520774265648,-7.12773646384276,7.218577572578675,-1.0,-5.499173058523819,0.01996439591058104
1669909756430156338,-2.28520774265648,-7.12773646384276,7.218577572578675,-1.0,-5.499173058523819,0.01996439591058104
1669909756453098231,-2.28071526298377,-7.127451080197968,7.218548288645893,-1.0,-5.744034173158768,0.019964395910580496
1669909756474881974,-2.2795618957023107,-7.1277594730777,7.218547308163021,-1.0,-5.776789382905532,0.0199643959105812
1669909756490927704,-2.2795618957023107,-7.1277594730777,7.218547308163021,-1.0,-5.776789382905532,0.0199643959105812
1669909756513903474,-2.482653695915171,-6.841058151475832,7.256447815613125,-1.0,-5.808152543246371,0.3949803113984741
1669909756530766368,-2.482653695915171,-6.841058151475832,7.256447815613125,-1.0,-5.808152543246371,0.3949803113984741
1669909756540854125,-2.482653695915171,-6.841058151475832,7.256447815613125,-1.0,-5.806946938762825,0.3949803113984741
1669909756658209652,-2.482653695915171,-6.841058151475832,7.256447815613125,-1.0,-5.806205242267038,0.3949803113984741
1669909756689807316,-2.482653695915171,-6.841058151475832,7.256447815613125,-1.0,-5.806205242267038,0.3949803113984741
1669909756689810907,-2.460989204718834,-6.910194076261529,7.371649572967026,-1.0,-5.805001325033925,0.16427912749823717
1669909756689816779,-2.460989204718834,-6.910194076261529,7.371649572967026,-1.0,-5.805001325033925,0.16427912749823717
1669909756689819437,-2.460989204718834,-6.910194076261529,7.371649572967026,-1.0,-5.803512870744342,0.16427912749823717
1669909756689821225,-2.460989204718834,-6.910194076261529,7.371649572967026,-1.0,-5.803512870744342,0.16427912749823717
1669909756716573689,-2.460989204718834,-6.910194076261529,7.371649572967026,-1.0,-5.802139443913205,0.16427912749823717
1669909756732406665,-2.4706385983961705,-6.862177530438976,7.361683382110389,-1.0,-5.802139443913211,0.16427912749824108
1669909756757010515,-2.4706385983961705,-6.862177530438976,7.361683382110389,-1.0,-5.794706041551705,0.16427912749824108
1669909756757012701,-2.4706385983961705,-6.862177530438976,7.361683382110389,-1.0,-5.794706041551705,0.16427912749824108
1669909756773972858,-2.4706385983961705,-6.862177530438976,7.361683382110389,-1.0,-5.79871656084113,0.16427912749824108
1669909756789651128,-2.4706385983961705,-6.862177530438976,7.361683382110389,-1.0,-5.79871656084113,0.16427912749824108
1669909756812585970,-2.4713036395881516,-6.837300424193024,6.718695295269768,-1.0,-5.861973788171677,0.2612353116321349
1669909756840043828,-2.4713036395881516,-6.837300424193024,6.718695295269768,-1.0,-5.861973788171677,0.2612353116321349
1669909756858745442,-2.579821942028795,-6.701726083372711,6.793637109215538,-1.0,-5.803013676930747,0.4399540275382781
1669909756879183395,-2.58617085140513,-6.707263900664232,6.7937638393393485,-1.0,-5.803013676930749,0.43995402753828555
1669909756895539632,-2.58617085140513,-6.707263900664232,6.7937638393393485,-1.0,-5.91047568388033,0.43995402753828555
1669909756911644464,-2.58617085140513,-6.707263900664232,6.7937638393393485,-1.0,-5.91047568388033,0.43995402753828555
1669909756928139649,-2.58617085140513,-6.707263900664232,6.7937638393393485,-1.0,-5.812331257009829,0.43995402753828555
1669909756945899975,-2.58617085140513,-6.707263900664232,6.7937638393393485,-1.0,-5.812331257009829,0.43995402753828555
1669909756962478451,-2.58617085140513,-6.707263900664232,6.7937638393393485,-1.0,-5.811257863652424,0.43995402753828555
1669909756999540592,-2.58617085140513,-6.707263900664232,6.7937638393393485,-1.0,-5.810624919042135,0.43995402753828555
1669909757032421628,-2.620696841891275,-6.650336696532152,6.809399329756829,-1.0,-5.810624919042135,0.49045555294035464
1669909757032561552,-2.620696841891275,-6.650336696532152,6.809399329756829,-1.0,-5.8095501612245535,0.49045555294035464
1669909757051496450,-2.620696841891275,-6.650336696532152,6.809399329756829,-1.0,-5.8095501612245535,0.49045555294035464
1669909757064841417,-2.620696841891275,-6.650336696532152,6.809399329756829,-1.0,-5.808407953792114,0.49045555294035464
1669909757379321982,-2.620696841891275,-6.650336696532152,6.809399329756829,-1.0,-5.808407953792114,0.49045555294035464
1669909757440621362,-2.644755243901843,-6.603306641487548,6.799467071408344,-1.0,-5.8778259998321305,0.49045555294035864
1669909757440637984,-2.644755243901843,-6.603306641487548,6.799467071408344,-1.0,-5.814308668853682,0.49045555294035864
1669909757440654022,-2.5696688886924925,-6.766971459297607,6.889423891419483,-1.0,-5.813787329104648,0.35521575250207377
1669909757440670430,-2.5696688886924925,-6.766971459297607,6.889423891419483,-1.0,-5.813251773907998,0.35521575250207377
1669909757440686620,-2.5696688886924925,-6.766971459297607,6.889423891419483,-1.0,-5.813251773907998,0.35521575250207377
1669909757440702554,-2.5696688886924925,-6.766971459297607,6.889423891419483,-1.0,-5.812244740794341,0.35521575250207377
1669909757440718735,-2.5696688886924925,-6.766971459297607,6.889423891419483,-1.0,-5.811725679157604,0.35521575250207377
1669909757440735082,-2.5696688886924925,-6.766971459297607,6.889423891419483,-1.0,-5.811725679157604,0.35521575250207377
1669909757440751093,-2.636842365829544,-6.764591734505564,6.869605317484536,-1.0,-5.999999999982978,0.35521575250208826
1669909757440767235,-2.636842365829544,-6.764591734505564,6.869605317484536,-1.0,-5.999999999982978,0.35521575250208826
1669909757440785570,-2.636842365829544,-6.764591734505564,6.869605317484536,-1.0,-5.842003682043919,0.35521575250208826
1669909757456221303,-2.636842365829544,-6.764591734505564,6.869605317484536,-1.0,-5.842003682043919,0.35521575250208826
1669909757456236393,-2.636842365829544,-6.764591734505564,6.869605317484536,-1.0,-5.841386797523145,0.35521575250208826
1669909757456251095,-2.636842365829544,-6.764591734505564,6.869605317484536,-1.0,-5.841075340949788,0.35521575250208826
1669909757456286221,-2.636842365829544,-6.764591734505564,6.869605317484536,-1.0,-5.841075340949788,0.35521575250208826
1669909757456329377,-2.657527444649916,-6.76259726240881,6.8497505048164244,-1.0,-5.999999999982973,0.3552157525020969
1669909757456334591,-2.657527444649916,-6.76259726240881,6.8497505048164244,-1.0,-5.8601434130927474,0.3552157525020969
1669909757456454382,-2.657527444649916,-6.76259726240881,6.8497505048164244,-1.0,-5.8601434130927474,0.3552157525020969
1669909757471946900,-2.657527444649916,-6.76259726240881,6.8497505048164244,-1.0,-5.8597666439050045,0.3552157525020969
1669909757490058210,-2.657527444649916,-6.76259726240881,6.8497505048164244,-1.0,-5.8597666439050045,0.3552157525020969
1669909757501863390,-2.6677335637745254,-6.775872492863766,6.849949233957906,-1.0,-5.999999999982966,0.3552157525021077
1669909757530282567,-2.6677335637745254,-6.775872492863766,6.849949233957906,-1.0,-5.878346730162339,0.3552157525021077
1669909757540521735,-2.7389915126499527,-6.50874712474548,6.822683089205404,-1.0,-5.878346730162339,0.5516517162370921
1669909757571821768,-2.7389915126499527,-6.50874712474548,6.822683089205404,-1.0,-5.878231649221285,0.5516517162370921
1669909757905136782,-2.7389915126499527,-6.50874712474548,6.822683089205404,-1.0,-5.878107616583652,0.5516517162370921
1669909757933048101,-2.7389915126499527,-6.50874712474548,6.822683089205404,-1.0,-5.878107616583652,0.5516517162370921
1669909757933085068,-2.7389915126499527,-6.50874712474548,6.822683089205404,-1.0,-5.878043766918248,0.5516517162370921
1669909757933087969,-2.7851705092129104,-6.446033501698605,6.1856191091028645,-1.0,-5.878043766918248,0.5575175397145987
1669909757933252534,-2.7851705092129104,-6.446033501698605,6.1856191091028645,-1.0,-5.877979383847198,0.5575175397145987
1669909757933256184,-2.7851705092129104,-6.446033501698605,6.1856191091028645,-1.0,-5.877979383847198,0.5575175397145987
1669909757933273446,-2.8286560188421332,-6.431079110117667,6.16568741791154,-1.0,-5.938746346433837,0.5575175397146012
1669909757933321088,-2.8286560188421332,-6.431079110117667,6.16568741791154,-1.0,-5.8843485074986175,0.5575175397146012
1669909757933389161,-2.8286560188421332,-6.431079110117667,6.16568741791154,-1.0,-5.8843485074986175,0.5575175397146012
1669909757933406215,-2.8286560188421332,-6.431079110117667,6.16568741791154,-1.0,-5.8843319009239305,0.5575175397146012
1669909757933422032,-2.8286560188421332,-6.431079110117667,6.16568741791154,-1.0,-5.8843319009239305,0.5575175397146012
1669909757933437694,-2.8286560188421332,-6.431079110117667,6.16568741791154,-1.0,-5.88431299149571,0.5575175397146012
1669909757933454234,-2.8286560188421332,-6.431079110117667,6.16568741791154,-1.0,-5.884303403235031,0.5575175397146012
1669909757933493455,-2.8286560188421332,-6.431079110117667,6.16568741791154,-1.0,-5.88429321124436,0.5575175397146012
1669909757933500223,-2.8950172889147106,-6.431163756343254,6.125925987344436,-1.0,-5.884293211244353,0.5575175397146078
1669909757939888272,-2.8950172889147106,-6.431163756343254,6.125925987344436,-0.9792689364350864,-5.998105999398927,0.5575175397146078
1669909757939906410,-2.8950172889147106,-6.431163756343254,6.125925987344436,-1.0,-5.896159063287249,0.5575175397146078
1669909757939946870,-2.8950172889147106,-6.431163756343254,6.125925987344436,-1.0,-5.896227621207056,0.5575175397146078
1669909757954195075,-2.8950172889147106,-6.431163756343254,6.125925987344436,-1.0,-5.896312252820611,0.5575175397146078
1669909757972604467,-2.8950172889147106,-6.431163756343254,6.125925987344436,-1.0,-5.896312252820611,0.5575175397146078
1669909757984544789,-2.8950172889147106,-6.431163756343254,6.125925987344436,-1.0,-5.896432926512684,0.5575175397146078
1669909758012856536,-2.7097522772109635,-6.429701134242258,6.3124406953794665,-0.9563638084671233,-5.98315916951796,0.5718995444524668
1669909758029604183,-2.7097522772109635,-6.429701134242258,6.3124406953794665,-1.0,-5.9018198089578195,0.5718995444524668
1669909758045765920,-2.7097522772109635,-6.429701134242258,6.3124406953794665,-1.0,-5.9018198089578195,0.5718995444524668
1669909758063477113,-2.7097522772109635,-6.429701134242258,6.3124406953794665,-1.0,-5.902005820344841,0.5718995444524668
1669909758087058662,-2.7097522772109635,-6.429701134242258,6.3124406953794665,-1.0,-5.902005820344841,0.5718995444524668
1669909758101687101,-2.7097522772109635,-6.429701134242258,6.3124406953794665,-1.0,-5.902210381406848,0.5718995444524668
1669909758130733034,-2.7097522772109635,-6.429701134242258,6.3124406953794665,-1.0,-5.902329396306673,0.5718995444524668
1669909758250941667,-2.6209551279463894,-6.363719103276647,6.2807860249742875,-1.0,-5.902329396306668,0.6721944920766751
1669909758250985038,-2.6209551279463894,-6.363719103276647,6.2807860249742875,-1.0,-5.908708478102852,0.6721944920766751
1669909758251004702,-2.6209551279463894,-6.363719103276647,6.2807860249742875,-1.0,-5.903250021302698,0.6721944920766751
1669909758251023744,-2.6209551279463894,-6.363719103276647,6.2807860249742875,-1.0,-5.903250021302698,0.6721944920766751
1669909758251075745,-2.6209551279463894,-6.363719103276647,6.2807860249742875,-1.0,-5.903463203122382,0.6721944920766751
1669909758271775179,-2.6209551279463894,-6.363719103276647,6.2807860249742875,-1.0,-5.903577599154441,0.6721944920766751
1669909758451734861,-2.6297182025896273,-6.370445673801264,6.240842161508219,-0.9937744732081254,-5.868146344387496,0.6721944920766754
1669909758451737628,-2.6297182025896273,-6.370445673801264,6.240842161508219,-0.9937744732081254,-5.868146344387496,0.6721944920766754
1669909758451739933,-2.546829599379178,-6.320054715015253,6.265783427091257,-1.0,-5.901575829362076,0.6162181310403747
1669909758451742252,-2.546829599379178,-6.320054715015253,6.265783427091257,-1.0,-5.901668104496552,0.6162181310403747
1669909758451744371,-2.546829599379178,-6.320054715015253,6.265783427091257,-1.0,-5.901668104496552,0.6162181310403747
1669909758451901632,-2.546829599379178,-6.320054715015253,6.265783427091257,-1.0,-5.901850496345068,0.6162181310403747
1669909758451970169,-2.546829599379178,-6.320054715015253,6.265783427091257,-1.0,-5.901951765834278,0.6162181310403747
