%time,field.force.x,field.force.y,field.force.z,field.torque.x,field.torque.y,field.torque.z
1669909568930094444,-0.6120490416711954,21.057269687017854,5.230984479616037,-1.0,-5.640313560192484,3.46889813058946e-12
1669909568964825977,-0.6120490416711954,21.057269687017854,5.230984479616037,-1.0,-5.0600002200514345,3.46889813058946e-12
1669909568964828059,-0.5967458477524048,21.183540464823306,5.2211939101072025,-1.0,-5.060000220051489,3.4559920250387883e-12
1669909568964874964,-0.5967458477524048,21.183540464823306,5.2211939101072025,-1.0,-5.311523635891924,3.4559920250387883e-12
1669909568964878077,-0.5967458477524048,21.183540464823306,5.2211939101072025,-1.0,-5.546550280803255,3.4559920250387883e-12
1669909568964913443,-0.5967458477524048,21.183540464823306,5.2211939101072025,-1.0,-5.546550280803255,3.4559920250387883e-12
1669909568978327557,-0.5967458477524048,21.183540464823306,5.2211939101072025,-1.0,-5.544763710425284,3.4559920250387883e-12
1669909568978376272,-0.5967458477524048,21.183540464823306,5.387599945530481,-1.0,-5.544763710425284,3.4559920250387883e-12
1669909568997790828,-0.5419037177234337,21.36707215414542,5.630902543743019,-1.0,-5.457848911696273,3.4434981151272825e-12
1669909569019339280,-0.5419037177234337,21.36707215414542,5.630902543743019,-1.0,-5.457848911696273,3.4434981151272825e-12
1669909569037311550,-0.5419037177234337,21.36707215414542,5.963714912612801,-1.0,-5.531635924613265,3.4434981151272825e-12
1669909569053828364,-0.5477101901363122,21.493605549741325,5.951566946147659,-1.0,-5.531635924613336,3.4390905411463934e-12
1669909569078175193,-0.5477101901363122,21.493605549741325,5.951566946147659,-1.0,-5.629368201466448,3.4390905411463934e-12
1669909569099810369,-0.5477101901363122,21.493605549741325,5.951566946147659,-1.0,-5.539624891507793,3.4390905411463934e-12
1669909569119244472,-0.5477101901363122,21.493605549741325,5.951566946147659,-1.0,-5.539624891507793,3.4390905411463934e-12
1669909569151913633,-0.5477101901363122,21.493605549741325,5.951566946147659,-1.0,-5.537719314643691,3.4390905411463934e-12
1669909569172740568,-0.5477101901363122,21.493605549741325,5.951566946147659,-1.0,-5.537719314643691,3.4390905411463934e-12
1669909569187978369,-0.5477101901363122,21.493605549741325,6.117973130582549,-1.0,-5.535971937802633,3.4390905411463934e-12
1669909569209719471,-0.5477101901363122,21.493605549741325,6.117973130582549,-1.0,-5.535971937802633,3.4390905411463934e-12
1669909569232974348,-0.5172432741020981,21.697314623775334,6.2824538809843355,-1.0,-5.711282358561087,3.4404600595703736e-12
1669909569248473536,-0.5172432741020981,21.697314623775334,6.2824538809843355,-1.0,-5.551660740537192,3.4404600595703736e-12
1669909569271585819,-0.5172432741020981,21.697314623775334,6.2824538809843355,-1.0,-5.551660740537192,3.4404600595703736e-12
1669909569286998719,-0.5675455747938631,21.861919241413524,6.263223278980287,-1.0,-5.999999999987597,3.4507685640079315e-12
1669909569305389591,-0.5675455747938631,21.861919241413524,6.263223278980287,-1.0,-5.999999999987597,3.4507685640079315e-12
1669909569321110756,-0.5675455747938631,21.861919241413524,6.263223278980287,-1.0,-5.643350316991074,3.4507685640079315e-12
1669909569343191872,-0.5675455747938631,21.861919241413524,6.263223278980287,-1.0,-5.643197679436202,3.4507685640079315e-12
1669909569648734144,-0.5675455747938631,21.861919241413524,6.263223278980287,-1.0,-5.64304366624555,3.4507685640079315e-12
1669909569785904233,-0.4778894887380829,22.014682403555128,6.4203179117735525,-1.0,-5.643043666245559,3.4533754892654355e-12
1669909569785973308,-0.4778894887380829,22.014682403555128,6.4203179117735525,-1.0,-5.8207937079377805,3.4533754892654355e-12
1669909569786018409,-0.4778894887380829,22.014682403555128,6.4203179117735525,-1.0,-5.8207937079377805,3.4533754892654355e-12
1669909569786061158,-0.4778894887380829,22.014682403555128,6.4203179117735525,-1.0,-5.661898995471865,3.4533754892654355e-12
1669909569786103124,-0.5260124003257249,22.111027370535737,6.407299072906826,-1.0,-5.661898995471923,3.4631116598174035e-12
1669909569786144244,-0.5260124003257249,22.111027370535737,6.407299072906826,-1.0,-5.999999999987664,3.4631116598174035e-12
1669909569786184030,-0.5496424681253461,22.15273495565866,6.4012677299464205,-1.0,-5.999999999987692,3.467935471996544e-12
1669909569786224071,-0.5496424681253461,22.15273495565866,6.4012677299464205,-1.0,-5.796375021702885,3.467935471996544e-12
1669909569786264157,-0.5496424681253461,22.15273495565866,6.4012677299464205,-1.0,-5.797279172384726,3.467935471996544e-12
1669909569786303978,-0.5496424681253461,22.15273495565866,6.4012677299464205,-1.0,-5.797279172384726,3.467935471996544e-12
1669909569786344021,-0.5496424681253461,22.15273495565866,6.4012677299464205,-1.0,-5.7989281756405955,3.467935471996544e-12
1669909569828546663,-0.5496424681253461,22.15273495565866,6.4012677299464205,-1.0,-5.7997975770744,3.467935471996544e-12
1669909569828589104,-0.5496424681253461,22.15273495565866,6.4012677299464205,-1.0,-5.800706988052791,3.467935471996544e-12
1669909569828628865,-0.5347100327064518,22.314484188674705,6.524977763107425,-1.0,-5.800706988052826,3.4745342343653867e-12
1669909569828682055,-0.5347100327064518,22.314484188674705,6.524977763107425,-1.0,-5.999999999987727,3.4745342343653867e-12
1669909569828828781,-0.5347100327064518,22.314484188674705,6.524977763107425,-1.0,-5.850229766473805,3.4745342343653867e-12
1669909569828957787,-0.5347100327064518,22.314484188674705,6.524977763107425,-1.0,-5.850229766473805,3.4745342343653867e-12
1669909569829013457,-0.5347100327064518,22.314484188674705,6.524977763107425,-1.0,-5.852409060968242,3.4745342343653867e-12
1669909569829055624,-0.5347100327064518,22.314484188674705,6.524977763107425,-1.0,-5.853572533191535,3.4745342343653867e-12
1669909569829096968,-0.5347100327064518,22.314484188674705,6.524977763107425,-1.0,-5.854732259330123,3.4745342343653867e-12
1669909569829136811,-0.5535397576327941,22.486291204849433,6.61349727911204,-1.0,-5.9999999999877796,3.483349624157048e-12
1669909569829178102,-0.5535397576327941,22.486291204849433,6.61349727911204,-1.0,-5.9999999999877796,3.483349624157048e-12
1669909569843713201,-0.5535397576327941,22.486291204849433,6.61349727911204,-1.0,-5.949595732323613,3.483349624157048e-12
1669909569843764935,-0.6088768518197024,22.555402503432408,6.601525613892244,-1.0,-5.999999999987832,3.4924293371123656e-12
1669909569860397866,-0.6088768518197024,22.555402503432408,6.601525613892244,-1.0,-5.999999999987832,3.4924293371123656e-12
1669909569877827229,-0.6088768518197024,22.555402503432408,6.601525613892244,-1.0,-5.999999999987832,3.4924293371123656e-12
1669909570201813021,-0.6088768518197024,22.555402503432408,6.601525613892244,-1.0,-5.999999999987832,3.4924293371123656e-12
1669909570272637812,-0.6088768518197024,22.555402503432408,6.601525613892244,-1.0,-5.999999999987832,3.4924293371123656e-12
1669909570272748137,-0.6088768518197024,22.555402503432408,6.601525613892244,-1.0,-5.999999999987832,3.4924293371123656e-12
1669909570272803398,-0.6088768518197024,22.555402503432408,6.601525613892244,-1.0,-5.999999999987832,3.4924293371123656e-12
1669909570272848113,-0.6088768518197024,22.555402503432408,6.601525613892244,-1.0,-5.999999999987832,3.4924293371123656e-12
1669909570272891693,-0.6088768518197024,22.555402503432408,6.601525613892244,-1.0,-5.999999999987832,3.4924293371123656e-12
1669909570272932892,-0.6528217955728753,22.69887959500211,6.667163789264588,-1.0,-5.999999999987866,3.4995476719881e-12
1669909570272973508,-0.6528217955728753,22.69887959500211,6.667163789264588,-1.0,-5.999999999987866,3.4995476719881e-12
1669909570273014867,-0.6528217955728753,22.69887959500211,6.667163789264588,-1.0,-5.999999999987866,3.4995476719881e-12
1669909570273056910,-0.6528217955728753,22.69887959500211,6.667163789264588,-1.0,-5.999999999987866,3.4995476719881e-12
1669909570273169881,-0.6528217955728753,22.69887959500211,6.667163789264588,-1.0,-5.999999999987866,3.4995476719881e-12
1669909570273215130,-0.6528217955728753,22.69887959500211,6.667163789264588,-1.0,-5.999999999987866,3.4995476719881e-12
1669909570273254574,-0.6528217955728753,22.69887959500211,6.667163789264588,-1.0,-5.999999999987866,3.4995476719881e-12
1669909570273294671,-0.6957478543292912,22.843722547449207,6.7545781107492955,-1.0,-5.9999999999878995,3.5127639665927018e-12
1669909570308217105,-0.6957478543292912,2.8437225474492074,8.863664177233748,-1.0,-5.9999999999878995,3.5127639665927018e-12
1669909570308321752,-0.6957478543292912,2.8437225474492074,8.863664177233748,-1.0,-5.9999999999878995,3.5127639665927018e-12
1669909570308368038,-0.6957478543292912,2.8437225474492074,8.863664177233748,-1.0,-5.9999999999878995,3.5127639665927018e-12
1669909570308412059,-0.6957478543292912,2.8437225474492074,8.863664177233748,-1.0,-5.9999999999878995,3.5127639665927018e-12
1669909570308456049,-0.6957478543292912,2.8437225474492074,8.863664177233748,-1.0,-5.9999999999878995,3.5127639665927018e-12
1669909570308500431,-0.6957478543292912,22.843722547449207,6.920984295184186,-1.0,-5.9999999999878995,3.5127639665927018e-12
1669909570344315884,-0.685726753607158,22.99400584224632,7.001193246914893,-1.0,-5.999999999987913,3.5179652952469264e-12
1669909570344324660,-0.7034672730556019,22.96765617750571,7.005004353644949,-1.0,-5.999999999987913,3.5179652952469264e-12
1669909570355922961,-0.7034672730556019,22.96765617750571,7.005004353644949,-1.0,-5.999999999987913,3.5179652952469264e-12
1669909570355962666,-0.7165241864209134,22.92616166867952,7.011274064992943,-1.0,-5.999999999987925,3.521552388139385e-12
1669909570376500285,-0.7165241864209134,22.92616166867952,7.011274064992943,-1.0,-5.999999999987925,3.521552388139385e-12
1669909570399352444,-0.7165241864209134,22.92616166867952,7.011274064992943,-1.0,-5.999999999987925,3.521552388139385e-12
1669909570711916581,-0.7165241864209134,22.92616166867952,7.011274064992943,-1.0,-5.999999999987925,3.521552388139385e-12
1669909570788687975,-0.7165241864209134,22.92616166867952,7.011274064992943,-1.0,-5.999999999987925,3.521552388139385e-12
1669909570788690430,-0.7165241864209134,22.92616166867952,7.011274064992943,-1.0,-5.999999999987925,3.521552388139385e-12
1669909570788693029,-0.7165241864209134,22.92616166867952,7.011274064992943,-1.0,-5.999999999987925,3.521552388139385e-12
1669909570788697461,-0.7165241864209134,22.92616166867952,7.011274064992943,-1.0,-5.999999999987925,3.521552388139385e-12
1669909570788699875,-0.7165241864209134,22.92616166867952,7.011274064992943,-1.0,-5.999999999987925,3.521552388139385e-12
1669909570788701970,-0.7623700055948063,22.96638168759031,7.095927150328198,-1.0,-5.999999999987927,3.524068792558969e-12
1669909570788704312,-0.7623700055948063,22.96638168759031,7.095927150328198,-1.0,-5.999999999987927,3.524068792558969e-12
1669909570788706199,-0.7623700055948063,22.96638168759031,7.095927150328198,-1.0,-5.999999999987927,3.524068792558969e-12
1669909570788708196,-0.7623700055948063,22.96638168759031,7.095927150328198,-1.0,-5.999999999987927,3.524068792558969e-12
1669909570788710070,-0.7623700055948063,22.96638168759031,7.095927150328198,-1.0,-5.999999999987927,3.524068792558969e-12
1669909570788711932,-0.7623700055948063,22.96638168759031,7.095927150328198,-1.0,-5.999999999987927,3.524068792558969e-12
1669909570788713778,-0.7623700055948063,22.96638168759031,7.095927150328198,-1.0,-5.999999999987927,3.524068792558969e-12
1669909570788715630,-0.7384088091408905,22.97203890876754,7.145517979089987,-1.0,-5.999999999987926,3.5316063317414497e-12
1669909570788717568,-0.7384088091408905,22.97203890876754,7.145517979089987,-1.0,-5.999999999987926,3.5316063317414497e-12
1669909570825792049,-0.7384088091408905,22.97203890876754,7.145517979089987,-1.0,-5.999999999987926,3.5316063317414497e-12
1669909570825892534,-0.7384088091408905,22.97203890876754,7.145517979089987,-1.0,-5.999999999987926,3.5316063317414497e-12
1669909570825895742,-0.8317649624573991,22.807690847751537,7.257771853992496,-1.0,-5.999999999987981,3.5363664308846814e-12
1669909570826076872,-0.8317649624573991,22.807690847751537,5.7601163430900915,-1.0,-5.999999999987981,3.5363664308846814e-12
1669909570839937776,-0.8409738143503765,22.75980481770182,5.766263657925364,-1.0,-5.999999999988014,3.5365746472649612e-12
1669909570839966880,-0.8426858868955489,22.75123334773371,5.767335528299755,-1.0,-5.99999999998802,3.536734562005747e-12
1669909570839991604,-0.8426858868955489,22.75123334773371,5.767335528299755,-1.0,-5.99999999998802,3.536734562005747e-12
1669909570860241832,-0.8450458326246835,22.73916491170388,5.768832981195606,-1.0,-5.999999999988029,3.53637429703142e-12
1669909570882903531,-0.846481619256839,22.731652600283606,3.440071449547326,-1.0,-5.999999999988035,3.536404479245199e-12
1669909570901924532,-0.846481619256839,22.731652600283606,3.440071449547326,-1.0,-5.999999999988035,3.536404479245199e-12
1669909570918887010,-0.846481619256839,22.731652600283606,3.440071449547326,-1.0,-5.999999999988035,3.536404479245199e-12
1669909571225225677,-0.846481619256839,22.731652600283606,3.440071449547326,-1.0,-5.999999999988035,3.536404479245199e-12
1669909571314584313,-0.846481619256839,22.731652600283606,3.440071449547326,-1.0,-5.999999999988035,3.536404479245199e-12
1669909571314602880,-0.846481619256839,22.731652600283606,4.771321223049676,-1.0,-5.999999999988035,3.536404479245199e-12
1669909571314616441,-0.846481619256839,22.731652600283606,4.771321223049676,-1.0,-5.999999999988035,3.536404479245199e-12
1669909571314621826,-0.9700717996959111,22.770594902923442,4.824846078912465,-1.0,-5.9999999999880425,3.536029886244463e-12
1669909571314626310,-0.9700717996959111,22.770594902923442,4.824846078912465,-1.0,-5.9999999999880425,3.536029886244463e-12
1669909571314629991,-0.9766738163304296,22.7327075983296,4.8294041684019895,-1.0,-5.999999999988074,3.5344571241743346e-12
1669909571314632707,-0.9766738163304296,22.7327075983296,4.8294041684019895,-1.0,-5.999999999988074,3.5344571241743346e-12
1669909571314824995,-0.9766738163304296,22.7327075983296,4.8294041684019895,-1.0,-5.999999999988074,3.5344571241743346e-12
1669909571314871349,-0.9766738163304296,22.7327075983296,4.8294041684019895,-1.0,-5.999999999988074,3.5344571241743346e-12
1669909571314914102,-0.9766738163304296,22.7327075983296,4.8294041684019895,-1.0,-5.999999999988074,3.5344571241743346e-12
1669909571314978122,-0.9691927091536134,22.750316487208153,4.870884546119927,-1.0,-5.999999999988088,3.533881515542977e-12
1669909571314983059,-0.9691927091536134,22.750316487208153,4.870884546119927,-1.0,-5.999999999988088,3.533881515542977e-12
1669909571315115596,-0.9741104062960892,22.732138695043982,4.872927101799582,-1.0,-5.999999999988114,3.5326947476674216e-12
1669909571315120907,-0.9741104062960892,22.732138695043982,4.872927101799582,-1.0,-5.999999999988114,3.5326947476674216e-12
1669909571315145894,-0.9741104062960892,22.732138695043982,4.872927101799582,-1.0,-5.999999999988114,3.5326947476674216e-12
1669909571367048631,-0.9741104062960892,22.732138695043982,4.872927101799582,-1.0,-5.999999999988114,3.5326947476674216e-12
1669909571368885773,-0.9741104062960892,22.732138695043982,4.872927101799582,-1.0,-5.999999999988114,3.5326947476674216e-12
1669909571368918933,-0.9741104062960892,22.732138695043982,4.872927101799582,-1.0,-5.999999999988114,3.5326947476674216e-12
1669909571368922556,-0.9741104062960892,22.732138695043982,4.872927101799582,-1.0,-5.999999999988114,3.5326947476674216e-12
1669909571368933771,-0.9270289669482124,22.746098052263996,7.496081056888382,-1.0,-5.999999999988132,3.5314461004492564e-12
1669909571390760528,-0.9270289669482124,22.746098052263996,7.496081056888382,-1.0,-5.999999999988132,3.5314461004492564e-12
1669909571390802940,-0.9294263340609821,22.74302797579743,7.496360880868452,-1.0,-5.9999999999881455,3.530395471999894e-12
1669909571405673472,-0.9294263340609821,22.74302797579743,7.496360880868452,-1.0,-5.9999999999881455,3.530395471999894e-12
1669909571424671995,-0.9320893795666042,22.74133316312675,7.496463568849043,-1.0,-5.999999999988162,3.5288382024204475e-12
1669909571445171411,-0.9320893795666042,22.74133316312675,7.496463568849043,-1.0,-5.999999999988162,3.5288382024204475e-12
1669909571754363130,-0.9320893795666042,22.74133316312675,7.496463568849043,-1.0,-5.999999999988162,3.5288382024204475e-12
1669909571869863152,-0.9320893795666042,22.74133316312675,7.496463568849043,-1.0,-5.999999999988162,3.5288382024204475e-12
1669909571869943673,-0.9320893795666042,22.74133316312675,7.496463568849043,-1.0,-5.999999999988162,3.5288382024204475e-12
1669909571869989897,-0.9644120878511042,22.742411070510585,7.49621374718623,-1.0,-5.999999999988175,3.5277098632562487e-12
1669909571870033259,-0.9644120878511042,22.742411070510585,7.49621374718623,-1.0,-5.999999999988175,3.5277098632562487e-12
1669909571870076513,-0.9644120878511042,22.742411070510585,7.49621374718623,-1.0,-5.999999999988175,3.5277098632562487e-12
1669909571870118822,-0.9694531738498675,22.74951476023976,7.495160125534889,-1.0,-5.999999999988208,3.5243675075126745e-12
1669909571870159910,-0.9723955928645605,22.75593639932492,7.49426444378096,-1.0,-5.999999999988226,3.522784740648057e-12
1669909571870200192,-0.9723955928645605,22.75593639932492,7.49426444378096,-1.0,-5.999999999988226,3.522784740648057e-12
1669909571870240230,-0.9723955928645605,22.75593639932492,7.49426444378096,-1.0,-5.999999999988226,3.522784740648057e-12
1669909571870283034,-0.9723955928645605,22.75593639932492,7.49426444378096,-1.0,-5.999999999988226,3.522784740648057e-12
1669909571870325725,-0.9723955928645605,22.75593639932492,7.49426444378096,-1.0,-5.999999999988226,3.522784740648057e-12
1669909571870376464,-0.9535172790698095,22.768258589438176,7.473942643411476,-1.0,-5.9999999999882325,3.5224000369319317e-12
1669909571870416316,-0.9535172790698095,22.768258589438176,7.473942643411476,-1.0,-5.9999999999882325,3.5224000369319317e-12
1669909571870454474,-0.9535172790698095,22.768258589438176,7.473942643411476,-1.0,-5.9999999999882325,3.5224000369319317e-12
1669909571870501953,-0.9592547107342129,22.777595926589633,7.472569955227323,-1.0,-5.999999999988258,3.5220138868033427e-12
1669909571956559568,-0.9592547107342129,22.777595926589633,7.472569955227323,-1.0,-5.999999999988258,3.5220138868033427e-12
1669909571956661175,-0.9636176016142739,22.781453724119213,7.471918746692905,-1.0,-5.999999999988272,3.5232572432290066e-12
1669909571956708535,-0.9681593274141697,22.78248165553396,7.4716069139148935,-1.0,-5.99999999998828,3.5248970614645177e-12
1669909571956752438,-0.9681593274141697,22.78248165553396,5.308326516261315,-1.0,-5.99999999998828,0.36685818806643117
1669909571956795030,-0.9681593274141697,22.78248165553396,5.308326516261315,-1.0,-5.99999999998828,0.36685818806643117
1669909571956838707,-0.9681593274141697,22.78248165553396,5.308326516261315,-1.0,-5.99999999998828,0.36685818806643117
1669909571990592736,-0.9681593274141697,22.78248165553396,5.308326516261315,-1.0,-5.99999999998828,0.36685818806643117
1669909571990637126,-0.9681593274141697,22.78248165553396,5.308326516261315,-1.0,-5.99999999998828,0.36685818806643117
1669909571990677397,-0.9681593274141697,22.78248165553396,5.308326516261315,-1.0,-5.99999999998828,3.5248970614645177e-12
1669909571990717120,-0.9681593274141697,22.78248165553396,5.308326516261315,-1.0,-5.99999999998828,3.5248970614645177e-12
1669909571990757953,-0.9681593274141697,22.78248165553396,5.308326516261315,-1.0,-5.99999999998828,3.5248970614645177e-12
1669909572359346186,-0.9681593274141697,22.78248165553396,5.308326516261315,-1.0,-5.99999999998828,3.5248970614645177e-12
1669909572359532800,-0.952226432288277,22.83320326442587,5.388014156260916,-1.0,-5.999999999988289,3.5270581419004472e-12
1669909572359577402,-0.952226432288277,22.83320326442587,5.388014156260916,-1.0,-5.999999999988289,3.5270581419004472e-12
1669909572359609650,-0.952226432288277,22.83320326442587,5.388014156260916,-1.0,-5.999999999988289,3.5270581419004472e-12
1669909572359643042,-0.952226432288277,22.83320326442587,5.388014156260916,-1.0,-5.999999999988289,3.5270581419004472e-12
1669909572359674229,-0.952226432288277,22.83320326442587,5.388014156260916,-1.0,-5.999999999988289,3.5270581419004472e-12
1669909572359705399,-0.9807107342700075,22.82433891872457,5.3878871161451345,-1.0,-5.9999999999883284,3.5391901108722484e-12
1669909572359736787,-0.9807107342700075,22.82433891872457,5.3878871161451345,-1.0,-5.9999999999883284,3.5391901108722484e-12
1669909572359767775,-0.9807107342700075,22.82433891872457,5.3878871161451345,-1.0,-5.9999999999883284,3.5391901108722484e-12
1669909572359798145,-0.9807107342700075,22.82433891872457,5.3878871161451345,-1.0,-5.9999999999883284,3.5391901108722484e-12
1669909572359827415,-0.9807107342700075,22.82433891872457,5.3878871161451345,-1.0,-5.9999999999883284,3.5391901108722484e-12
1669909572359856936,-0.9807107342700075,22.82433891872457,5.3878871161451345,-1.0,-5.9999999999883284,3.5391901108722484e-12
1669909572359886210,-0.9807107342700075,22.82433891872457,5.3878871161451345,-1.0,-5.9999999999883284,3.5391901108722484e-12
1669909572359915194,-0.9807107342700075,22.82433891872457,5.3878871161451345,-1.0,-5.9999999999883284,3.5391901108722484e-12
1669909572359946180,-1.0175939579912663,22.824335627403155,5.448377127456561,-1.0,-5.9999999999883435,3.546384801360766e-12
1669909572378906070,-1.0175939579912663,22.824335627403155,5.448377127456561,-1.0,-5.9999999999883435,3.546384801360766e-12
1669909572378976192,-1.0175939579912663,22.824335627403155,5.448377127456561,-1.0,-5.9999999999883435,3.546384801360766e-12
1669909572379011590,-1.0175939579912663,22.824335627403155,5.281971092033283,-1.0,-5.9999999999883435,3.546384801360766e-12
1669909572379060167,-1.0175939579912663,22.824335627403155,5.281971092033283,-1.0,-5.9999999999883435,3.546384801360766e-12
1669909572379100879,-1.0175939579912663,22.824335627403155,5.281971092033283,-1.0,-5.9999999999883435,3.546384801360766e-12
1669909572397783718,-1.0175939579912663,22.824335627403155,5.281971092033283,-1.0,-5.9999999999883435,3.546384801360766e-12
1669909572418581882,-1.0175939579912663,22.824335627403155,5.281971092033283,-1.0,-5.9999999999883435,3.546384801360766e-12
1669909572442494316,-1.0175939579912663,22.824335627403155,5.11556475858678,-1.0,-5.9999999999883435,3.546384801360766e-12
1669909572463218082,-0.9879071538431596,22.780527067539673,5.128197415479061,-1.0,-5.999999999988365,3.5625557310397554e-12
1669909572486198743,-0.9879071538431596,22.780527067539673,5.128197415479061,-1.0,-5.999999999988365,3.5625557310397554e-12
1669909572733852642,-0.9879071538431596,22.780527067539673,5.128197415479061,-1.0,-5.999999999988365,3.5625557310397554e-12
1669909573344719800,-0.9879071538431596,22.780527067539673,5.128197415479061,-1.0,-5.999999999988365,3.5625557310397554e-12
1669909573344765780,-0.9879071538431596,22.780527067539673,5.128197415479061,-1.0,-5.999999999988365,3.5625557310397554e-12
1669909573344808163,-0.9879071538431596,22.780527067539673,5.128197415479061,-1.0,-5.999999999988365,3.5625557310397554e-12
1669909573344848536,-0.9879071538431596,22.780527067539673,5.128197415479061,-1.0,-5.999999999988365,3.5625557310397554e-12
1669909573344887965,-1.0239400218167183,22.76435256657081,5.111105523438695,-1.0,-5.999999999988382,3.5775101882880586e-12
1669909573344927874,-1.0239400218167183,22.76435256657081,5.111105523438695,-1.0,-5.999999999988382,3.5775101882880586e-12
1669909573344967646,-1.0239400218167183,22.76435256657081,5.111105523438695,-1.0,-5.999999999988382,3.5775101882880586e-12
1669909573345006535,-1.0239400218167183,22.76435256657081,5.111105523438695,-1.0,-5.999999999988382,3.5775101882880586e-12
1669909573345044653,-1.0239400218167183,22.76435256657081,5.111105523438695,-1.0,-5.999999999988382,3.5775101882880586e-12
1669909573347530000,-1.0438995001931812,22.739059627241758,5.11457791189878,-1.0,-5.999999999988397,3.5935243918773824e-12
1669909573347636544,-1.0438995001931812,22.739059627241758,5.11457791189878,-1.0,-5.999999999988397,3.5935243918773824e-12
1669909573347685193,-1.0603394967327098,22.70530257141498,5.117310077156011,-1.0,-5.999999999988405,3.6022231099419235e-12
1669909573347730783,-1.064358841366854,22.695381036848048,5.1181316972738164,-1.0,-5.999999999988407,3.6046883462943047e-12
1669909573347776340,-1.064358841366854,22.695381036848048,5.1181316972738164,-1.0,-5.999999999988407,3.6046883462943047e-12
1669909573348083074,-1.064358841366854,22.695381036848048,5.1181316972738164,-1.0,-5.999999999988407,3.6046883462943047e-12
1669909573348145296,-1.064358841366854,22.695381036848048,5.1181316972738164,-1.0,-5.999999999988407,3.6046883462943047e-12
1669909573348189076,-1.064358841366854,22.695381036848048,5.1181316972738164,-1.0,-5.999999999988407,3.6046883462943047e-12
1669909573348231362,-1.0468321541916805,22.6786373200092,5.108704053993007,-1.0,-5.9999999999884075,3.6059530948487006e-12
1669909573348272899,-1.0468321541916805,22.6786373200092,5.108704053993007,-1.0,-5.9999999999884075,3.6059530948487006e-12
1669909573348313367,-1.0468321541916805,22.6786373200092,5.108704053993007,-1.0,-5.9999999999884075,3.6059530948487006e-12
1669909573348353352,-1.0468321541916805,22.6786373200092,5.108704053993007,-1.0,-5.9999999999884075,3.6059530948487006e-12
1669909573348392697,-1.0572975141286114,22.640351581455178,5.1120279827519886,-1.0,-5.999999999988412,3.612784760509258e-12
1669909573348433226,-1.0572975141286114,22.640351581455178,5.1120279827519886,-1.0,-5.999999999988412,3.612784760509258e-12
1669909573348474075,-1.0615019757009947,22.618921745931473,6.445164011928621,-1.0,-5.999999999988414,3.61596659399069e-12
1669909573348514032,-1.0615019757009947,22.618921745931473,6.445164011928621,-1.0,-5.999999999988414,3.61596659399069e-12
1669909573348553218,-1.0648570153244994,22.598843990039295,6.446921279035869,-1.0,-5.999999999988416,3.618808535613606e-12
1669909573348592185,-1.0648570153244994,22.598843990039295,6.446921279035869,-1.0,-5.999999999988416,3.618808535613606e-12
1669909573348630953,-1.0648570153244994,22.598843990039295,6.446921279035869,-1.0,-5.999999999988416,3.618808535613606e-12
1669909573348669504,-1.0660097317617243,22.591107364982097,6.614001594606491,-1.0,-5.999999999988418,3.619638745345855e-12
1669909573348896360,-1.0660097317617243,22.591107364982097,6.614001594606491,-1.0,-5.999999999988418,3.619638745345855e-12
1669909573353065595,-1.0660097317617243,22.591107364982097,6.614001594606491,-1.0,-5.999999999988418,3.619638745345855e-12
1669909573353110557,-1.0660097317617243,22.591107364982097,6.614001594606491,-1.0,-5.999999999988418,3.619638745345855e-12
1669909573353151291,-1.0660097317617243,22.591107364982097,6.614001594606491,-1.0,-5.999999999988418,3.619638745345855e-12
1669909573353191259,-1.0660097317617243,22.591107364982097,6.614001594606491,-1.0,-5.999999999988418,3.619638745345855e-12
1669909573353231210,-1.0660097317617243,22.591107364982097,6.614001594606491,-1.0,-5.999999999988418,3.619638745345855e-12
1669909573353271085,-1.0660097317617243,22.591107364982097,6.614001594606491,-1.0,-5.999999999988418,3.619638745345855e-12
1669909573353310213,-1.0660097317617243,22.591107364982097,6.614001594606491,-1.0,-5.999999999988418,3.619638745345855e-12
1669909573353349511,-1.0588426361035133,22.59705146303661,6.576104780099927,-1.0,-5.999999999988423,3.6208530985135003e-12
1669909573353390196,-1.0588426361035133,22.59705146303661,6.576104780099927,-1.0,-5.999999999988423,3.6208530985135003e-12
1669909573353427942,-1.0588426361035133,22.59705146303661,6.576104780099927,-1.0,-5.999999999988423,3.6208530985135003e-12
1669909573353465453,-1.0588426361035133,22.59705146303661,6.576104780099927,-1.0,-5.999999999988423,3.6208530985135003e-12
1669909573353503424,-1.0588426361035133,22.59705146303661,6.576104780099927,-1.0,-5.999999999988423,3.6208530985135003e-12
1669909573353542008,-1.0588426361035133,22.59705146303661,6.576104780099927,-1.0,-5.999999999988423,3.6208530985135003e-12
1669909573365589351,-1.0588426361035133,22.59705146303661,6.576104780099927,-1.0,-5.999999999988423,3.6208530985135003e-12
1669909573388941663,-1.0588426361035133,22.59705146303661,6.576104780099927,-1.0,-5.999999999988423,3.6208530985135003e-12
1669909573411246658,-1.0588426361035133,22.59705146303661,6.576104780099927,-1.0,-5.999999999988423,3.6208530985135003e-12
1669909573430035626,-1.0623661108775175,22.529770256525243,6.571048350346245,-1.0,-5.999999999988452,3.6213858660827893e-12
1669909573448324247,-1.0623661108775175,22.529770256525243,6.571048350346245,-1.0,-5.999999999988452,3.6213858660827893e-12
1669909573484797577,-1.0623661108775175,22.529770256525243,6.571048350346245,-1.0,-5.999999999988452,3.6213858660827893e-12
1669909573502535455,-1.0623661108775175,22.529770256525243,6.571048350346245,-1.0,-5.999999999988452,3.6213858660827893e-12
1669909573518964285,-1.0623661108775175,22.529770256525243,6.571048350346245,-1.0,-5.999999999988452,3.6213858660827893e-12
1669909573539984382,-1.0623661108775175,22.529770256525243,6.571048350346245,-1.0,-5.999999999988452,3.6213858660827893e-12
1669909573774435319,-1.0623661108775175,22.529770256525243,6.571048350346245,-1.0,-5.999999999988452,3.6213858660827893e-12
1669909573823062656,-1.0582291757630717,22.463538085096555,6.583538604772517,-1.0,-5.999999999988482,3.6145555641388582e-12
1669909573823064738,-1.0582291757630717,22.463538085096555,6.583538604772517,-1.0,-5.999999999988482,3.6145555641388582e-12
1669909573823066658,-1.0582291757630717,22.463538085096555,6.583538604772517,-1.0,-5.999999999988482,3.6145555641388582e-12
1669909573823068656,-1.0582291757630717,22.463538085096555,6.583538604772517,-1.0,-5.999999999988482,3.6145555641388582e-12
1669909573823070529,-1.0582291757630717,22.463538085096555,6.583538604772517,-1.0,-5.999999999988482,3.6145555641388582e-12
1669909573823072304,-1.0582291757630717,22.463538085096555,6.583538604772517,-1.0,-5.999999999988482,3.6145555641388582e-12
1669909573823074114,-1.0737258278473858,22.450479869460963,6.595478678773586,-1.0,-5.9999999999885105,3.5993126497304803e-12
1669909573823076060,-1.0737258278473858,22.450479869460963,6.595478678773586,-1.0,-5.9999999999885105,3.5993126497304803e-12
1669909573823077882,-1.051433125298932,22.44480409205904,6.59721031810345,-1.0,-5.999999999988535,3.5817121269462543e-12
1669909573823079627,-1.051433125298932,22.44480409205904,6.59721031810345,-1.0,-5.999999999988535,3.5817121269462543e-12
1669909573823081454,-1.051433125298932,22.44480409205904,6.59721031810345,-1.0,-5.999999999988535,3.5817121269462543e-12
1669909573823083235,-1.051433125298932,22.44480409205904,6.59721031810345,-1.0,-5.999999999988535,3.5817121269462543e-12
1669909573840986832,-1.051433125298932,22.44480409205904,6.59721031810345,-1.0,-5.999999999988535,3.5817121269462543e-12
1669909573840988907,-1.0453851818114095,22.403494943309276,6.587660878057344,-1.0,-5.99999999998854,3.5774717125693457e-12
1669909573854295214,-1.0453851818114095,22.403494943309276,6.587660878057344,-1.0,-5.99999999998854,3.5774717125693457e-12
1669909573874633181,-1.0453851818114095,22.403494943309276,6.587660878057344,-1.0,-5.99999999998854,3.5774717125693457e-12
1669909573895083047,-1.0453851818114095,22.403494943309276,6.587660878057344,-1.0,-5.99999999998854,3.5774717125693457e-12
1669909573932976215,-1.019680957650397,22.395180457485683,6.589717247721374,-1.0,-5.999999999988555,3.5623423768210685e-12
1669909573953560173,-1.019680957650397,22.395180457485683,6.589717247721374,-1.0,-5.999999999988555,3.5623423768210685e-12
1669909573953656743,-0.9924687706603568,22.37743980588345,6.592527920837927,-1.0,-5.999999999988564,3.5495805897184154e-12
1669909573968032517,-0.9924687706603568,22.37743980588345,6.592527920837927,-1.0,-5.999999999988564,3.5495805897184154e-12
1669909573995217064,-0.9924687706603568,22.37743980588345,6.592527920837927,-1.0,-5.999999999988564,3.5495805897184154e-12
1669909574017272124,-0.9924687706603568,22.37743980588345,6.592527920837927,-1.0,-5.999999999988564,3.5495805897184154e-12
1669909574034985089,-0.9924687706603568,22.37743980588345,6.592527920837927,-1.0,-5.999999999988564,3.5495805897184154e-12
1669909574295640495,-0.9924687706603568,22.37743980588345,6.592527920837927,-1.0,-5.999999999988564,3.5495805897184154e-12
1669909574407948634,-0.9924687706603568,2.377439805883453,9.36723857605033,-1.0,-5.999999999988564,3.5495805897184154e-12
1669909574407988980,-0.9838338132181416,2.3699857800919646,9.378242461140987,-1.0,-5.9999999999885665,3.5457617435600453e-12
1669909574408026974,-0.9838338132181416,2.3699857800919646,9.378242461140987,-1.0,-5.9999999999885665,3.5457617435600453e-12
1669909574408065100,-0.9838338132181416,2.3699857800919646,9.378242461140987,-1.0,-5.9999999999885665,3.5457617435600453e-12
1669909574408102605,-0.9838338132181416,2.3699857800919646,9.378242461140987,-1.0,-5.9999999999885665,3.5457617435600453e-12
1669909574408139997,-0.9408506821188332,2.330426604491675,9.383269750848351,-1.0,-5.999999999988575,3.5249065640388397e-12
1669909574408177135,-0.9408506821188332,2.330426604491675,9.383269750848351,-1.0,-5.999999999988575,3.5249065640388397e-12
1669909574408213491,-0.9408506821188332,2.330426604491675,9.383269750848351,-1.0,-5.999999999988575,3.5249065640388397e-12
1669909574408250085,-0.9408506821188332,2.330426604491675,9.383269750848351,-1.0,-5.999999999988575,3.5249065640388397e-12
1669909574408286779,-0.9408506821188332,2.330426604491675,9.383269750848351,-1.0,-5.999999999988575,3.5249065640388397e-12
1669909574408322902,-0.9408506821188332,2.330426604491675,9.383269750848351,-1.0,-5.999999999988575,3.5249065640388397e-12
1669909574408358744,-0.9408506821188332,2.330426604491675,9.383269750848351,-1.0,-5.999999999988575,3.5249065640388397e-12
1669909574408395314,-0.9333493789598912,2.3344662917056778,9.435200138220349,-1.0,-5.99999999998858,3.5166738939344163e-12
1669909574464707233,-0.9333493789598912,2.3344662917056778,9.435200138220349,-1.0,-5.99999999998858,3.5166738939344163e-12
1669909574464754212,-0.8843013229390266,2.28014343060257,9.440968906007827,-1.0,-5.910325325593527,3.4961552515097395e-12
1669909574464794251,-0.8843013229390266,2.28014343060257,9.440968906007827,-1.0,-5.910325325593527,3.4961552515097395e-12
1669909574464833137,-0.8637898272668814,2.2467298777123084,9.443909026157899,-1.0,-5.999999999988568,3.48952464650119e-12
1669909574464872735,-0.8637898272668814,2.2467298777123084,9.443909026157899,-1.0,-5.999999999988568,3.48952464650119e-12
1669909574492045465,-0.8637898272668814,2.2467298777123084,9.443909026157899,-1.0,-5.999999999988568,3.48952464650119e-12
1669909574492366360,-0.8637898272668814,2.2467298777123084,9.443909026157899,-1.0,-5.999999999988568,3.48952464650119e-12
1669909574492457317,-0.8637898272668814,2.2467298777123084,9.443909026157899,-1.0,-5.999999999988568,3.48952464650119e-12
1669909574507321990,-0.8637898272668814,2.2467298777123084,9.443909026157899,-1.0,-5.999999999988568,3.48952464650119e-12
1669909574507479555,-0.8637898272668814,2.2467298777123084,9.443909026157899,-1.0,-5.999999999988568,3.48952464650119e-12
1669909574534669531,-0.8637898272668814,2.2467298777123084,9.443909026157899,-1.0,-5.999999999988568,3.48952464650119e-12
1669909574556465294,-0.8598622739372075,2.2298093554533227,9.464496593864432,-1.0,-5.9999999999885665,3.4884843688304595e-12
1669909574573002102,-0.8598622739372075,2.2298093554533227,9.464496593864432,-1.0,-5.9999999999885665,3.4884843688304595e-12
1669909574604609705,-0.8598622739372075,2.2298093554533227,9.464496593864432,-1.0,-5.9999999999885665,3.4884843688304595e-12
1669909575088966709,-0.8598622739372075,2.2298093554533227,9.464496593864432,-1.0,-5.9999999999885665,3.4884843688304595e-12
1669909575089112906,-0.8598622739372075,2.2298093554533227,9.464496593864432,-1.0,-5.9999999999885665,3.4884843688304595e-12
1669909575089118923,-0.8598622739372075,2.2298093554533227,9.464496593864432,-1.0,-5.9999999999885665,3.4884843688304595e-12
1669909575089358155,-0.8598622739372075,2.2298093554533227,9.464496593864432,-1.0,-5.9999999999885665,3.4884843688304595e-12
1669909575089447467,-0.8598622739372075,2.2298093554533227,9.464496593864432,-1.0,-5.9999999999885665,3.4884843688304595e-12
1669909575089495330,-0.8598622739372075,2.2298093554533227,9.464496593864432,-1.0,-5.9999999999885665,3.4884843688304595e-12
1669909575089614880,-0.7795830470699472,1.8821350278055518,9.53442511914769,-0.8110183460814282,-5.466507581937975,3.465800334398031e-12
1669909575089620165,-0.7795830470699472,1.8821350278055518,9.53442511914769,-0.8110183460814282,-5.466507581937975,3.465800334398031e-12
1669909575089722021,-0.7795830470699472,1.8821350278055518,9.53442511914769,-1.0,-5.999999999988539,3.465800334398031e-12
1669909575089727689,-0.7795830470699472,1.8821350278055518,9.53442511914769,-1.0,-5.999999999988539,3.465800334398031e-12
1669909575089790694,-0.7795830470699472,1.8821350278055518,9.53442511914769,-1.0,-5.999999999988539,3.465800334398031e-12
1669909575089833026,-0.7795830470699472,1.8821350278055518,9.53442511914769,-1.0,-5.999999999988539,3.465800334398031e-12
1669909575116694188,-0.7795830470699472,1.8821350278055518,9.53442511914769,-1.0,-5.999999999988539,3.465800334398031e-12
1669909575116725580,-0.7795830470699472,1.8821350278055518,9.53442511914769,-1.0,-5.999999999988539,3.465800334398031e-12
1669909575116745953,-0.7048199589386601,1.5425049762410155,9.602944353460249,-1.0,-5.999999999988514,3.4340431248396214e-12
1669909575116765364,-0.7048199589386601,1.5425049762410155,9.602944353460249,-0.6775167548536254,-4.999129272821705,3.4340431248396214e-12
1669909575116797618,-0.7048199589386601,1.5425049762410155,9.602944353460249,-1.0,-5.999999999988514,3.4340431248396214e-12
1669909575116820449,-0.7048199589386601,1.5425049762410155,9.602944353460249,-1.0,-5.999999999988514,3.4340431248396214e-12
1669909575116838402,-0.5971989289748618,1.3851801949803049,9.60829405588322,-0.6726333575388936,-4.5897204034607455,3.3875924279221087e-12
1669909575116856744,-0.5971989289748618,1.3851801949803049,9.60829405588322,-0.6726333575388936,-4.5897204034607455,3.3875924279221087e-12
1669909575116874546,-0.5971989289748618,1.3851801949803049,9.60829405588322,-1.0,-5.999999999988497,3.3875924279221087e-12
1669909575116892614,-0.5971989289748618,1.3851801949803049,9.60829405588322,-1.0,-5.999999999988497,3.3875924279221087e-12
1669909575116908152,-0.5971989289748618,1.3851801949803049,9.60829405588322,-1.0,-5.999999999988497,3.3875924279221087e-12
1669909575116923663,-0.5971989289748618,1.3851801949803049,9.60829405588322,-1.0,-5.999999999988497,3.3875924279221087e-12
1669909575116940377,-0.5971989289748618,1.3851801949803049,9.60829405588322,-1.0,-5.999999999988497,3.3875924279221087e-12
1669909575346795025,-0.5971989289748618,1.3851801949803049,9.60829405588322,-1.0,-5.999999999988497,3.3875924279221087e-12
1669909575346825560,-0.5971989289748618,1.3851801949803049,9.60829405588322,-1.0,-5.999999999988497,3.3875924279221087e-12
1669909576036511678,-0.5971989289748618,1.3851801949803049,9.60829405588322,-1.0,-5.999999999988497,3.3875924279221087e-12
1669909576036532609,-0.5030956064280673,1.1757667678408656,9.639617803109875,-0.6915039389624991,-4.131633763013762,3.354162810181753e-12
1669909576036548484,-0.5030956064280673,1.1757667678408656,9.639617803109875,-0.6915039389624991,-4.131633763013762,3.354162810181753e-12
1669909576036564416,-0.5030956064280673,1.1757667678408656,9.639617803109875,-1.0,-5.999999999988498,3.354162810181753e-12
1669909576036579758,-0.5030956064280673,1.1757667678408656,9.639617803109875,-1.0,-5.999999999988498,3.354162810181753e-12
1669909576036595357,-0.5030956064280673,1.1757667678408656,9.639617803109875,-1.0,-5.999999999988498,3.354162810181753e-12
1669909576036610707,-0.5030956064280673,1.1757667678408656,9.639617803109875,-1.0,-5.999999999988498,3.354162810181753e-12
1669909576036627361,-0.5030956064280673,1.1757667678408656,9.639617803109875,-1.0,-5.999999999988498,3.354162810181753e-12
1669909576036658378,-0.5030956064280673,1.1757667678408656,9.639617803109875,-1.0,-5.999999999988498,3.354162810181753e-12
1669909576036674838,-0.5030956064280673,1.1757667678408656,9.639617803109875,-1.0,-5.999999999988498,3.354162810181753e-12
1669909576036690976,-0.5030956064280673,1.1757667678408656,9.639617803109875,-1.0,-5.999999999988498,3.354162810181753e-12
1669909576063721813,-0.37038659729441764,0.927785707637727,9.669263894422649,-0.7896558657935255,-4.0236568344324235,3.296799199557309e-12
1669909576063738422,-0.37038659729441764,0.927785707637727,9.669263894422649,-0.7896558657935255,-4.0236568344324235,3.296799199557309e-12
1669909576063754826,-0.37038659729441764,0.927785707637727,9.669263894422649,-0.999298086409064,-5.775030465528388,3.296799199557309e-12
1669909576063771835,-0.37038659729441764,0.927785707637727,9.669263894422649,-0.9992935177625686,-5.773566719847418,3.296799199557309e-12
1669909576063788256,-0.37038659729441764,0.927785707637727,9.669263894422649,-0.9992885688338443,-5.771979771827274,3.296799199557309e-12
1669909576063804776,-0.37038659729441764,0.927785707637727,9.669263894422649,-0.9992885688338443,-5.771979771827274,3.296799199557309e-12
1669909576063836413,-0.37038659729441764,0.927785707637727,9.669263894422649,-0.9992797956429967,-5.769169182304104,3.296799199557309e-12
1669909576063872341,-0.37038659729441764,0.927785707637727,9.669263894422649,-0.9992752185519584,-5.767701854387318,3.296799199557309e-12
1669909576063889960,-0.37038659729441764,0.927785707637727,9.669263894422649,-0.9992702045433701,-5.766094679754053,3.296799199557309e-12
1669909576063906099,-0.21239803741923463,0.6985445715828583,9.705582220978087,-0.9992702045433701,-5.76609467975408,3.2105122066025987e-12
1669909576063926801,-0.21239803741923463,0.6985445715828583,9.705582220978087,-0.8210506087550002,-2.7314544140536703,3.2105122066025987e-12
1669909576063945195,-0.21239803741923463,0.6985445715828583,9.705582220978087,-0.9807813850544724,-5.447610968961226,3.2105122066025987e-12
1669909576063961256,-0.21239803741923463,0.6985445715828583,9.705582220978087,-0.9807813850544724,-5.447610968961226,3.2105122066025987e-12
1669909576063977048,-0.21239803741923463,0.6985445715828583,9.705582220978087,-0.9805159387008002,-5.44016186651172,3.2105122066025987e-12
1669909576063992783,-0.21239803741923463,0.6985445715828583,9.705582220978087,-0.980381139530247,-5.436376978489564,3.2105122066025987e-12
1669909576064008241,-0.21239803741923463,0.6985445715828583,9.705582220978087,-0.980381139530247,-5.436376978489564,3.2105122066025987e-12
1669909576064024318,-0.21239803741923463,0.6985445715828583,9.705582220978087,-0.9801548259738574,-5.430031590884819,3.2105122066025987e-12
1669909576064041311,-0.12370213586488898,0.5323582544300943,9.732073415955659,-0.9801548259738574,-5.430031590884832,3.1626821921413375e-12
1669909576095154535,-0.12370213586488898,0.5323582544300943,9.732073415955659,-0.9367210629939664,-3.8475709717440467,3.1626821921413375e-12
1669909576095187321,-0.12370213586488898,0.5323582544300943,9.732073415955659,-0.9367210629939664,-3.8475709717440467,3.1626821921413375e-12
1669909576095208534,-0.12370213586488898,0.5323582544300943,9.732073415955659,-0.9745432958083518,-5.229556779969112,3.1626821921413375e-12
1669909576095224711,-0.12370213586488898,0.5323582544300943,9.732073415955659,-0.9745432958083518,-5.229556779969112,3.1626821921413375e-12
1669909576095241632,-0.12370213586488898,0.5323582544300943,9.732073415955659,-0.9742392667056401,-5.220481080498569,3.1626821921413375e-12
1669909576095258208,-0.12370213586488898,0.5323582544300943,9.732073415955659,-0.9740799778964606,-5.215742034884171,3.1626821921413375e-12
1669909576095283741,-0.0010439601664398168,0.5257321939759824,9.7264156754517,-0.9389925497449986,-1.3585079045616972,3.1084900472986897e-12
1669909576095286443,-0.0010439601664398168,0.5257321939759824,9.7264156754517,-0.9389925497449986,-1.3585079045616972,3.1084900472986897e-12
1669909576095307120,-0.0010439601664398168,0.5257321939759824,9.7264156754517,-0.9715106496774641,-4.971370099181103,3.1084900472986897e-12
1669909576095323363,-0.0010439601664398168,0.5257321939759824,9.7264156754517,-0.9713361330991593,-4.965046790842234,3.1084900472986897e-12
1669909576095339577,-0.0010439601664398168,0.5257321939759824,9.7264156754517,-0.9713361330991593,-4.965046790842234,3.1084900472986897e-12
1669909576095465296,-0.0010439601664398168,0.5257321939759824,9.7264156754517,-0.9709867969971008,-4.952431607417546,3.1084900472986897e-12
1669909576095506362,-0.0010439601664398168,0.5257321939759824,9.7264156754517,-0.9708040557782277,-4.945820803763715,3.1084900472986897e-12
1669909576095531025,-0.0010439601664398168,0.5257321939759824,9.7264156754517,-0.9708040557782277,-4.945820803763715,3.1084900472986897e-12
1669909576095548273,-0.0010439601664398168,0.5257321939759824,9.7264156754517,-0.9704869693339484,-4.934346561497934,3.1084900472986897e-12
1669909576095565581,-0.0010439601664398168,0.5257321939759824,9.7264156754517,-0.9704869693339484,-4.934346561497934,3.1084900472986897e-12
1669909576095583192,-0.0010439601664398168,0.5257321939759824,9.7264156754517,-0.9701431811414605,-4.921903434904489,3.1084900472986897e-12
1669909576095617257,-0.0010439601664398168,0.5257321939759824,9.7264156754517,-0.9697278133281519,-4.906873589804559,3.1084900472986897e-12
1669909576139633390,-0.001043958382548893,0.5257321952944872,9.726415673945725,-0.9939097433275966,-3.3564524873083146,3.0809814030886674e-12
1669909576155979690,0.0867855372299764,0.45122698536343453,9.793272721575828,-0.9939097433275966,-3.3564524873083146,3.0809930548138102e-12
1669909576408010663,0.0867855372299764,0.45122698536343453,9.793272721575828,-0.9710445234592853,-4.784877039056775,3.0809930548138102e-12
1669909576489206813,0.0867855372299764,0.45122698536343453,9.793272721575828,-0.9708743975091606,-4.777546837848347,3.0809930548138102e-12
1669909576489222871,0.0867855372299764,0.45122698536343453,9.793272721575828,-0.9708743975091606,-4.777546837848347,3.0809930548138102e-12
1669909576489239004,0.0867855372299764,0.45122698536343453,9.793272721575828,-0.9706673407486305,-4.768621216589227,3.0809930548138102e-12
1669909576489255028,0.0867855372299764,0.45122698536343453,9.793272721575828,-0.9706673407486305,-4.768621216589227,3.0809930548138102e-12
1669909576489271014,0.0867855372299764,0.45122698536343453,9.793272721575828,-0.9703235124418839,-4.7537904510153375,3.0809930548138102e-12
1669909576489295732,0.0867855372299764,0.45122698536343453,9.793272721575828,-0.9703235124418839,-4.7537904510153375,3.0809930548138102e-12
1669909576489297868,0.0867855372299764,0.45122698536343453,9.793272721575828,-0.9700139623801652,-4.74045533821456,3.0809930548138102e-12
1669909576489317325,0.0867855372299764,0.45122698536343453,9.793272721575828,-0.9700139623801652,-4.74045533821456,3.0809930548138102e-12
1669909576489333212,0.0867855372299764,0.45122698536343453,9.793272721575828,-0.9696965483162807,-4.726770696206369,3.0809930548138102e-12
1669909576489349652,0.0867855372299764,0.45122698536343453,9.793272721575828,-0.9696965483162807,-4.726770696206369,3.0809930548138102e-12
1669909576489365493,0.19515701716270162,0.3659920820837308,9.90994314245327,-1.0,-3.6825135788144006,3.081943810471572e-12
1669909576489381045,0.19515701716270162,0.3659920820837308,9.90994314245327,-0.9863109420834881,-4.596846464274547,3.081943810471572e-12
1669909576489396651,0.19515701716270162,0.3659920820837308,9.90994314245327,-0.9863109420834881,-4.596846464274547,3.081943810471572e-12
1669909576489413735,0.19515701716270162,0.3659920820837308,9.90994314245327,-0.9862107891782196,-4.581276010050536,3.081943810471572e-12
1669909576538298949,0.19515701716270162,0.3659920820837308,9.90994314245327,-0.9861582419337429,-4.573102300580051,3.081943810471572e-12
1669909576538301285,0.19515701716270162,0.3659920820837308,9.90994314245327,-0.9860891385664288,-4.562350479505052,3.081943810471572e-12
1669909576538305727,0.19515701716270162,0.3659920820837308,9.90994314245327,-0.9860891385664288,-4.562350479505052,3.081943810471572e-12
1669909576538307670,0.19515701716270162,0.3659920820837308,9.90994314245327,-0.9860138496755383,-4.550633313213764,3.081943810471572e-12
1669909576551687979,0.19515701716270162,0.3659920820837308,9.90994314245327,-0.9860138496755383,-4.550633313213764,3.081943810471572e-12
1669909576551689938,0.20899580953751878,0.38090244124626943,10.004505395622623,-1.0,-5.999999999988743,3.1388005214147854e-12
1669909576551692346,0.20899580953751878,0.38090244124626943,10.004505395622623,-1.0,-5.999999999988743,3.1388005214147854e-12
1669909576569856671,0.20899580953751878,0.38090244124626943,10.004505395622623,-1.0,-4.682682217178181,3.1388005214147854e-12
1669909576583547647,0.20899580953751878,0.38090244124626943,10.004505395622623,-1.0,-4.67603653133545,3.1388005214147854e-12
1669909576625550175,0.20899580953751878,0.38090244124626943,10.004505395622623,-1.0,-4.668747138166231,3.1388005214147854e-12
1669909576648068034,0.20899580953751878,0.38090244124626943,10.004505395622623,-1.0,-4.668747138166231,3.1388005214147854e-12
1669909576662346772,0.20899580953751878,0.38090244124626943,10.004505395622623,-1.0,-4.656255293178296,3.1388005214147854e-12
1669909576678986728,0.20899580953751878,0.38090244124626943,10.004505395622623,-1.0,-4.656255293178296,3.1388005214147854e-12
1669909576917275865,0.20899580953751878,0.38090244124626943,10.004505395622623,-1.0,-4.642829493706985,3.1388005214147854e-12
1669909576964593899,0.20899580953751878,0.38090244124626943,10.004505395622623,-1.0,-4.6358362392306764,3.1388005214147854e-12
1669909576964624646,0.2064863826447612,0.4194427964920634,10.109384011883575,-1.0,-4.635836239230726,3.2193043558370177e-12
1669909576964682067,0.2064863826447612,0.4194427964920634,10.109384011883575,-1.0,-5.999999999988793,3.2193043558370177e-12
1669909576964710261,0.2064863826447612,0.4194427964920634,10.109384011883575,-1.0,-5.999999999988793,3.2193043558370177e-12
1669909576964731082,0.2064863826447612,0.4194427964920634,10.109384011883575,-1.0,-4.859737746556933,3.2193043558370177e-12
1669909576964749846,0.2064863826447612,0.4194427964920634,10.109384011883575,-1.0,-4.859737746556933,3.2193043558370177e-12
1669909576964771047,0.2064863826447612,0.4194427964920634,10.109384011883575,-1.0,-4.849830127956414,3.2193043558370177e-12
1669909576964800595,0.2064863826447612,0.4194427964920634,10.109384011883575,-1.0,-4.8435632471776735,3.2193043558370177e-12
1669909576964803167,0.2064863826447612,0.4194427964920634,10.109384011883575,-1.0,-4.8435632471776735,3.2193043558370177e-12
1669909576964826596,0.2064863826447612,0.4194427964920634,10.109384011883575,-1.0,-4.83491485062157,3.2193043558370177e-12
1669909576964844641,0.021412209914848407,0.4818574546967166,10.154258081682654,-1.0,-5.999999999988844,3.34533263109172e-12
1669909576976182764,0.021412209914848407,0.4818574546967166,10.154258081682654,-1.0,-5.243351238944654,3.34533263109172e-12
1669909576976223464,0.021412209914848407,0.4818574546967166,10.154258081682654,-1.0,-5.241091106749636,3.34533263109172e-12
1669909576976226819,0.021412209914848407,0.4818574546967166,10.154258081682654,-1.0,-5.238748752679122,3.34533263109172e-12
1669909576986671326,0.021412209914848407,0.4818574546967166,10.154258081682654,-1.0,-5.238748752679122,3.34533263109172e-12
1669909577002882462,0.021412209914848407,0.4818574546967166,10.154258081682654,-1.0,-5.235092952040404,3.34533263109172e-12
1669909577034151105,0.021412209914848407,0.4818574546967166,10.154258081682654,-1.0,-5.232769490634611,3.34533263109172e-12
1669909577076826189,-0.10735197905738264,0.5357674832250872,10.205077243606985,-1.0,-5.999999999988861,3.4173818430719665e-12
1669909577096568692,-0.10735197905738264,0.5357674832250872,10.205077243606985,-1.0,-5.999999999988861,3.4173818430719665e-12
1669909577096580758,-0.10735197905738264,0.5357674832250872,10.205077243606985,-1.0,-5.467182436733862,3.4173818430719665e-12
1669909577113589944,-0.10735197905738264,0.5357674832250872,10.205077243606985,-1.0,-5.46647085219042,3.4173818430719665e-12
1669909577130389990,-0.10735197905738264,0.5357674832250872,10.205077243606985,-1.0,-5.46647085219042,3.4173818430719665e-12
1669909577146124346,-0.24589787919791184,0.5270588573079803,10.214618133003427,-1.0,-5.99999999998887,3.4860791800091335e-12
1669909577163467675,-0.24589787919791184,0.5270588573079803,10.214618133003427,-1.0,-5.99999999998887,3.4860791800091335e-12
1669909577186319331,-0.24589787919791184,0.5270588573079803,10.214618133003427,-1.0,-5.762423367501048,3.4860791800091335e-12
1669909577208722163,-0.38727942764744394,0.5065242436803117,10.212693231777404,-0.9837519486866336,-5.99999999998887,3.5558986801025313e-12
1669909577313869796,-0.38727942764744394,0.5065242436803117,10.212693231777404,-1.0,-5.99999999998887,3.5558986801025313e-12
1669909577356182051,-0.38727942764744394,0.5065242436803117,10.212693231777404,-1.0,-5.99999999998887,3.5558986801025313e-12
1669909577356252843,-0.38727942764744394,0.5065242436803117,10.212693231777404,-1.0,-5.99999999998887,3.5558986801025313e-12
1669909577356396665,-0.38727942764744394,0.5065242436803117,10.212693231777404,-1.0,-5.99999999998887,3.5558986801025313e-12
1669909577356450894,-0.38727942764744394,0.5065242436803117,10.212693231777404,-1.0,-5.99999999998887,3.5558986801025313e-12
1669909577356500729,-0.4561243277638985,0.529089540088348,10.221524817257505,-1.0,-5.999999999988872,3.611989332974376e-12
1669909577366294532,-0.4561243277638985,0.529089540088348,10.221524817257505,-1.0,-5.999999999988872,3.611989332974376e-12
1669909577366390829,-0.4561243277638985,20.529089540088346,7.4468141620451025,-1.0,-5.999999999988872,3.611989332974376e-12
1669909577388700750,-0.4561243277638985,20.529089540088346,7.4468141620451025,-1.0,-5.999999999988872,3.611989332974376e-12
1669909577414440492,-0.4561243277638985,20.529089540088346,7.4468141620451025,-1.0,-5.999999999988872,3.611989332974376e-12
1669909577431657162,-0.4561243277638985,20.529089540088346,5.449939650803189,-1.0,-5.999999999988872,-5.759574919935429
1669909577449470124,-0.5818532949699639,20.461507812897878,5.446828399239129,-1.0,-5.9999999999888605,-5.759574919935363
1669909577473304830,-0.5818532949699639,20.461507812897878,5.446828399239129,-0.8911289576207876,-5.9999999999888605,-5.060669481750625
1669909577493247093,-0.6421153727313728,20.413459770079058,5.444857276848472,-0.8026990725341188,-5.999999999988851,-5.060669481750595
1669909577514123792,-0.6421153727313728,20.413459770079058,5.444857276848472,-1.0,-5.999999999988851,-5.060669481750595
1669909577553674025,-0.6421153727313728,20.413459770079058,3.447340823582328,-1.0,-5.999999999988851,-1.4659100398384208
1669909577553822404,-0.6421153727313728,20.413459770079058,3.447340823582328,-1.0,-5.999999999988851,-1.4659100398384208
1669909577570597223,-0.6421153727313728,20.413459770079058,-1.544845007487618,-1.0,-5.999999999988851,3.707951646970172e-12
1669909577589017164,-0.6421153727313728,20.413459770079058,-1.544845007487618,-1.0,-5.999999999988851,3.707951646970172e-12
1669909577613482640,-0.6421153727313728,20.413459770079058,-1.544845007487618,-1.0,-5.999999999988851,3.707951646970172e-12
1669909577633528811,-0.6421153727313728,17.99960636317293,-5.539235971995675,-1.0,-5.999999999988851,3.707951646970172e-12
1669909577649424387,-0.6421153727313728,17.99960636317293,-5.539235971995675,-1.0,-5.999999999988851,3.707951646970172e-12
1669909577664684893,-0.6693999436330889,17.31783218532743,-4.708645670433599,-1.0,-5.999999999988845,3.730060044959967e-12
1669909577689607235,-0.6693999436330889,17.31783218532743,-4.708645670433599,-0.9435441802187029,-5.999999999988845,3.730060044959967e-12
1669909577710065947,-0.6693999436330889,17.31783218532743,-4.708645670433599,-0.9435441802187029,-5.999999999988845,3.730060044959967e-12
1669909577730032819,-0.6693999436330889,19.98033113628568,3.2794937205118346,-1.0,-5.999999999988845,3.730060044959967e-12
1669909577965675794,-0.7403546131444163,19.879134027955804,3.2760905014381665,-1.0,-5.999999999988837,3.759590747359704e-12
1669909578033383483,-0.7403546131444163,20.29611381768969,6.604857026229885,-0.7491506424284933,-5.999999999988837,3.759590747359704e-12
1669909578033385665,-0.7403546131444163,20.29611381768969,6.604857026229885,-0.7491506424284933,-5.999999999988837,3.759590747359704e-12
1669909578033387968,-0.7403546131444163,20.29611381768969,6.604857026229885,-1.0,-5.999999999988837,3.759590747359704e-12
1669909578033392151,-0.7403546131444163,20.29611381768969,6.604857026229885,-1.0,-5.999999999988837,3.759590747359704e-12
1669909578033394796,-0.7403546131444163,20.29611381768969,6.604857026229885,-1.0,-5.999999999988837,3.759590747359704e-12
1669909578033396674,-0.7403546131444163,20.29611381768969,6.604857026229885,-1.0,-5.999999999988837,3.759590747359704e-12
1669909578033399679,-0.7403546131444163,20.29611381768969,6.604857026229885,-1.0,-5.999999999988837,3.759590747359704e-12
1669909578033401874,-0.7403546131444163,20.29611381768969,6.604857026229885,-1.0,-5.999999999988837,3.759590747359704e-12
1669909578033403837,-0.8125315136812469,20.2594880177161,6.58409795177871,-0.888861890360132,-5.999999999988841,3.7612987908006856e-12
1669909578033406821,-0.8125315136812469,20.2594880177161,6.58409795177871,-0.888861890360132,-5.999999999988841,3.7612987908006856e-12
1669909578049267071,-0.8125315136812469,20.2594880177161,6.58409795177871,-0.993576216107715,-5.999999999988841,3.7612987908006856e-12
1669909578070115120,-0.8125315136812469,20.2594880177161,6.58409795177871,-0.993576216107715,-5.999999999988841,3.7612987908006856e-12
1669909578070119025,-0.8125315136812469,20.2594880177161,6.58409795177871,-0.9935001363507763,-5.999999999988841,3.7612987908006856e-12
1669909578070123299,-0.8125315136812469,20.2594880177161,6.58409795177871,-0.9935001363507763,-5.999999999988841,3.7612987908006856e-12
1669909578070125685,-0.8125315136812469,20.2594880177161,6.58409795177871,-0.9934184780878834,-5.999999999988841,3.7612987908006856e-12
1669909578080406685,-0.8125315136812469,20.2594880177161,6.58409795177871,-0.9934184780878834,-5.999999999988841,3.7612987908006856e-12
1669909578104727890,-0.8125315136812469,20.2594880177161,6.916910320648491,-0.9933366069524798,-5.999999999988841,3.7612987908006856e-12
1669909578118601755,-0.7654779732506203,20.205659850453078,6.777155623799068,-0.7789160849693878,-5.99999999998886,3.74442604502296e-12
1669909578140661823,-0.7654779732506203,20.205659850453078,6.777155623799068,-0.7789160849693878,-5.99999999998886,3.74442604502296e-12
1669909578157050200,-0.7654779732506203,20.205659850453078,6.777155623799068,-0.979517933325821,-5.99999999998886,3.74442604502296e-12
1669909578174497854,-0.7654779732506203,20.205659850453078,6.777155623799068,-0.9793853664769113,-5.99999999998886,3.74442604502296e-12
1669909578191355580,-0.7654779732506203,20.205659850453078,6.777155623799068,-0.9792537097720659,-5.99999999998886,3.74442604502296e-12
1669909578208818770,-0.7654779732506203,20.205659850453078,6.777155623799068,-0.9792537097720659,-5.99999999998886,3.74442604502296e-12
1669909578230934388,-0.7654779732506203,20.205659850453078,6.777155623799068,-0.9789868193037936,-5.99999999998886,3.74442604502296e-12
1669909578248393305,-0.7654779732506203,20.205659850453078,6.777155623799068,-0.9789868193037936,-5.99999999998886,3.74442604502296e-12
1669909578368766289,-0.7654779732506203,20.205659850453078,6.777155623799068,-0.9786885085667201,-5.99999999998886,3.74442604502296e-12
1669909578418832164,-0.7354950636365277,20.302303339367427,6.410313811766688,-0.9786885085667201,-5.999999999988902,3.700303567698357e-12
