%time,field.force.x,field.force.y,field.force.z,field.torque.x,field.torque.y,field.torque.z
1669909809170975886,7.677985966187488,-6.584179289603548,8.612956169075504,-0.9928368977055244,-5.60793456656441,2.2675944864802027
1669909809171122244,7.677985966187488,-6.584179289603548,8.612956169075504,-0.9929228174192372,-5.605786315910298,2.2675944864802027
1669909809171228989,7.128257095795642,-5.929739959502535,8.522940712995068,-0.9930348691675707,-5.602979481176126,1.0365691781096125
1669909809171359641,7.128257095795642,-5.929739959502535,8.522940712995068,-0.9930348691675707,-5.602979481176126,1.0365691781096125
1669909809171451050,7.128257095795642,-5.929739959502535,8.522940712995068,-0.9931822508185619,-5.599298599344989,1.0365691781096125
1669909809171544853,7.128257095795642,-5.929739959502535,8.522940712995068,-0.9931822508185619,-5.599298599344989,1.0365691781096125
1669909809171607283,7.128257095795642,-5.929739959502535,8.522940712995068,-0.9933522064930231,-5.595044183576614,1.0365691781096125
1669909809171676392,7.196935210558447,-6.0998141470478835,8.532868977904483,-0.7244828333091808,-5.3126499985702775,1.0365691781096227
1669909809171732837,7.196935210558447,-6.0998141470478835,8.532868977904483,-0.9780005688877259,-5.574153267571195,1.0365691781096227
1669909809171775471,7.196935210558447,-6.0998141470478835,8.532868977904483,-0.9780005688877259,-5.574153267571195,1.0365691781096227
1669909809171833633,7.196935210558447,-6.0998141470478835,8.532868977904483,-0.977970527674318,-5.569969840125939,1.0365691781096227
1669909809171884496,7.196935210558447,-6.0998141470478835,8.532868977904483,-0.977970527674318,-5.569969840125939,1.0365691781096227
1669909809171926656,7.196935210558447,-6.0998141470478835,8.532868977904483,-0.9779382574822132,-5.5655117947747685,1.0365691781096227
1669909809171967673,7.196935210558447,-6.0998141470478835,8.532868977904483,-0.9779144231886011,-5.562205998496578,1.0365691781096227
1669909809172009853,7.196935210558447,-6.0998141470478835,8.532868977904483,-0.9779144231886011,-5.562205998496578,1.0365691781096227
1669909809207490889,7.196935210558447,-6.0998141470478835,8.532868977904483,-0.9778896306284203,-5.558767461097871,1.0365691781096227
1669909809207512995,7.196935210558447,-6.0998141470478835,8.532868977904483,-0.9778896306284203,-5.558767461097871,1.0365691781096227
1669909809207534663,7.198697689736146,-6.274689306017942,8.562753192798375,-0.789377694066359,-5.6978244802774025,1.036569178109645
1669909809223854990,7.198697689736146,-6.274689306017942,8.562753192798375,-0.9575892103885681,-5.567256357199723,1.036569178109645
1669909809223890045,7.198697689736146,-6.274689306017942,8.562753192798375,-0.9575892103885681,-5.567256357199723,1.036569178109645
1669909809238878720,7.198697689736146,-6.274689306017942,8.562753192798375,-0.9572914460456682,-5.562934757063733,1.036569178109645
1669909809268643298,7.198697689736146,-6.274689306017942,8.562753192798375,-0.9570599491848121,-5.559586051233967,1.036569178109645
1669909809283791664,7.198697689736146,-6.274689306017942,8.562753192798375,-0.9570599491848121,-5.559586051233967,1.036569178109645
1669909809303165670,7.198697689736146,-6.274689306017942,8.562753192798375,-0.9568645759872297,-5.556756530091929,1.036569178109645
1669909809317485662,7.193531744720027,-6.414042975724393,8.583008830410517,-0.8616963477416202,-5.999999999982862,1.0365691781096675
1669909809333126791,7.193531744720027,-6.414042975724393,8.583008830410517,-0.8616963477416202,-5.999999999982862,1.0365691781096675
1669909809643788186,7.193531744720027,-6.414042975724393,8.583008830410517,-0.9503802900995874,-5.597402792133778,1.0365691781096675
1669909809693380024,7.193531744720027,-6.414042975724393,8.583008830410517,-0.9501908107612926,-5.5955393827243665,1.0365691781096675
1669909809693395484,7.193531744720027,-6.414042975724393,8.583008830410517,-0.9501908107612926,-5.5955393827243665,1.0365691781096675
1669909809693410579,7.193531744720027,-6.414042975724393,8.583008830410517,-0.9498026140653265,-5.591725685093839,1.0365691781096675
1669909809693425503,7.193531744720027,-6.414042975724393,8.583008830410517,-0.9498026140653265,-5.591725685093839,1.0365691781096675
1669909809693440951,7.193531744720027,-6.414042975724393,8.583008830410517,-0.9494385703993782,-5.588162852406628,1.0365691781096675
1669909809693456213,7.193531744720027,-6.414042975724393,8.583008830410517,-0.9492449034182806,-5.586264166728436,1.0365691781096675
1669909809693472257,7.193531744720027,-6.414042975724393,8.583008830410517,-0.9490402515840158,-5.584251731097832,1.0365691781096675
1669909809693487702,7.193531744720027,-6.414042975724393,8.583008830410517,-0.9490402515840158,-5.584251731097832,1.0365691781096675
1669909809693502914,7.1456841480852304,-6.608630239404064,8.60376135278902,-0.9950853992997981,-5.999999999982725,1.0365691781096966
1669909809693518206,7.1456841480852304,-6.608630239404064,8.60376135278902,-0.9950853992997981,-5.999999999982725,1.0365691781096966
1669909809693532872,7.1456841480852304,-6.608630239404064,8.60376135278902,-0.9531489920474913,-5.667173337651505,1.0365691781096966
1669909809693547330,7.1456841480852304,-6.608630239404064,8.60376135278902,-0.9529787871799762,-5.665804984246451,1.0365691781096966
1669909809693562419,7.1456841480852304,-6.608630239404064,8.60376135278902,-0.9529787871799762,-5.665804984246451,1.0365691781096966
1669909809701173562,7.1456841480852304,-6.608630239404064,8.60376135278902,-0.9526734997522606,-5.663350030487339,1.0365691781096966
1669909809701188601,7.1456841480852304,-6.608630239404064,8.60376135278902,-0.9525107194008576,-5.66203514319221,1.0365691781096966
1669909809701203570,7.1456841480852304,-6.608630239404064,8.60376135278902,-0.9525107194008576,-5.66203514319221,1.0365691781096966
1669909809701218532,7.055114392310935,-6.598428992066343,8.614474067303602,-1.0,-5.999999999982587,1.0365691781097277
1669909809717938163,7.055114392310935,-6.598428992066343,8.614474067303602,-0.9677058195286521,-5.7716681921759445,1.0365691781097277
1669909809731741723,7.055114392310935,-6.598428992066343,8.614474067303602,-0.9676513883839113,-5.771147933745547,1.0365691781097277
1669909809754154708,7.055114392310935,-6.598428992066343,8.614474067303602,-0.9676513883839113,-5.771147933745547,1.0365691781097277
1669909809772682274,7.055114392310935,-6.598428992066343,8.614474067303602,-0.9675432565290769,-5.770114358278843,1.0365691781097277
1669909810107548281,7.055114392310935,-6.598428992066343,8.614474067303602,-0.9674883165471246,-5.769589249229777,1.0365691781097277
1669909810135698541,7.055114392310935,-6.598428992066343,8.614474067303602,-0.9674338543577112,-5.769068676614423,1.0365691781097277
1669909810135718490,7.055114392310935,-6.598428992066343,8.614474067303602,-0.9673773785873084,-5.768528316849901,1.0365691781097277
1669909810135736463,0.6639021478613458,-1.018136131047778,9.919936184232306,-1.0,-5.999999999982456,5.3583588065285075e-12
1669909810136037388,0.6639021478613458,-1.018136131047778,9.919936184232306,-1.0,-5.999999999982456,5.3583588065285075e-12
1669909810136059205,0.6639021478613458,-1.018136131047778,9.919936184232306,-0.9854407892073197,-5.876370859530173,5.3583588065285075e-12
1669909810136077029,0.6639021478613458,-1.018136131047778,9.919936184232306,-0.9855143227628871,-5.876593988189476,5.3583588065285075e-12
1669909810136093639,0.6639021478613458,-1.018136131047778,9.919936184232306,-0.9855143227628871,-5.876593988189476,5.3583588065285075e-12
1669909810136110712,0.6639021478613458,-1.018136131047778,9.919936184232306,-0.9856836013605602,-5.877106937286141,5.3583588065285075e-12
1669909810136127282,0.5913734311812624,-0.989935899981293,9.919273206313942,-0.9856836013605602,-5.877106937285967,5.398431927298752e-12
1669909810136143805,0.5913734311812624,-0.989935899981293,9.919273206313942,-1.0,-5.999999999982282,5.398431927298752e-12
1669909810136160012,0.5913734311812624,-0.989935899981293,9.919273206313942,-1.0,-5.999999999982282,5.398431927298752e-12
1669909810136176161,0.5913734311812624,-0.989935899981293,9.919273206313942,-1.0,-5.994966089651432,5.398431927298752e-12
1669909810136193870,0.5913734311812624,-0.989935899981293,9.919273206313942,-1.0,-5.995932203764645,5.398431927298752e-12
1669909810145666021,0.5913734311812624,-0.989935899981293,9.919273206313942,-1.0,-5.996944922222228,5.398431927298752e-12
1669909810145769340,0.5913734311812624,-0.989935899981293,9.919273206313942,-1.0,-5.996944922222228,5.398431927298752e-12
1669909810145884262,0.5913734311812624,-0.989935899981293,9.919273206313942,-1.0,-5.99883006287767,5.398431927298752e-12
1669909810146009938,0.5331034791908345,-0.9884661687662168,9.908553798458168,-1.0,-5.998830062877566,5.42031876960392e-12
1669909810168673702,0.5331034791908345,-0.9884661687662168,9.908553798458168,-1.0,-5.999999999982178,5.42031876960392e-12
1669909810178188216,0.5331034791908345,-0.9884661687662168,9.908553798458168,-1.0,-5.999999999982178,5.42031876960392e-12
1669909810189957642,0.5331034791908345,-0.9884661687662168,9.908553798458168,-1.0,-5.999999999982178,5.42031876960392e-12
1669909810209734247,0.5331034791908345,-0.9884661687662168,9.908553798458168,-1.0,-5.999999999982178,5.42031876960392e-12
1669909810265861617,0.5331034791908345,-0.9884661687662168,9.908553798458168,-1.0,-5.999999999982178,5.42031876960392e-12
1669909810283999067,0.4795050906494963,-0.9469729711578245,9.897495054580748,-1.0,-5.999999999982047,5.446445548654978e-12
1669909810284046320,0.4795050906494963,-0.9469729711578245,9.897495054580748,-1.0,-5.999999999982047,5.446445548654978e-12
1669909810292560929,0.4795050906494963,-0.9469729711578245,9.897495054580748,-1.0,-5.999999999982047,5.446445548654978e-12
1669909810309845832,3.488548724587332,-2.356776451067722,7.908865653850615,-1.0,-5.999999999982047,-9.22394692897252
1669909810625557051,3.488548724587332,-2.356776451067722,7.908865653850615,-1.0,-5.999999999982047,-9.22394692897252
1669909810694111991,3.488548724587332,-2.356776451067722,7.908865653850615,-1.0,-5.999999999982047,-9.22394692897252
1669909810694157059,3.488548724587332,-2.356776451067722,7.908865653850615,-1.0,-5.999999999982047,-9.22394692897252
1669909810694196282,3.2976333018966724,-2.256412903621128,7.9175891764883595,-1.0,-5.999999999981914,-9.223946928972497
1669909810694235218,3.2976333018966724,-2.256412903621128,7.9175891764883595,-1.0,-5.999999999981914,-9.223946928972497
1669909810694275177,3.2976333018966724,-2.256412903621128,7.9175891764883595,-1.0,-5.999999999981914,-9.223946928972497
1669909810694315207,3.2976333018966724,-2.256412903621128,7.9175891764883595,-1.0,-5.999999999981914,-9.223946928972497
1669909810694354141,3.2976333018966724,-2.256412903621128,7.9175891764883595,-1.0,-5.999999999981914,-9.223946928972497
1669909810694392672,3.1506096105368244,-2.123820237055718,7.916548758647435,-1.0,-5.999999999981799,-9.223946928972483
1669909810694474975,3.1506096105368244,-2.123820237055718,7.916548758647435,-1.0,-5.999999999981799,-9.223946928972483
1669909810694601529,3.1399580458611975,-2.1137744994314516,7.916078625002619,-1.0,-5.999999999981734,-9.223946928972477
1669909810694687870,3.1399580458611975,-2.1137744994314516,7.916078625002619,-1.0,-5.999999999981734,-9.223946928972477
1669909810694736829,3.1399580458611975,-2.1137744994314516,7.916078625002619,-1.0,-5.999999999981734,-9.223946928972477
1669909810694783217,3.1399580458611975,-2.1137744994314516,7.916078625002619,-1.0,-5.999999999981734,-9.223946928972477
1669909810694839103,3.1399580458611975,-2.1137744994314516,7.916078625002619,-1.0,-5.999999999981734,-9.223946928972477
1669909810775084673,3.1399580458611975,-2.1137744994314516,7.916078625002619,-1.0,-5.999999999981734,-9.223946928972477
1669909810775286536,3.1399580458611975,-2.1137744994314516,7.916078625002619,-1.0,-5.999999999981734,-9.223946928972477
1669909810775375953,3.1399580458611975,-2.1137744994314516,7.916078625002619,-1.0,-5.999999999981734,-9.223946928972477
1669909810775453148,3.1399580458611975,-2.1137744994314516,7.916078625002619,-1.0,-5.999999999981734,-9.223946928972477
1669909810775535337,3.0363213545622676,-2.039227624688113,7.925887931318741,-1.0,-5.9999999999817115,-9.223946928972477
1669909810843684402,3.0363213545622676,-2.039227624688113,7.925887931318741,-1.0,-5.9999999999817115,-9.223946928972477
1669909810843931947,7.748911631757244,-6.086020757708514,8.218972463341217,-1.0,-5.9999999999817115,-11.925121843809361
1669909810844000792,7.748911631757244,-6.086020757708514,8.218972463341217,-1.0,-5.9999999999817115,-11.925121843809361
1669909810844063399,7.748911631757244,-6.086020757708514,8.218972463341217,-1.0,-5.9999999999817115,-11.925121843809361
1669909811221092301,7.748911631757244,-6.086020757708514,8.218972463341217,-1.0,-5.9999999999817115,-11.925121843809361
1669909811221135951,7.662111295336072,-5.986229916500309,8.198337333659255,-1.0,-5.999999999981591,-11.92512184380936
1669909811221494510,7.662111295336072,-5.986229916500309,8.198337333659255,-1.0,-5.999999999981591,-11.92512184380936
1669909811221563784,7.662111295336072,-5.986229916500309,8.198337333659255,-1.0,-5.999999999981591,-11.92512184380936
1669909811221623388,7.667863818821623,-5.965312322615979,8.19794688106418,-1.0,-5.999999999981576,-11.925121843809368
1669909811221673825,7.6716116656527795,-5.95457194736155,8.197747215716634,-1.0,-5.999999999981588,-11.925121843809373
1669909811221714449,7.6716116656527795,-5.95457194736155,8.197747215716634,-1.0,-5.999999999981588,-11.925121843809373
1669909811221753451,7.6716116656527795,-5.95457194736155,8.197747215716634,-1.0,-5.999999999981588,-11.925121843809373
1669909811221793004,7.6716116656527795,-5.95457194736155,8.197747215716634,-1.0,-5.999999999981588,-11.925121843809373
1669909811221832830,7.6716116656527795,-5.95457194736155,8.197747215716634,-1.0,-5.999999999981588,-11.925121843809373
1669909811221873069,7.6716116656527795,-5.95457194736155,8.197747215716634,-1.0,-5.999999999981588,-11.925121843809373
1669909811221949308,7.6716116656527795,-5.95457194736155,8.197747215716634,-1.0,-5.999999999981588,-11.925121843809373
1669909811221999846,7.6716116656527795,-5.95457194736155,8.197747215716634,-1.0,-5.999999999981588,-11.925121843809373
1669909811222040348,7.6716116656527795,-5.95457194736155,8.197747215716634,-1.0,-5.999999999981588,-11.925121843809373
1669909811222079470,7.6716116656527795,-5.95457194736155,8.197747215716634,-1.0,-5.999999999981588,-11.925121843809373
1669909811222120005,7.655393455097489,-5.8049908158501715,8.147567307917596,-1.0,-5.999999999981618,-11.925121843809377
1669909811222196270,7.655393455097489,-5.8049908158501715,8.147567307917596,-1.0,-5.999999999981618,-11.925121843809377
1669909811265000519,7.655393455097489,-5.8049908158501715,8.147567307917596,-1.0,-5.999999999981618,-11.925121843809377
1669909811265006124,7.655393455097489,-5.8049908158501715,8.147567307917596,-1.0,-5.999999999981618,-11.925121843809377
1669909811265010960,7.655393455097489,-5.8049908158501715,8.147567307917596,-1.0,-5.999999999981618,-11.925121843809377
1669909811265016191,7.655393455097489,-5.8049908158501715,8.147567307917596,-1.0,-5.999999999981618,-11.925121843809377
1669909811288977583,7.71379575125283,-5.57576367867083,8.137194764937258,-1.0,-5.999999999981766,-11.925121843809386
1669909811289028519,7.71379575125283,-5.57576367867083,8.137194764937258,-1.0,-5.999999999981766,-11.925121843809386
1669909811298556323,7.71379575125283,-5.57576367867083,8.137194764937258,-1.0,-5.999999999981766,-11.925121843809386
1669909811319741500,7.71379575125283,-5.57576367867083,8.137194764937258,-1.0,-5.999999999981766,-11.925121843809386
1669909811334863795,7.71379575125283,-5.57576367867083,8.137194764937258,-1.0,-5.999999999981766,-11.925121843809386
1669909811334980874,7.71379575125283,-5.57576367867083,8.137194764937258,-1.0,-5.999999999981766,-11.925121843809386
1669909811357681878,7.754410952249229,-5.730698204160637,7.712457579697466,-1.0,-5.999999999981766,-11.440833806986113
1669909811646100789,7.754410952249229,-5.730698204160637,7.712457579697466,-1.0,-5.999999999981766,-11.440833806986113
1669909811757781235,7.754410952249229,-5.730698204160637,7.712457579697466,-1.0,-5.999999999981766,-11.440833806986113
1669909811757785932,7.913897073409317,-5.430481437129798,7.712438027092085,-1.0,-5.999999999981909,-11.440833806986113
1669909811757792411,7.913897073409317,-5.430481437129798,7.712438027092085,-1.0,-5.999999999981909,-11.440833806986113
1669909811757796659,7.913897073409317,-5.430481437129798,7.712438027092085,-1.0,-5.999999999981909,-11.440833806986113
1669909811757800660,7.913897073409317,-5.430481437129798,7.712438027092085,-1.0,-5.999999999981909,-11.440833806986113
1669909811757804947,7.913897073409317,-5.430481437129798,7.712438027092085,-1.0,-5.999999999981909,-11.440833806986113
1669909811757809019,7.913897073409317,-5.430481437129798,7.712438027092085,-1.0,-5.999999999981909,-11.440833806986113
1669909811757813028,7.913897073409317,-5.430481437129798,7.712438027092085,-1.0,-5.999999999981909,-11.440833806986113
1669909811757818330,8.047882780701759,-5.194103638384154,7.722748257197259,-1.0,-5.999999999982296,-11.440833806986108
1669909811757821761,8.047882780701759,-5.194103638384154,7.722748257197259,-1.0,-5.999999999982296,-11.440833806986108
1669909811757825819,8.047882780701759,-5.194103638384154,7.722748257197259,-1.0,-5.999999999982296,-11.440833806986108
1669909811757829943,8.047882780701759,-5.194103638384154,7.722748257197259,-1.0,-5.999999999982296,-11.440833806986108
1669909811757833935,8.047882780701759,-5.194103638384154,7.722748257197259,-1.0,-5.999999999982296,-11.440833806986108
1669909811757837180,8.047882780701759,-5.194103638384154,7.722748257197259,-1.0,-5.999999999982296,-11.440833806986108
1669909811847923881,8.12245698110609,-5.009540630702373,7.742503501064926,-1.0,-5.9999999999825215,-11.440833806986106
1669909811847927422,8.12245698110609,-5.009540630702373,7.742503501064926,-1.0,-5.9999999999825215,-11.440833806986106
1669909811847930470,8.12245698110609,-5.009540630702373,7.742503501064926,-1.0,-5.9999999999825215,-11.440833806986106
1669909811847933869,8.12245698110609,-5.009540630702373,7.742503501064926,-1.0,-5.9999999999825215,-11.440833806986106
1669909811847937004,8.12245698110609,-5.009540630702373,7.742503501064926,-1.0,-5.9999999999825215,-11.440833806986106
1669909811926739360,8.12245698110609,-5.009540630702373,7.742503501064926,-1.0,-5.9999999999825215,-11.440833806986106
1669909811926741604,8.241637618929571,-4.863830219602642,7.771767628920324,-1.0,-5.999999999982765,-11.440833806986102
1669909811926743513,8.241637618929571,-4.863830219602642,7.771767628920324,-1.0,-5.999999999982765,-11.440833806986102
1669909811926745699,8.241637618929571,-4.863830219602642,7.771767628920324,-1.0,-5.999999999982765,-11.440833806986102
1669909811926747623,8.854271443278021,-6.484487663602886,7.903483910095938,-1.0,-5.999999999982765,-2.919995784754047
1669909812146900365,8.854271443278021,-6.484487663602886,7.903483910095938,-1.0,-5.999999999982765,-2.919995784754047
1669909812146902364,8.854271443278021,-6.484487663602886,7.903483910095938,-1.0,-5.999999999982765,-2.919995784754047
1669909812146904342,8.854271443278021,-6.484487663602886,7.903483910095938,-1.0,-5.999999999982765,-2.919995784754047
1669909812146906171,8.911370057112403,-6.292500859871172,7.932449508637517,-1.0,-5.999999999982956,-2.919995784754044
1669909812146907928,8.911370057112403,-6.292500859871172,7.932449508637517,-1.0,-5.999999999982956,-2.919995784754044
1669909812146909649,8.911370057112403,-6.292500859871172,7.932449508637517,-1.0,-5.999999999982956,-2.919995784754044
1669909812146911456,8.880084826872341,-6.283605451630853,7.931163734199906,-1.0,-5.999999999983169,-2.919995784754036
1669909812146913227,8.880084826872341,-6.283605451630853,7.931163734199906,-1.0,-5.999999999983169,-2.919995784754036
1669909812146915158,8.880084826872341,-6.283605451630853,7.931163734199906,-1.0,-5.999999999983169,-2.919995784754036
1669909812146917249,8.880084826872341,-6.283605451630853,7.931163734199906,-1.0,-5.999999999983169,-2.919995784754036
1669909812146918983,8.880084826872341,-6.283605451630853,7.931163734199906,-1.0,-5.999999999983169,-2.919995784754036
1669909812146920708,8.880084826872341,-6.283605451630853,7.931163734199906,-1.0,-5.999999999983169,-2.919995784754036
1669909812146922462,8.880084826872341,-6.283605451630853,7.931163734199906,-1.0,-5.999999999983169,-2.919995784754036
1669909812146924280,8.880084826872341,-6.283605451630853,7.931163734199906,-1.0,-5.999999999983169,-2.919995784754036
1669909812153132045,8.97165402850311,-6.180119952399135,7.939977129085875,-1.0,-5.999999999983558,-2.9199957847540188
1669909812162290488,8.97165402850311,-6.180119952399135,7.939977129085875,-1.0,-5.999999999983558,-2.9199957847540188
1669909812184595927,8.97165402850311,-6.180119952399135,7.939977129085875,-1.0,-5.999999999983558,-2.9199957847540188
1669909812206828414,8.97165402850311,-6.180119952399135,7.939977129085875,-1.0,-5.999999999983558,-2.9199957847540188
1669909812236350894,8.97165402850311,-6.180119952399135,7.939977129085875,-1.0,-5.999999999983558,-2.9199957847540188
1669909812261009652,8.776470274535825,-6.309832772452236,7.6353115635951525,-1.0,-5.999999999983558,6.841786354785699
1669909812307329986,8.776470274535825,-6.309832772452236,7.6353115635951525,-1.0,-5.999999999983558,6.841786354785699
1669909812334187218,8.738467863278629,-6.247016623283136,7.6444671487303575,-0.9229200510880538,-5.999999999983859,6.841786354785735
1669909812334195591,8.738467863278629,-6.247016623283136,7.6444671487303575,-1.0,-5.999999999983859,6.841786354785735
1669909812349485458,8.738467863278629,-6.247016623283136,7.6444671487303575,-1.0,-5.999999999983859,6.841786354785735
1669909812349509349,8.738467863278629,-6.247016623283136,7.6444671487303575,-1.0,-5.999999999983859,6.841786354785735
1669909812372162316,8.738467863278629,-6.247016623283136,7.6444671487303575,-1.0,-5.999999999983859,6.841786354785735
1669909812422819435,8.738467863278629,-6.247016623283136,7.6444671487303575,-1.0,-5.999999999983859,6.841786354785735
1669909812740687482,8.584522774892093,-6.18033333089422,8.172567132660944,-1.0,-5.999999999983859,9.358670711522873
1669909812740690432,8.584522774892093,-6.18033333089422,8.172567132660944,-1.0,-5.999999999983859,9.358670711522873
1669909812740693001,8.510026377143003,-6.260629545004705,8.152250072995663,-1.0,-5.999999999984008,9.358670711522898
1669909812740695607,8.510026377143003,-6.260629545004705,8.152250072995663,-0.89543812644852,-5.999999999984008,9.358670711522898
1669909812740698308,8.510026377143003,-6.260629545004705,8.152250072995663,-1.0,-5.999999999984008,9.358670711522898
1669909812740700954,8.510026377143003,-6.260629545004705,8.152250072995663,-1.0,-5.999999999984008,9.358670711522898
1669909812740703687,8.510026377143003,-6.260629545004705,8.152250072995663,-1.0,-5.999999999984008,9.358670711522898
1669909812740706630,8.510026377143003,-6.260629545004705,8.152250072995663,-1.0,-5.999999999984008,9.358670711522898
1669909812740709261,8.510026377143003,-6.260629545004705,8.152250072995663,-1.0,-5.999999999984008,9.358670711522898
1669909812740712312,8.472545435743875,-6.495813577715464,8.111773395258083,-1.0,-5.99999999998415,9.35867071152293
1669909812740727958,8.472545435743875,-6.495813577715464,8.111773395258083,-0.7078519503216854,-5.99999999998415,9.35867071152293
1669909812740731707,8.472545435743875,-6.495813577715464,8.111773395258083,-0.7078519503216854,-5.99999999998415,9.35867071152293
1669909812740734687,8.472545435743875,-6.495813577715464,8.111773395258083,-1.0,-5.99999999998415,9.35867071152293
1669909812802859802,8.472545435743875,-6.495813577715464,8.111773395258083,-1.0,-5.99999999998415,9.35867071152293
1669909812802862450,8.472545435743875,-6.495813577715464,8.111773395258083,-1.0,-5.99999999998415,9.35867071152293
1669909812802864587,8.472545435743875,-6.495813577715464,8.111773395258083,-1.0,-5.99999999998415,9.35867071152293
1669909812802866753,8.44325893303021,-6.727605342581931,8.090851396031313,-0.47293844520284845,-5.999999999984197,9.358670711522958
1669909812866061421,8.44325893303021,-6.727605342581931,8.090851396031313,-0.986835718553349,-5.999999999984197,9.358670711522958
1669909812866064390,8.44325893303021,-6.727605342581931,8.090851396031313,-0.9867460537050837,-5.999999999984197,9.358670711522958
1669909812866067494,8.44325893303021,-6.727605342581931,8.090851396031313,-0.9867460537050837,-5.999999999984197,9.358670711522958
1669909812866070263,8.44325893303021,-6.727605342581931,8.090851396031313,-0.9865837594545901,-5.999999999984197,9.358670711522958
1669909812919120142,8.429754992245012,-6.882401827680912,8.08822847395845,-0.18274827541833155,-5.999999999984102,9.358670711522993
1669909812919124433,7.864526530025775,-6.441841248380985,7.828385005292374,-0.18274827541833155,-5.999999999984102,10.677648782735762
1669909812919128387,7.864526530025775,-6.441841248380985,7.828385005292374,-0.9379596506818184,-5.999999999984102,10.677648782735762
1669909812949401154,7.864526530025775,-6.441841248380985,7.828385005292374,-0.9379596506818184,-5.999999999984102,10.677648782735762
1669909812949410504,7.864526530025775,-6.441841248380985,7.828385005292374,-0.9370797907273083,-5.999999999984102,10.677648782735762
1669909812949413280,7.864526530025775,-6.441841248380985,7.828385005292374,-0.9370797907273083,-5.999999999984102,10.677648782735762
1669909813287764894,7.864526530025775,-6.441841248380985,7.828385005292374,-0.9363411643489582,-5.999999999984102,10.677648782735762
1669909813287888901,7.864526530025775,-6.441841248380985,7.828385005292374,-0.9363411643489582,-5.999999999984102,10.677648782735762
1669909813288056950,7.864526530025775,-6.441841248380985,7.828385005292374,-0.9355459798783483,-5.999999999984102,10.677648782735762
1669909813288095473,7.926498576371751,-6.967556478300986,7.765242796920962,-0.9355459798783483,-5.999999999983977,10.677648782735785
1669909813288105068,7.926498576371751,-6.967556478300986,7.765242796920962,-0.6363552208299503,-5.999999999983977,10.677648782735785
1669909813288109300,7.926498576371751,-6.967556478300986,7.765242796920962,-0.9012617834847529,-5.999999999983977,10.677648782735785
1669909813288112333,7.926498576371751,-6.967556478300986,7.765242796920962,-0.9012617834847529,-5.999999999983977,10.677648782735785
1669909813288114984,7.926498576371751,-6.967556478300986,7.765242796920962,-0.9000262382364811,-5.999999999983977,10.677648782735785
1669909813288118187,7.926498576371751,-6.967556478300986,7.765242796920962,-0.9000262382364811,-5.999999999983977,10.677648782735785
1669909813288121018,7.926498576371751,-6.967556478300986,7.765242796920962,-0.8987742031649992,-5.999999999983977,10.677648782735785
1669909813288122947,7.926498576371751,-6.967556478300986,7.765242796920962,-0.8987742031649992,-5.999999999983977,10.677648782735785
1669909813293411901,8.028724234604853,-7.543265338014006,7.759973931983561,-0.5531372412121429,-5.999999999983759,10.677648782735803
1669909813385343651,8.028724234604853,-7.543265338014006,7.759973931983561,-0.86078861318499,-5.999999999983759,10.677648782735803
1669909813385346010,8.028724234604853,-7.543265338014006,7.759973931983561,-0.8599332227157787,-5.999999999983759,10.677648782735803
1669909813385348166,8.028724234604853,-7.543265338014006,7.759973931983561,-0.8599332227157787,-5.999999999983759,10.677648782735803
1669909813385350259,8.028724234604853,-7.543265338014006,7.759973931983561,-0.8581444434811867,-5.999999999983759,10.677648782735803
1669909813385352263,8.028724234604853,-7.543265338014006,7.759973931983561,-0.8581444434811867,-5.999999999983759,10.677648782735803
1669909813385354438,8.028724234604853,-7.543265338014006,7.759973931983561,-0.8565175677619947,-5.999999999983759,10.677648782735803
1669909813436552370,8.08446322612141,-7.892635015534275,7.779001356558792,-0.9127480045605257,-5.999999999983508,10.677648782735796
1669909813446651548,8.08446322612141,-7.892635015534275,7.779001356558792,-0.9127480045605257,-5.999999999983508,10.677648782735796
1669909813446664726,4.67910890511845,-5.528699902581089,7.460338534312241,-0.8572399599405629,-5.999999999983508,3.867123574024172
1669909813446668824,4.67910890511845,-5.528699902581089,7.460338534312241,-0.8572399599405629,-5.999999999983508,3.867123574024172
1669909813446672654,4.67910890511845,-5.528699902581089,7.460338534312241,-0.8555969663015823,-5.999999999983508,3.867123574024172
1669909813480480009,4.67910890511845,-5.528699902581089,7.460338534312241,-0.8555969663015823,-5.999999999983508,3.867123574024172
1669909813480483817,4.67910890511845,-5.528699902581089,7.460338534312241,-0.8539263806608909,-5.999999999983508,3.867123574024172
1669909813480486001,4.67910890511845,-5.528699902581089,7.460338534312241,-0.8530887899587345,-5.999999999983508,3.867123574024172
1669909813812971525,4.691879040763931,-5.933542472754111,7.441436690637802,-0.8530887899587345,-5.9999999999833316,3.8671235740241636
1669909813812979203,4.691879040763931,-5.933542472754111,7.441436690637802,-1.0,-5.9999999999833316,3.8671235740241636
1669909813812982526,4.691879040763931,-5.933542472754111,7.441436690637802,-0.8678017590136966,-5.9999999999833316,3.8671235740241636
1669909813812985387,4.691879040763931,-5.933542472754111,7.441436690637802,-0.8670457290954288,-5.9999999999833316,3.8671235740241636
1669909813812988428,4.691879040763931,-5.933542472754111,7.441436690637802,-0.8663033887481486,-5.9999999999833316,3.8671235740241636
1669909813812999428,4.691879040763931,-5.933542472754111,7.441436690637802,-0.8663033887481486,-5.9999999999833316,3.8671235740241636
1669909813813111165,4.691879040763931,-5.933542472754111,7.441436690637802,-0.8649521492756078,-5.9999999999833316,3.8671235740241636
1669909813813151044,4.570742570967691,-6.395720774546765,7.424326314729872,-1.0,-5.999999999983063,3.8671235740241405
1669909813813189348,4.570742570967691,-6.395720774546765,7.424326314729872,-1.0,-5.999999999983063,3.8671235740241405
1669909813813289089,4.570742570967691,-6.395720774546765,7.424326314729872,-0.9089789347151298,-5.999999999983063,3.8671235740241405
1669909813813294478,4.570742570967691,-6.395720774546765,7.424326314729872,-0.9085105816461593,-5.999999999983063,3.8671235740241405
1669909813813296728,4.562384667596759,-6.194695974604655,7.425936194857841,-0.9085105816461593,-5.999999999982832,3.867123574024111
1669909813813298651,4.562384667596759,-6.194695974604655,7.425936194857841,-1.0,-5.999999999982832,3.867123574024111
1669909813873731577,4.562384667596759,-6.194695974604655,7.425936194857841,-0.970091900755593,-5.999999999982832,3.867123574024111
1669909813874048059,4.562384667596759,-6.194695974604655,7.425936194857841,-0.9700836887090629,-5.999999999982832,3.867123574024111
1669909813874101919,4.562384667596759,-6.194695974604655,7.425936194857841,-0.9700753785650384,-5.999999999982832,3.867123574024111
1669909813874131424,4.562384667596759,-6.194695974604655,7.425936194857841,-0.9700651422889052,-5.999999999982832,3.867123574024111
1669909813874183400,4.562384667596759,-6.194695974604655,7.425936194857841,-0.9700651422889052,-5.999999999982832,3.867123574024111
1669909813909479935,4.562384667596759,-6.194695974604655,7.425936194857841,-0.9700506464812462,-5.999999999982832,3.867123574024111
1669909813909577202,2.3488712634658233,-2.3317398083372596,7.48279336353231,-0.9700506464812462,-5.999999999982832,-4.939974546426862
1669909813909899291,2.259314701625214,-2.430033180498005,7.482586227987979,-1.0,-5.999999999982777,-4.939974546426871
1669909813909919436,2.259314701625214,-2.430033180498005,7.482586227987979,-1.0,-5.999999999982777,-4.939974546426871
1669909813922069640,2.259314701625214,-2.430033180498005,7.482586227987979,-0.992579477326615,-5.999999999982777,-4.939974546426871
1669909813943690316,2.259314701625214,-2.430033180498005,7.482586227987979,-0.9927211959739666,-5.999999999982777,-4.939974546426871
1669909813990909534,2.259314701625214,-2.430033180498005,7.482586227987979,-0.9928597157304099,-5.999999999982777,-4.939974546426871
1669909814324543402,2.259314701625214,-2.430033180498005,7.482586227987979,-0.9928597157304099,-5.999999999982777,-4.939974546426871
1669909814324674478,2.259314701625214,-2.430033180498005,7.482586227987979,-0.9931328569310859,-5.999999999982777,-4.939974546426871
1669909814324782979,2.259314701625214,-2.430033180498005,7.482586227987979,-0.9931328569310859,-5.999999999982777,-4.939974546426871
1669909814324877377,2.1189065234934272,-2.100680472494375,7.479224089074035,-1.0,-5.999999999982608,-4.939974546426894
1669909814324970723,2.1189065234934272,-2.100680472494375,7.479224089074035,-1.0,-5.999999999982608,-4.939974546426894
1669909814325031016,2.1189065234934272,-2.100680472494375,7.479224089074035,-1.0,-5.999999999982608,-4.939974546426894
1669909814325141234,2.1189065234934272,-2.100680472494375,7.479224089074035,-1.0,-5.999999999982608,-4.939974546426894
1669909814325149875,2.1189065234934272,-2.100680472494375,7.479224089074035,-1.0,-5.999999999982608,-4.939974546426894
1669909814325153198,2.1189065234934272,-2.100680472494375,7.479224089074035,-1.0,-5.999999999982608,-4.939974546426894
1669909814325156370,2.1189065234934272,-2.100680472494375,7.479224089074035,-1.0,-5.999999999982608,-4.939974546426894
1669909814325159346,2.001852813976308,-1.827136591999701,7.443552710591408,-1.0,-5.999999999982407,-4.939974546426911
1669909814325323497,2.001852813976308,-1.827136591999701,7.443552710591408,-1.0,-5.999999999982407,-4.939974546426911
1669909814325372954,2.001852813976308,-1.827136591999701,7.443552710591408,-1.0,-5.999999999982407,-4.939974546426911
1669909814325416241,2.001852813976308,-1.827136591999701,7.443552710591408,-1.0,-5.999999999982407,-4.939974546426911
1669909814381258314,2.001852813976308,-1.827136591999701,7.443552710591408,-1.0,-5.999999999982407,-4.939974546426911
1669909814381417614,2.001852813976308,-1.827136591999701,7.443552710591408,-1.0,-5.999999999982407,-4.939974546426911
1669909814381556465,2.001852813976308,-1.827136591999701,7.443552710591408,-1.0,-5.999999999982407,-4.939974546426911
1669909814381623334,1.1273633665660503,0.8220545374778376,6.814443297221157,-1.0,-5.99999999998221,-9.428692460054545
1669909814381712369,1.1273633665660503,0.8220545374778376,6.814443297221157,-1.0,-5.99999999998221,-9.428692460054545
1669909814394089671,1.1273633665660503,0.8220545374778376,6.814443297221157,-1.0,-5.99999999998221,-9.428692460054545
1669909814394201881,1.1273633665660503,0.8220545374778376,6.814443297221157,-1.0,-5.99999999998221,-9.428692460054545
1669909814394206493,1.1273633665660503,0.8220545374778376,6.814443297221157,-1.0,-5.99999999998221,-9.428692460054545
1669909814412721121,1.1273633665660503,0.8220545374778376,6.814443297221157,-1.0,-5.99999999998221,-9.428692460054545
1669909814429996268,1.1273633665660503,0.8220545374778376,6.814443297221157,-1.0,-5.99999999998221,-9.428692460054545
1669909814446535929,1.1273633665660503,0.8220545374778376,6.814443297221157,-1.0,-5.99999999998221,-9.428692460054545
1669909814470180752,0.9910033361911424,1.0490346550331702,6.803471614138228,-1.0,-5.999999999982124,-9.428692460054549
1669909814490891401,0.9910033361911424,1.0490346550331702,6.803471614138228,-1.0,-5.999999999982124,-9.428692460054549
1669909814508399792,0.803578616857494,1.3363600372658362,7.4120716941515035,-1.0,-5.999999999982124,-10.114015638822707
1669909814834330682,0.803578616857494,1.3363600372658362,7.4120716941515035,-1.0,-5.999999999982124,-10.114015638822707
1669909814983701456,0.803578616857494,1.3363600372658362,7.4120716941515035,-1.0,-5.999999999982124,-10.114015638822707
1669909814983777332,0.803578616857494,1.3363600372658362,7.4120716941515035,-1.0,-5.999999999982124,-10.114015638822707
1669909814989565089,0.803578616857494,1.3363600372658362,7.4120716941515035,-1.0,-5.999999999982124,-10.114015638822707
1669909814989581407,0.803578616857494,1.3363600372658362,7.4120716941515035,-1.0,-5.999999999982124,-10.114015638822707
1669909814989585912,0.803578616857494,1.3363600372658362,7.4120716941515035,-1.0,-5.999999999982124,-10.114015638822707
1669909814989589028,0.7613884746195623,1.5584160916121275,7.383819724308328,-1.0,-5.999999999981969,-10.11401563882272
1669909814989816998,0.7613884746195623,1.5584160916121275,7.383819724308328,-1.0,-5.999999999981969,-10.11401563882272
1669909814989946139,0.7613884746195623,1.5584160916121275,7.383819724308328,-1.0,-5.999999999981969,-10.11401563882272
1669909814990070370,0.7613884746195623,1.5584160916121275,7.383819724308328,-1.0,-5.999999999981969,-10.11401563882272
1669909814990120381,0.7613884746195623,1.5584160916121275,7.383819724308328,-1.0,-5.999999999981969,-10.11401563882272
1669909814990166941,0.7613884746195623,1.5584160916121275,7.383819724308328,-1.0,-5.999999999981969,-10.11401563882272
1669909814990212252,0.7613884746195623,1.5584160916121275,7.383819724308328,-1.0,-5.999999999981969,-10.11401563882272
1669909814990255689,0.7613884746195623,1.5584160916121275,7.383819724308328,-1.0,-5.999999999981969,-10.11401563882272
1669909814990303088,0.7409118556392735,1.666491116462176,7.368234227798693,-1.0,-5.999999999981893,-10.114015638822732
1669909815098002154,0.7409118556392735,1.666491116462176,7.368234227798693,-1.0,-5.999999999981893,-10.114015638822732
1669909815098048174,0.7409118556392735,1.666491116462176,7.368234227798693,-1.0,-5.999999999981893,-10.114015638822732
1669909815098091456,0.7409118556392735,1.666491116462176,7.368234227798693,-1.0,-5.999999999981893,-10.114015638822732
1669909815098133633,0.7409118556392735,1.666491116462176,7.368234227798693,-1.0,-5.999999999981893,-10.114015638822732
1669909815098175470,0.5168507688654012,3.162610615668719,7.173708062074892,-1.0,-5.999999999981893,-11.84058398007792
1669909815098216701,0.5168507688654012,3.162610615668719,7.173708062074892,-1.0,-5.999999999981893,-11.84058398007792
1669909815101327857,0.5168507688654012,3.162610615668719,7.173708062074892,-1.0,-5.999999999981893,-11.84058398007792
1669909815101394151,0.5168507688654012,3.162610615668719,7.173708062074892,-1.0,-5.999999999981893,-11.84058398007792
1669909815101428449,0.5168507688654012,3.162610615668719,7.173708062074892,-1.0,-5.999999999981893,-11.84058398007792
1669909815343850362,0.5569624197136167,3.3900973337736637,7.14699812660975,-1.0,-5.999999999981905,-11.840583980077932
1669909815343927108,0.5569624197136167,3.3900973337736637,7.14699812660975,-1.0,-5.999999999981905,-11.840583980077932
1669909815346479478,0.5569624197136167,3.3900973337736637,7.14699812660975,-1.0,-5.999999999981905,-11.840583980077932
1669909815346495130,0.5569624197136167,3.3900973337736637,7.14699812660975,-1.0,-5.999999999981905,-11.840583980077932
1669909815346499965,0.5569624197136167,3.3900973337736637,7.14699812660975,-1.0,-5.999999999981905,-11.840583980077932
1669909815346503240,0.5569624197136167,3.3900973337736637,7.14699812660975,-1.0,-5.999999999981905,-11.840583980077932
1669909815421701671,0.5569624197136167,3.3900973337736637,7.14699812660975,-1.0,-5.999999999981905,-11.840583980077932
1669909815424147307,0.5569624197136167,3.3900973337736637,7.14699812660975,-1.0,-5.999999999981905,-11.840583980077932
1669909815424155921,0.6012285143995904,3.58967217000757,7.152515199013243,-1.0,-5.999999999982016,-11.840583980077964
1669909815424159013,0.6012285143995904,3.58967217000757,7.152515199013243,-1.0,-5.828183768414398,-11.840583980077964
1669909815424808733,0.6012285143995904,3.58967217000757,7.152515199013243,-1.0,-5.999999999982016,-11.840583980077964
1669909815424819890,0.6012285143995904,3.58967217000757,7.152515199013243,-1.0,-5.999999999982016,-11.840583980077964
1669909815424823819,0.6012285143995904,3.58967217000757,7.152515199013243,-1.0,-5.999999999982016,-11.840583980077964
1669909815424827407,0.6012285143995904,3.58967217000757,7.152515199013243,-1.0,-5.999999999982016,-11.840583980077964
1669909815424830489,0.6012285143995904,3.58967217000757,7.152515199013243,-1.0,-5.999999999982016,-11.840583980077964
1669909815424833360,0.6012285143995904,3.58967217000757,7.152515199013243,-1.0,-5.999999999982016,-11.840583980077964
1669909815424836515,0.6012285143995904,3.58967217000757,7.152515199013243,-1.0,-5.999999999982016,-11.840583980077964
1669909815424839346,0.633717177283962,3.8330286130606206,7.165022391232792,-1.0,-5.999999999982159,-11.840583980077987
1669909815460651358,0.633717177283962,3.8330286130606206,7.165022391232792,-1.0,-5.999999999982159,-11.840583980077987
1669909815460760134,0.633717177283962,3.8330286130606206,7.165022391232792,-1.0,-5.999999999982159,-11.840583980077987
1669909815460816950,0.633717177283962,3.8330286130606206,7.165022391232792,-1.0,-5.999999999982159,-11.840583980077987
1669909815475531104,0.633717177283962,3.8330286130606206,7.165022391232792,-1.0,-5.999999999982159,-11.840583980077987
1669909815475599754,0.633717177283962,3.8330286130606206,7.165022391232792,-1.0,-5.999999999982159,-11.840583980077987
1669909815489303415,0.633717177283962,3.8330286130606206,7.165022391232792,-1.0,-5.999999999982159,-11.840583980077987
1669909815567015493,-0.34279151330051283,3.6769193265575923,7.579142673768331,-1.0,-5.999999999982408,-7.331470549101145
1669909815627185449,-0.3178149441919951,3.658986957564567,7.580825135973859,-1.0,-5.999999999982408,-7.331470549101145
1669909815627284801,-0.3178149441919951,3.658986957564567,7.580825135973859,-1.0,-5.999999999982408,-7.331470549101145
1669909815627380363,-0.3178149441919951,3.658986957564567,7.580825135973859,-1.0,-5.999999999982408,-7.331470549101145
1669909816044522662,-0.3178149441919951,3.658986957564567,7.580825135973859,-1.0,-5.999999999982408,-7.331470549101145
1669909816044525163,-0.3178149441919951,3.658986957564567,7.580825135973859,-1.0,-5.999999999982408,-7.331470549101145
1669909816044527378,-0.3178149441919951,3.658986957564567,7.580825135973859,-1.0,-5.999999999982408,-7.331470549101145
1669909816044529752,-0.3178149441919951,3.658986957564567,7.580825135973859,-1.0,-5.999999999982408,-7.331470549101145
1669909816044532994,-0.3178149441919951,3.658986957564567,7.580825135973859,-1.0,-5.999999999982408,-7.331470549101145
1669909816044536620,-0.3178149441919951,3.658986957564567,7.580825135973859,-1.0,-5.999999999982408,-7.331470549101145
1669909816044539182,-0.3006300082381264,3.942785416256568,7.601340188684016,-1.0,-5.999999999982663,-7.3314705491011605
1669909816044541963,-0.3006300082381264,3.942785416256568,7.601340188684016,-1.0,-5.999999999982663,-7.3314705491011605
1669909816044544932,-0.3006300082381264,3.942785416256568,7.601340188684016,-1.0,-5.999999999982663,-7.3314705491011605
1669909816044547521,-0.3006300082381264,3.942785416256568,7.601340188684016,-1.0,-5.999999999982663,-7.3314705491011605
1669909816044550242,-0.3006300082381264,3.942785416256568,7.601340188684016,-1.0,-5.999999999982663,-7.3314705491011605
1669909816044552846,-0.3006300082381264,3.942785416256568,7.601340188684016,-1.0,-5.999999999982663,-7.3314705491011605
1669909816044555614,-0.3006300082381264,3.942785416256568,7.601340188684016,-1.0,-5.999999999982663,-7.3314705491011605
1669909816044558360,-0.3006300082381264,3.942785416256568,7.601340188684016,-1.0,-5.999999999982663,-7.3314705491011605
1669909816044561279,-0.3006300082381264,3.942785416256568,7.601340188684016,-1.0,-5.999999999982663,-7.3314705491011605
1669909816044563905,-0.27767421335373615,4.277546262542643,7.651836750420581,-1.0,-5.999999999983077,-7.3314705491011765
1669909816044566733,-0.27767421335373615,4.277546262542643,7.651836750420581,-1.0,-5.999999999983077,-7.3314705491011765
1669909816225786878,-0.27767421335373615,4.277546262542643,7.651836750420581,-1.0,-5.999999999983077,-7.3314705491011765
1669909816225790752,-0.27767421335373615,4.277546262542643,7.651836750420581,-1.0,-5.999999999983077,-7.3314705491011765
1669909816225793810,-1.4516757953206132,1.9706329015893118,7.648111907156955,-1.0,-5.999999999983077,2.834471538668332
1669909816225796764,-1.4516757953206132,1.9706329015893118,7.648111907156955,-1.0,-5.999999999983077,2.834471538668332
1669909816225799392,-1.4516757953206132,1.9706329015893118,7.648111907156955,-1.0,-5.999999999983077,2.834471538668332
1669909816225802583,-1.4516757953206132,1.9706329015893118,7.648111907156955,-1.0,-5.999999999983077,2.834471538668332
1669909816225805227,-1.4516757953206132,1.9706329015893118,7.648111907156955,-1.0,-5.999999999983077,2.834471538668332
1669909816225808879,-1.4229611252048433,2.080816780589547,7.659504024460105,-1.0,-5.999999999983375,2.834471538668329
1669909816377348767,-1.4229611252048433,2.080816780589547,7.659504024460105,-1.0,-5.999999999983375,2.834471538668329
1669909816377352129,-1.4229611252048433,2.080816780589547,7.659504024460105,-1.0,-5.999999999983375,2.834471538668329
1669909816377355342,-1.4229611252048433,2.080816780589547,7.659504024460105,-1.0,-5.999999999983375,2.834471538668329
1669909816377358388,-1.4229611252048433,2.080816780589547,7.659504024460105,-1.0,-5.999999999983375,2.834471538668329
1669909816377361060,-1.4229611252048433,2.080816780589547,7.659504024460105,-1.0,-5.999999999983375,2.834471538668329
1669909816377363761,-1.4229611252048433,2.080816780589547,7.659504024460105,-1.0,-5.999999999983375,2.834471538668329
1669909816377366399,-1.4229611252048433,2.080816780589547,7.659504024460105,-1.0,-5.999999999983375,2.834471538668329
1669909816377369187,-1.450559313544446,2.033812556321876,7.671480094374067,-0.8385489825220188,-5.999999999983579,2.8344715386683292
1669909816377371952,-1.450559313544446,2.033812556321876,7.671480094374067,-0.8385489825220188,-5.999999999983579,2.8344715386683292
1669909816377374798,-1.450559313544446,2.033812556321876,7.671480094374067,-1.0,-5.999999999983579,2.8344715386683292
1669909816377377896,-1.450559313544446,2.033812556321876,7.671480094374067,-1.0,-5.999999999983579,2.8344715386683292
1669909816377380713,-1.450559313544446,2.033812556321876,7.671480094374067,-1.0,-5.999999999983579,2.8344715386683292
1669909816377383755,-1.450559313544446,2.033812556321876,7.671480094374067,-1.0,-5.999999999983579,2.8344715386683292
1669909816377386932,-1.450559313544446,2.033812556321876,7.671480094374067,-1.0,-5.999999999983579,2.8344715386683292
1669909816377389854,-1.4697163970777916,2.009675525103368,7.6736096592923335,-0.8843158175662873,-5.999999999983807,2.834471538668323
1669909816377392562,-1.4697163970777916,2.009675525103368,7.6736096592923335,-1.0,-5.999999999983807,2.834471538668323
1669909816377395371,-1.4697163970777916,2.009675525103368,7.6736096592923335,-1.0,-5.999999999983807,2.834471538668323
1669909816404177999,-1.4697163970777916,2.009675525103368,7.6736096592923335,-1.0,-5.999999999983807,2.834471538668323
1669909816426674864,-1.4697163970777916,2.009675525103368,7.6736096592923335,-1.0,-5.999999999983807,2.834471538668323
1669909816454723154,-1.4697163970777916,2.009675525103368,7.6736096592923335,-1.0,-5.999999999983807,2.834471538668323
1669909816476419884,-1.4908117673596248,1.9390890191648926,7.665258129219709,-1.0,-5.999999999983906,2.8344715386683177
1669909816503927729,-1.4908117673596248,1.9390890191648926,7.665258129219709,-0.9401734375544035,-5.999999999983906,2.8344715386683177
1669909816527862041,-2.3711236438950407,-0.2340432067061937,8.18109520254582,-0.9401734375544035,-5.999999999983906,8.07096719742362
1669909816543509658,-2.3711236438950407,-0.2340432067061937,8.18109520254582,-1.0,-5.999999999983906,8.07096719742362
1669909816567135691,-2.3711236438950407,-0.2340432067061937,8.18109520254582,-1.0,-5.999999999983906,8.07096719742362
1669909816635646867,-2.3711236438950407,-0.2340432067061937,8.18109520254582,-1.0,-5.999999999983906,8.07096719742362
1669909816697410054,-2.3882157741881955,-0.40860733515988723,8.183153988487831,-0.8802152338485852,-5.999999999984048,8.070967197423606
1669909816697420600,-2.4748886762954343,-0.7949974251485957,8.119134725697151,-1.0,-5.999999999984048,8.117626011377006
1669909816697425442,-2.4748886762954343,-0.7949974251485957,8.119134725697151,-1.0,-5.999999999984048,8.117626011377006
1669909817129692799,-2.4748886762954343,-0.7949974251485957,8.119134725697151,-1.0,-5.999999999984048,8.117626011377006
1669909817129695930,-2.4748886762954343,-0.7949974251485957,8.119134725697151,-1.0,-5.999999999984048,8.117626011377006
1669909817129700752,-2.4748886762954343,-0.7949974251485957,8.119134725697151,-1.0,-5.999999999984048,8.117626011377006
1669909817129848859,-2.5007093466156465,-0.9105631321236624,8.099961834717947,-1.0,-5.999999999984101,8.117626011376995
1669909817129851137,-2.5007093466156465,-0.9105631321236624,8.099961834717947,-0.9767151242545424,-5.999999999984101,8.117626011376995
1669909817129853288,-2.5007093466156465,-0.9105631321236624,8.099961834717947,-1.0,-5.999999999984101,8.117626011376995
1669909817129855439,-2.5007093466156465,-0.9105631321236624,8.099961834717947,-1.0,-5.999999999984101,8.117626011376995
1669909817129857372,-2.45574748371343,-0.964261441472157,8.101781234308884,-1.0,-5.999999999984212,8.117626011376966
1669909817129859661,-2.45574748371343,-0.964261441472157,8.101781234308884,-0.8908882193176173,-5.723353939730605,8.117626011376966
1669909817129861585,-2.45574748371343,-0.964261441472157,8.101781234308884,-1.0,-5.999999999984212,8.117626011376966
1669909817129863415,-2.45574748371343,-0.964261441472157,8.101781234308884,-1.0,-5.999999999984212,8.117626011376966
1669909817129865270,-2.45574748371343,-0.964261441472157,8.101781234308884,-1.0,-5.999999999984212,8.117626011376966
1669909817129867091,-2.45574748371343,-0.964261441472157,8.101781234308884,-1.0,-5.999999999984212,8.117626011376966
1669909817129868965,-2.45574748371343,-0.964261441472157,8.101781234308884,-1.0,-5.999999999984212,8.117626011376966
1669909817359533426,-2.45574748371343,-0.964261441472157,8.101781234308884,-1.0,-5.999999999984212,8.117626011376966
1669909817359536051,-2.507421183896417,-1.059043600598999,8.082324166617795,-1.0,-5.999999999984232,8.117626011376956
1669909817359538511,-2.507421183896417,-1.059043600598999,8.082324166617795,-0.985978635513881,-5.999999999984232,8.117626011376956
1669909817359543303,-2.507421183896417,-1.059043600598999,8.082324166617795,-1.0,-5.999999999984232,8.117626011376956
1669909817359545768,-2.507421183896417,-1.059043600598999,8.082324166617795,-1.0,-5.999999999984232,8.117626011376956
1669909817359548369,-2.507421183896417,-1.059043600598999,8.082324166617795,-1.0,-5.999999999984232,8.117626011376956
1669909817359550539,-2.507421183896417,-1.059043600598999,8.082324166617795,-1.0,-5.999999999984232,8.117626011376956
1669909817359552739,-2.507421183896417,-1.059043600598999,8.082324166617795,-1.0,-5.999999999984232,8.117626011376956
1669909817359555007,-2.507421183896417,-1.059043600598999,8.082324166617795,-1.0,-5.999999999984232,8.117626011376956
1669909817359557189,-2.507421183896417,-1.059043600598999,8.082324166617795,-1.0,-5.999999999984232,8.117626011376956
1669909817359559280,-2.507421183896417,-1.059043600598999,8.082324166617795,-1.0,-5.999999999984232,8.117626011376956
1669909817494838003,-2.5442022295091618,-1.1800111489896714,8.083727948116152,-0.9073865773029561,-5.303420549562043,8.117626011376917
1669909817494855611,-2.5442022295091618,-1.1800111489896714,8.083727948116152,-0.9073865773029561,-5.303420549562043,8.117626011376917
1669909817494859448,-2.5442022295091618,-1.1800111489896714,8.083727948116152,-1.0,-5.9999999999842615,8.117626011376917
1669909817494865521,-2.5430211634729374,-2.2531517999772968,8.095443837093203,-1.0,-5.9999999999842615,11.128076612954676
1669909817494968311,-2.5430211634729374,-2.2531517999772968,8.095443837093203,-1.0,-5.9999999999842615,11.128076612954676
1669909817494972035,-2.5430211634729374,-2.2531517999772968,8.095443837093203,-1.0,-5.9999999999842615,11.128076612954676
1669909817494974348,-2.5430211634729374,-2.2531517999772968,8.095443837093203,-1.0,-5.9999999999842615,11.128076612954676
1669909817494976594,-2.5429917269523665,-2.417097873645071,8.076387967247847,-0.8550931550394547,-4.875069611092571,11.128076612954638
1669909817494978937,-2.5429917269523665,-2.417097873645071,8.076387967247847,-0.9953088633104789,-5.999999999984214,11.128076612954638
1669909817494981239,-2.5429917269523665,-2.417097873645071,8.076387967247847,-0.9953088633104789,-5.999999999984214,11.128076612954638
1669909817496644708,-2.5429917269523665,-2.417097873645071,8.076387967247847,-0.9952509165383961,-5.999999999984214,11.128076612954638
1669909817496731976,-2.5429917269523665,-2.417097873645071,8.076387967247847,-0.995219266546506,-5.999999999984214,11.128076612954638
1669909817496753140,-2.5429917269523665,-2.417097873645071,8.076387967247847,-0.995219266546506,-5.999999999984214,11.128076612954638
1669909817496773327,-2.5265845478131395,-2.6809464405752315,8.076226447973859,-0.820738400359555,-5.04348548539995,11.128076612954608
1669909817496819460,-2.5265845478131395,-2.6809464405752315,8.076226447973859,-0.820738400359555,-5.04348548539995,11.128076612954608
1669909817496822090,-2.5265845478131395,-2.6809464405752315,8.076226447973859,-0.9719173124417501,-5.983458527459017,11.128076612954608
1669909817496824364,-2.5265845478131395,-2.6809464405752315,8.076226447973859,-0.9719173124417501,-5.983458527459017,11.128076612954608
1669909817496882956,-2.5265845478131395,-2.6809464405752315,8.076226447973859,-0.9715550132418491,-5.983243736987993,11.128076612954608
1669909817509321558,-2.5265845478131395,-2.6809464405752315,8.076226447973859,-0.9713439672273411,-5.9831186125934,11.128076612954608
1669909817529788985,-2.5265845478131395,-2.6809464405752315,8.076226447973859,-0.9713439672273411,-5.9831186125934,11.128076612954608
1669909817549180521,-2.5265845478131395,-2.6809464405752315,8.076226447973859,-0.9710005485095229,-5.982914985214931,11.128076612954608
1669909817566124208,-2.537254136931101,-2.8726440017271346,8.06530549377928,-0.9710005485095229,-5.982914985214818,11.128076612954588
1669909817593352597,-2.537254136931101,-2.8726440017271346,8.06530549377928,-0.7898429109867067,-5.115407711969964,11.128076612954588
1669909817618471580,-2.537254136931101,-2.8726440017271346,8.06530549377928,-0.7898429109867067,-5.115407711969964,11.128076612954588
1669909817654386396,-2.537254136931101,-2.8726440017271346,8.06530549377928,-0.9509023735893123,-5.8895545438902746,11.128076612954588
1669909817674543306,-2.234301310907999,-2.4890405778932876,8.617365278310873,-0.9509023735893123,-5.8895545438902746,8.055382668977233
1669909817674615773,-2.234301310907999,-2.4890405778932876,8.617365278310873,-0.9503077821926043,-5.888179837701277,8.055382668977233
1669909817698658200,-2.234301310907999,-2.4890405778932876,8.617365278310873,-0.9499986620582566,-5.887463856873406,8.055382668977233
1669909818019224784,-2.234301310907999,-2.4890405778932876,8.617365278310873,-0.9496861121538404,-5.886739325893827,8.055382668977233
1669909818128784455,-2.247669184918664,-2.756636053155741,8.62488203177519,-0.9496861121538404,-5.88673932589358,8.055382668977217
1669909818128807208,-2.247669184918664,-2.756636053155741,8.62488203177519,-0.6795376122416905,-4.946869239606101,8.055382668977217
1669909818128810190,-2.247669184918664,-2.756636053155741,8.62488203177519,-0.6795376122416905,-4.946869239606101,8.055382668977217
1669909818128812348,-2.247669184918664,-2.756636053155741,8.62488203177519,-0.9178152507768362,-5.777249295288922,8.055382668977217
1669909818128815038,-2.247669184918664,-2.756636053155741,8.62488203177519,-0.9173088188534069,-5.775844950809269,8.055382668977217
1669909818128816970,-2.247669184918664,-2.756636053155741,8.62488203177519,-0.916801858170682,-5.77443929922476,8.055382668977217
1669909818129987274,-2.247669184918664,-2.756636053155741,8.62488203177519,-0.9162920326434382,-5.773024596860206,8.055382668977217
1669909818130238780,-2.254990145799729,-3.0935987397664926,8.631859475122743,-0.9162920326434382,-5.773024596859913,8.055382668977204
1669909818130257306,-2.254990145799729,-3.0935987397664926,8.631859475122743,-0.6653991105439893,-5.206990926165851,8.055382668977204
1669909818130259773,-2.254990145799729,-3.0935987397664926,8.631859475122743,-0.8876371290170132,-5.707658434018079,8.055382668977204
1669909818130261678,-2.254990145799729,-3.0935987397664926,8.631859475122743,-0.8868781707242905,-5.705655399201713,8.055382668977204
1669909818130263579,-2.254990145799729,-3.0935987397664926,8.631859475122743,-0.8861095363400238,-5.703623540191416,8.055382668977204
1669909818130265657,-2.254990145799729,-3.0935987397664926,8.631859475122743,-0.8861095363400238,-5.703623540191416,8.055382668977204
1669909818130267642,-2.254990145799729,-3.0935987397664926,8.631859475122743,-0.8848318983065712,-5.700255786919701,8.055382668977204
1669909818130271793,-2.2699942452631623,-3.3519154937863234,8.640774608119644,-0.8848318983065712,-5.700255786919515,8.0553826689772
1669909818177226464,-2.2699942452631623,-3.3519154937863234,8.640774608119644,-0.7996438177508458,-5.608065139576415,8.0553826689772
1669909818177381166,-2.2699942452631623,-3.3519154937863234,8.640774608119644,-0.8739132294151031,-5.685424895389465,8.0553826689772
1669909818177386973,-2.2699942452631623,-3.3519154937863234,8.640774608119644,-0.8739132294151031,-5.685424895389465,8.0553826689772
1669909818179835101,-2.2699942452631623,-3.3519154937863234,8.640774608119644,-0.8725281267119772,-5.681940596912948,8.0553826689772
1669909818179856467,-1.8637836737356814,-1.3701589556336289,8.523908600672401,-0.8725281267119772,-5.681940596912948,1.6809890046767593
1669909818179872840,-1.8637836737356814,-1.3701589556336289,8.523908600672401,-0.8710489126403314,-5.678220483403852,1.6809890046767593
1669909818190178913,-1.8637836737356814,-1.3701589556336289,8.523908600672401,-0.8702963706319772,-5.676327011360799,1.6809890046767593
1669909818190296570,-1.8840995875719517,-1.525541685408594,8.575425321316821,-1.0,-5.999999999983054,1.680989004676758
1669909818190323329,-1.8840995875719517,-1.525541685408594,8.575425321316821,-1.0,-5.999999999983054,1.680989004676758
1669909818213602787,-1.8840995875719517,-1.525541685408594,8.575425321316821,-0.8788611188999295,-5.708713453180031,1.680989004676758
1669909818229725397,-1.8840995875719517,-1.525541685408594,8.575425321316821,-0.8788611188999295,-5.708713453180031,1.680989004676758
1669909818551226840,-1.8840995875719517,-1.525541685408594,8.575425321316821,-0.8775552130505975,-5.705566616051956,1.680989004676758
1669909818618875523,-1.8840995875719517,-1.525541685408594,8.575425321316821,-0.8775552130505975,-5.705566616051956,1.680989004676758
1669909818618971316,-1.8840995875719517,-1.525541685408594,8.575425321316821,-0.8762123977588596,-5.702330857143657,1.680989004676758
1669909818619036689,-1.8187702146891087,-0.7582522853078859,8.601501012301547,-0.8762123977588596,-5.702330857143657,-0.35888926125544446
1669909818619042080,-1.8411218983013826,-0.7974948362451176,8.644508399941587,-1.0,-5.999999999982884,-0.358889261255445
1669909818620861472,-1.8411218983013826,-0.7974948362451176,8.644508399941587,-1.0,-5.999999999982884,-0.358889261255445
1669909818620869785,-1.8411218983013826,-0.7974948362451176,8.644508399941587,-0.90204184284909,-5.7568123982036825,-0.358889261255445
1669909818620878255,-1.8411218983013826,-0.7974948362451176,8.644508399941587,-0.9015419468922459,-5.755556182650028,-0.358889261255445
1669909818620881710,-1.8411218983013826,-0.7974948362451176,8.644508399941587,-0.9015419468922459,-5.755556182650028,-0.358889261255445
1669909818621190992,-1.8411218983013826,-0.7974948362451176,8.644508399941587,-0.9005861559544815,-5.75315393642545,-0.358889261255445
