%time,field.force.x,field.force.y,field.force.z,field.torque.x,field.torque.y,field.torque.z
1669909868897984573,-4.34632949168386,4.657164928110166,7.4295557267810555,-1.0,-5.308695653544759,-1.9925592094606306
1669909868909530591,-4.34632949168386,4.657164928110166,7.4295557267810555,-1.0,-5.308695653544759,-1.9925592094606306
1669909868924096110,-4.307038712948421,4.6448153766577,7.44922610175605,-0.9754733494845796,-4.949946370496979,-1.992559209460643
1669909868947895679,-4.307038712948421,4.6448153766577,7.44922610175605,-1.0,-5.266258418130581,-1.992559209460643
1669909868964600294,-4.307038712948421,4.6448153766577,7.44922610175605,-1.0,-5.266258418130581,-1.992559209460643
1669909868987818367,-4.369861412495235,4.649633518118119,7.475781908154442,-1.0,-5.261187163436448,-2.0004270225709946
1669909869009559303,-4.369861412495235,4.649633518118119,7.475781908154442,-1.0,-5.261187163436448,-2.0004270225709946
1669909869030120344,-4.369861412495235,4.649633518118119,7.475781908154442,-1.0,-5.25641975621383,-2.0004270225709946
1669909869044628527,-4.369861412495235,4.649633518118119,7.475781908154442,-1.0,-5.25641975621383,-2.0004270225709946
1669909869091775351,-4.369861412495235,4.649633518118119,7.475781908154442,-1.0,-5.251559857216561,-2.0004270225709946
1669909869339353375,-4.352780211418727,4.64076047267363,7.469842156290962,-1.0,-5.251559857216561,-1.9748774170822174
1669909869339393019,-4.367282651313089,4.617823916284545,7.469759376135867,-0.9718670683658164,-5.151439223101141,-1.974877417082197
1669909869339431045,-4.367282651313089,4.617823916284545,7.469759376135867,-1.0,-5.233970986300742,-1.974877417082197
1669909869341071353,-4.367282651313089,4.617823916284545,7.469759376135867,-1.0,-5.231444693649959,-1.974877417082197
1669909869341184049,-4.367282651313089,4.617823916284545,7.469759376135867,-1.0,-5.228842329900181,-1.974877417082197
1669909869341230659,-4.367282651313089,4.617823916284545,7.469759376135867,-1.0,-5.228842329900181,-1.974877417082197
1669909869341276551,-4.367282651313089,4.617823916284545,7.469759376135867,-1.0,-5.222851241987236,-1.974877417082197
1669909869341330396,-4.367282651313089,4.617823916284545,7.469759376135867,-1.0,-5.222851241987236,-1.974877417082197
1669909869341462527,-4.367282651313089,4.617823916284545,7.469759376135867,-1.0,-5.218840342359525,-1.974877417082197
1669909869341520997,-4.345959903514687,4.612134416016108,7.500311011074148,-1.0,-5.974269141493055,-1.9748774170821684
1669909869348684553,-4.345959903514687,4.612134416016108,7.500311011074148,-1.0,-5.974269141493055,-1.9748774170821684
1669909869348729149,-4.345959903514687,4.612134416016108,7.500311011074148,-1.0,-5.264979235969043,-1.9748774170821684
1669909869348769518,-4.345959903514687,4.612134416016108,7.500311011074148,-1.0,-5.264979235969043,-1.9748774170821684
1669909869348810784,-4.345959903514687,4.612134416016108,7.500311011074148,-1.0,-5.260136149017431,-1.9748774170821684
1669909869361696304,-4.345959903514687,4.612134416016108,7.500311011074148,-1.0,-5.260136149017431,-1.9748774170821684
1669909869381174895,-4.390311757975263,4.619493505745801,7.51099326522341,-1.0,-5.9999999999813225,-1.9748774170821304
1669909869403990129,-4.390311757975263,4.619493505745801,7.51099326522341,-1.0,-5.9999999999813225,-1.9748774170821304
1669909869430954369,-4.362746695929212,4.793146571904096,7.464198254656699,-1.0,-5.335393429951945,-1.996541172260582
1669909869449175265,-4.362746695929212,4.793146571904096,7.464198254656699,-1.0,-5.335393429951945,-1.996541172260582
1669909869465407732,-4.362746695929212,4.793146571904096,7.464198254656699,-1.0,-5.332146989236094,-1.996541172260582
1669909869488388566,-4.362746695929212,4.793146571904096,7.464198254656699,-1.0,-5.330353806498411,-1.996541172260582
1669909869532714732,-4.362746695929212,4.793146571904096,7.464198254656699,-1.0,-5.330353806498411,-1.996541172260582
1669909869554864488,-4.386312627965897,4.780403884567369,7.488408109305383,-1.0,-5.999999999981327,-1.9847193360274116
1669909869554913573,-4.386312627965897,4.780403884567369,7.488408109305383,-1.0,-5.999999999981327,-1.9847193360274116
1669909869570101902,-4.386312627965897,4.780403884567369,7.488408109305383,-1.0,-5.4016214546947205,-1.9847193360274116
1669909869599261112,-4.386312627965897,4.780403884567369,7.488408109305383,-1.0,-5.400367342006494,-1.9847193360274116
1669909869611343926,-4.386312627965897,4.780403884567369,7.488408109305383,-1.0,-5.400367342006494,-1.9847193360274116
1669909869715736195,-4.491548950888825,4.782321406298956,7.470765139278503,-1.0,-5.999999999981329,-1.9334135949556661
1669909869762267255,-4.491548950888825,4.782321406298956,7.470765139278503,-1.0,-5.999999999981329,-1.9334135949556661
1669909869762389007,-4.536293118403484,4.787543260039681,7.470759519970793,-1.0,-5.999999999981332,-1.9334135949556381
1669909869762487076,-4.536293118403484,4.787543260039681,7.470759519970793,-1.0,-5.999999999981332,-1.9334135949556381
1669909869762532053,-4.536293118403484,4.787543260039681,7.470759519970793,-1.0,-5.601917410255458,-1.9334135949556381
1669909869762575611,-4.536293118403484,4.787543260039681,7.470759519970793,-1.0,-5.602147805857822,-1.9334135949556381
1669909869785727233,-4.536293118403484,4.787543260039681,7.470759519970793,-1.0,-5.602147805857822,-1.9334135949556381
1669909869785805711,-4.536293118403484,4.787543260039681,7.470759519970793,-1.0,-5.602583477302936,-1.9334135949556381
1669909869799263001,-4.536293118403484,4.787543260039681,7.470759519970793,-1.0,-5.602583477302936,-1.9334135949556381
1669909869816099117,-4.536202702919819,4.797527786788431,7.4607597394099425,-1.0,-5.60146214566323,-1.93341359495564
1669909869832294557,-4.542617950836994,4.848262366351572,7.417501221429367,-1.0,-5.603077363712237,-1.8750920891706515
1669909869845365823,-4.542617950836994,4.848262366351572,7.417501221429367,-1.0,-5.603303862481721,-1.8750920891706515
1669909869868887615,-4.602295864816857,4.855574410889546,7.417170308872212,-1.0,-5.603303862481729,-1.8750920891706162
1669909869880737564,-4.602295864816857,4.855574410889546,7.417170308872212,-1.0,-5.99999999998134,-1.8750920891706162
1669909869910405494,-4.602295864816857,4.855574410889546,7.417170308872212,-1.0,-5.715687694049589,-1.8750920891706162
1669909869924192057,-4.619565714594079,4.848306816552083,7.38993113522147,-1.0,-5.715687694049589,-1.7672973498646432
1669909869948012974,-4.619565714594079,4.848306816552083,7.38993113522147,-1.0,-5.7175297826806855,-1.7672973498646432
1669909869965578185,-4.619565714594079,4.848306816552083,7.38993113522147,-1.0,-5.718499019711086,-1.7672973498646432
1669909869987645521,-4.646200058811424,4.862646996504073,7.379759000957626,-1.0,-5.718499019711088,-1.7672973498646392
1669909870008182539,-4.646200058811424,4.862646996504073,7.379759000957626,-1.0,-5.999999999981343,-1.7672973498646392
1669909870024735277,-4.646200058811424,4.862646996504073,7.379759000957626,-1.0,-5.999999999981343,-1.7672973498646392
1669909870055587654,-4.646200058811424,4.862646996504073,7.379759000957626,-1.0,-5.7536011224021815,-1.7672973498646392
1669909870064838524,-4.646200058811424,4.862646996504073,7.379759000957626,-1.0,-5.754855734224442,-1.7672973498646392
1669909870094145821,-4.646200058811424,4.862646996504073,7.379759000957626,-1.0,-5.754855734224442,-1.7672973498646392
1669909870110816841,-4.691752019646982,4.860523376373373,7.349427458426053,-1.0,-5.999999999981348,-1.7672973498646276
1669909870126503872,-4.655533853295664,4.834152791408621,7.325686928412015,-1.0,-5.999999999981348,-1.8493398651424902
1669909870377164553,-4.673520197137802,4.839612115133109,7.325410461509884,-1.0,-5.999999999981349,-1.8493398651424824
1669909870399320632,-4.673520197137802,4.839612115133109,7.325410461509884,-1.0,-5.842608546851711,-1.8493398651424824
1669909870399323602,-4.673520197137802,4.839612115133109,7.325410461509884,-1.0,-5.844298059622849,-1.8493398651424824
1669909870399325822,-4.673520197137802,4.839612115133109,7.325410461509884,-1.0,-5.844298059622849,-1.8493398651424824
1669909870399328031,-4.673520197137802,4.839612115133109,7.325410461509884,-1.0,-5.847729436335234,-1.8493398651424824
1669909870399330751,-4.673520197137802,4.839612115133109,7.325410461509884,-1.0,-5.847729436335234,-1.8493398651424824
1669909870399332815,-4.70673317081282,4.87010197513638,7.295360974532627,-1.0,-5.907387732801773,-1.8493398651424824
1669909870399334783,-4.70673317081282,4.87010197513638,7.295360974532627,-1.0,-5.907387732801773,-1.8493398651424824
1669909870399337156,-4.7115882575439105,4.868254493566572,7.295304002161501,-1.0,-5.94192241864683,-1.849339865142485
1669909870399339521,-4.7115882575439105,4.868254493566572,7.295304002161501,-1.0,-5.94192241864683,-1.849339865142485
1669909870399341602,-4.7115882575439105,4.868254493566572,7.295304002161501,-1.0,-5.873035880213215,-1.849339865142485
1669909870399343894,-4.7115882575439105,4.868254493566572,7.295304002161501,-1.0,-5.874848715311217,-1.849339865142485
1669909870409948724,-4.7115882575439105,4.868254493566572,7.295304002161501,-1.0,-5.874848715311217,-1.849339865142485
1669909870439511735,-4.7115882575439105,4.868254493566572,7.295304002161501,-1.0,-5.8783960719816095,-1.849339865142485
1669909870452470818,-4.7115882575439105,4.868254493566572,7.295304002161501,-1.0,-5.880382317276947,-1.849339865142485
1669909870452491891,-4.739314428003036,4.865340004359705,7.275359021223085,-1.0,-5.8803823172769425,-1.8493398651424906
1669909870462851073,-4.725017421497365,4.8582858140177505,7.275606268583511,-0.9924664556474351,-5.583716347725148,-1.849339865142505
1669909870494413319,-4.725017421497365,4.8582858140177505,7.275606268583511,-1.0,-5.8546295243036175,-1.849339865142505
1669909870505705830,-4.725017421497365,4.8582858140177505,7.275606268583511,-1.0,-5.856276501453959,-1.849339865142505
1669909870535335015,-4.54757767225649,4.850980072707631,7.769157016216491,-1.0,-5.856276501453959,-1.6826309636179613
1669909870552706468,-4.54757767225649,4.850980072707631,7.769157016216491,-1.0,-5.859396873319117,-1.6826309636179613
1669909870579650550,-4.54757767225649,4.850980072707631,7.769157016216491,-1.0,-5.861043820094145,-1.6826309636179613
1669909870597570027,-4.574207230156832,4.845698800041327,7.73935706415603,-1.0,-5.8610438200941415,-1.6826309636179733
1669909870607255273,-4.574207230156832,4.845698800041327,7.73935706415603,-1.0,-5.623157385802606,-1.6826309636179733
1669909870625572866,-4.574207230156832,4.845698800041327,7.73935706415603,-1.0,-5.623157385802606,-1.6826309636179733
1669909870662048394,-4.550142533828589,4.838029456052927,7.739654670018622,-0.9963530498915929,-5.437102045813946,-1.6826309636179924
1669909870771644052,-4.550142533828589,4.838029456052927,7.739654670018622,-0.9963530498915929,-5.437102045813946,-1.6826309636179924
1669909870799701968,-4.550142533828589,4.838029456052927,7.739654670018622,-1.0,-5.799526730482794,-1.6826309636179924
1669909870799704645,-4.550142533828589,4.838029456052927,7.739654670018622,-1.0,-5.80065117245772,-1.6826309636179924
1669909870799802352,-4.41710288052735,4.837825310144571,7.695101539153525,-1.0,-5.801782021148983,-1.7497692257110595
1669909870799822932,-4.41710288052735,4.837825310144571,7.695101539153525,-1.0,-5.803043357007621,-1.7497692257110595
1669909870799840641,-4.41710288052735,4.837825310144571,7.695101539153525,-1.0,-5.803043357007621,-1.7497692257110595
1669909870799974595,-4.410718071824346,4.830125084302062,7.665350019641515,-0.9921942823474429,-5.325354320626357,-1.7497692257110782
1669909870816280029,-4.410718071824346,4.830125084302062,7.665350019641515,-1.0,-5.756933485757696,-1.7497692257110782
1669909870830727268,-4.410718071824346,4.830125084302062,7.665350019641515,-1.0,-5.756933485757696,-1.7497692257110782
1669909870850062658,-4.410718071824346,4.830125084302062,7.665350019641515,-1.0,-5.758536190684883,-1.7497692257110782
1669909870866815946,-4.410718071824346,4.830125084302062,7.665350019641515,-1.0,-5.759385369555699,-1.7497692257110782
1669909870882982710,-4.39364700353745,4.831015577695006,7.6512506899315085,-1.0,-5.759385369555699,-1.7655084282104678
1669909870903701359,-4.39364700353745,4.831015577695006,7.6512506899315085,-1.0,-5.760936290651847,-1.7655084282104678
1669909870950806535,-4.39364700353745,4.831015577695006,7.6512506899315085,-1.0,-5.761742589184054,-1.7655084282104678
1669909870965623616,-4.374131795216344,4.816121451610011,7.631510400565039,-0.9589174999515573,-4.680412997184114,-1.7655084282104991
1669909870982177766,-4.374131795216344,4.816121451610011,7.631510400565039,-0.9589174999515573,-4.680412997184114,-1.7655084282104991
1669909870999351480,-4.374131795216344,4.816121451610011,7.631510400565039,-1.0,-5.671497100975259,-1.7655084282104991
1669909871012520670,-4.374131795216344,4.816121451610011,7.631510400565039,-1.0,-5.671497100975259,-1.7655084282104991
1669909871029342761,-4.374131795216344,4.816121451610011,7.631510400565039,-1.0,-5.671864218924805,-1.7655084282104991
1669909871072112718,-4.374131795216344,4.816121451610011,7.631510400565039,-1.0,-5.672061014809908,-1.7655084282104991
1669909871118267310,-4.339006113392556,4.797607594921385,7.621436019285056,-0.9141864726317737,-3.6784765428544914,-1.765508428210537
1669909871132587599,-4.193089770657266,4.800426596596037,7.684897978647086,-1.0,-5.551259329601986,-1.7707893624847337
1669909871132605411,-4.193089770657266,4.800426596596037,7.684897978647086,-1.0,-5.551259329601986,-1.7707893624847337
1669909871132654564,-4.145268083306596,4.789078979125844,7.684546447182113,-0.9702645313913656,-4.723155208247873,-1.770789362484765
1669909871149712330,-4.145268083306596,4.789078979125844,7.684546447182113,-0.9702645313913656,-4.723155208247873,-1.770789362484765
1669909871415609267,-4.145268083306596,4.789078979125844,7.684546447182113,-0.9994538425677362,-5.458816044598282,-1.770789362484765
1669909871448370973,-4.145268083306596,4.789078979125844,7.684546447182113,-0.999448870661333,-5.457153649143149,-1.770789362484765
1669909871448388602,-4.145268083306596,4.789078979125844,7.684546447182113,-0.999448870661333,-5.457153649143149,-1.770789362484765
1669909871448404918,-3.8520236618245103,4.7973184271963705,7.764990663910323,-0.9994435557288689,-5.455376437775432,-1.8416382372325182
1669909871448423184,-3.8520236618245103,4.7973184271963705,7.764990663910323,-0.9994399817193272,-5.454181636923651,-1.8416382372325182
1669909871448439653,-3.8520236618245103,4.7973184271963705,7.764990663910323,-0.9994399817193272,-5.454181636923651,-1.8416382372325182
1669909871448455956,-3.81245911693326,4.790097070605826,7.774515886526918,-0.9784276534906107,-4.761227199867108,-1.841638237232543
1669909871448472527,-3.81245911693326,4.790097070605826,7.774515886526918,-0.9971770690417232,-5.376618344141495,-1.841638237232543
1669909871448488777,-3.81245911693326,4.790097070605826,7.774515886526918,-0.9971770690417232,-5.376618344141495,-1.841638237232543
1669909871448505828,-3.81245911693326,4.790097070605826,7.774515886526918,-0.9971402843960759,-5.3732560611805615,-1.841638237232543
1669909871448562197,-3.81245911693326,4.790097070605826,7.774515886526918,-0.9971402843960759,-5.3732560611805615,-1.841638237232543
1669909871448565418,-3.81245911693326,4.790097070605826,7.774515886526918,-0.997103910571827,-5.369931105203955,-1.841638237232543
1669909871448583771,-3.81245911693326,4.790097070605826,7.774515886526918,-0.997103910571827,-5.369931105203955,-1.841638237232543
1669909871457903539,-3.7628886851953016,4.786043115162665,7.763501335896453,-0.9854068797059913,-4.338766195576512,-1.841638237232571
1669909871457957376,-3.7628886851953016,4.786043115162665,7.763501335896453,-0.9854068797059913,-4.338766195576512,-1.841638237232571
1669909871471250458,-3.7628886851953016,4.786043115162665,7.763501335896453,-0.9957578351413021,-5.251045521803542,-1.841638237232571
1669909871486885516,-3.7628886851953016,4.786043115162665,7.763501335896453,-0.9957312864167239,-5.251045521803542,-1.841638237232571
1669909871512176276,-3.7628886851953016,4.786043115162665,7.763501335896453,-0.9957026611577813,-5.246060624190192,-1.841638237232571
1669909871532214771,-3.6946482214616285,4.792595453762823,7.77786978057762,-0.995674234000694,-5.243489938252685,-1.8580415099805645
1669909871548843638,-3.6667752185854616,4.791936950145236,7.807280875978492,-0.995674234000694,-5.2434899382526865,-1.8580415099805698
1669909871573151554,-3.6667752185854616,4.791936950145236,7.807280875978492,-1.0,-4.725677650464693,-1.8580415099805698
1669909871588636625,-3.6667752185854616,4.791936950145236,7.807280875978492,-0.9985101000921144,-5.184526328803811,-1.8580415099805698
1669909871617712686,-3.6667752185854616,4.791936950145236,7.807280875978492,-0.9985017377511297,-5.181474859631096,-1.8580415099805698
1669909871628728575,-3.5241305748018923,4.824036137519351,8.435777433452628,-0.9985017377511297,-5.181474859631096,-1.921723410481821
1669909871644865126,-3.5241305748018923,4.824036137519351,8.435777433452628,-0.998487251967018,-5.176177241563002,-1.921723410481821
1669909871667601867,-3.4567057744033947,4.806886006135009,8.475601507897041,-0.998487251967018,-5.176177241563006,-1.9217234104818164
1669909871689877016,-3.4567057744033947,4.806886006135009,8.475601507897041,-1.0,-5.041872877161898,-1.9217234104818164
1669909871820869642,-3.4567057744033947,4.806886006135009,8.475601507897041,-1.0,-5.154070887029954,-1.9217234104818164
1669909871850726422,-3.5267102375991954,4.896664310235046,8.253952844614647,-1.0,-5.148820693838977,-1.9167890399640857
1669909871850773302,-3.5267102375991954,4.896664310235046,8.253952844614647,-1.0,-5.148820693838977,-1.9167890399640857
1669909871850814507,-3.5267102375991954,4.896664310235046,8.253952844614647,-1.0,-5.145696208269911,-1.9167890399640857
1669909871850856032,-3.514329380782555,4.910072793060151,8.274107925446355,-1.0,-5.145696208269915,-1.9167890399640704
1669909871850896912,-3.514329380782555,4.910072793060151,8.274107925446355,-1.0,-5.270550993102683,-1.9167890399640704
1669909871851711681,-3.514329380782555,4.910072793060151,8.274107925446355,-1.0,-5.270550993102683,-1.9167890399640704
1669909871864371716,-3.5354808835491136,4.917782037627884,8.274546920533469,-1.0,-5.496775225043538,-1.9167890399640488
1669909871880554902,-3.5354808835491136,4.917782037627884,8.274546920533469,-1.0,-5.496775225043538,-1.9167890399640488
1669909871895902346,-3.5354808835491136,4.917782037627884,8.274546920533469,-1.0,-5.182957429613985,-1.9167890399640488
1669909871910980076,-3.5354808835491136,4.917782037627884,8.274546920533469,-1.0,-5.182957429613985,-1.9167890399640488
1669909871928356477,-3.4204203752979234,4.917537062537857,8.216336428399375,-1.0,-5.178155291928232,-1.894098892802565
1669909871945532063,-3.4204203752979234,4.917537062537857,8.216336428399375,-1.0,-5.175642041651127,-1.894098892802565
1669909871968092090,-3.4204203752979234,4.917537062537857,8.216336428399375,-1.0,-5.175642041651127,-1.894098892802565
1669909871990867235,-3.406983617893224,4.9390393207282965,8.246659791576626,-1.0,-5.455827304531502,-1.8940988928025464
1669909872011794125,-3.406983617893224,4.9390393207282965,8.246659791576626,-1.0,-5.199227180300823,-1.8940988928025464
1669909872029961137,-3.4898206630859425,4.875754387161249,8.250356322633984,-1.0,-5.199227180300823,-1.8730831146186093
1669909872051093854,-3.55088940480606,4.87492726515501,8.251327226886442,-1.0,-5.999999999981267,-1.8730831146185591
1669909872069048191,-3.55088940480606,4.87492726515501,8.251327226886442,-1.0,-5.999999999981267,-1.8730831146185591
1669909872084918763,-3.55088940480606,4.87492726515501,8.251327226886442,-1.0,-5.305195582119603,-1.8730831146185591
1669909872110618363,-3.55088940480606,4.87492726515501,8.251327226886442,-1.0,-5.303660651492291,-1.8730831146185591
1669909872127800986,-3.4201487026538078,4.922438723551922,8.214794497022321,-1.0,-5.303660651492291,-1.8485060334150984
1669909872146385865,-3.4201487026538078,4.922438723551922,8.214794497022321,-1.0,-5.300602880159754,-1.8485060334150984
1669909872167689897,-3.4201487026538078,4.922438723551922,8.214794497022321,-1.0,-5.299073955277223,-1.8485060334150984
1669909872186458893,-3.4201487026538078,4.922438723551922,8.214794497022321,-1.0,-5.299073955277223,-1.8485060334150984
1669909872233973843,-3.4189799914283774,4.9431986292583225,8.25490056334599,-1.0,-5.447428820500387,-1.8485060334150933
1669909872478866196,-3.4685713539047263,4.930779405472922,8.25886322914227,-1.0,-5.311010043641796,-1.8653003498857164
1669909872478928298,-3.4685713539047263,4.930779405472922,8.25886322914227,-1.0,-5.311010043641796,-1.8653003498857164
1669909872515520453,-3.4685713539047263,4.930779405472922,8.25886322914227,-1.0,-5.308172427301054,-1.8653003498857164
1669909872517078255,-3.4685713539047263,4.930779405472922,8.25886322914227,-1.0,-5.306751021757125,-1.8653003498857164
1669909872517209491,-3.4685713539047263,4.930779405472922,8.25886322914227,-1.0,-5.306751021757125,-1.8653003498857164
1669909872517258357,-3.4685713539047263,4.930779405472922,8.25886322914227,-1.0,-5.303697410754892,-1.8653003498857164
1669909872517302114,-3.4685713539047263,4.930779405472922,8.25886322914227,-1.0,-5.303697410754892,-1.8653003498857164
1669909872517414786,-3.5233578556351173,4.9250103502171445,8.269444428890544,-1.0,-5.999999999981277,-1.86530034988567
1669909872517420163,-3.5233578556351173,4.9250103502171445,8.269444428890544,-1.0,-5.999999999981277,-1.86530034988567
1669909872517479998,-3.5233578556351173,4.9250103502171445,8.269444428890544,-1.0,-5.457798970906578,-1.86530034988567
1669909872518285417,-3.5233578556351173,4.9250103502171445,8.269444428890544,-1.0,-5.457401760111101,-1.86530034988567
1669909872518292085,-3.5233578556351173,4.9250103502171445,8.269444428890544,-1.0,-5.457401760111101,-1.86530034988567
1669909872518370703,-3.5233578556351173,4.9250103502171445,8.269444428890544,-1.0,-5.4566427608033745,-1.86530034988567
1669909872518412355,-3.5233578556351173,4.9250103502171445,8.269444428890544,-1.0,-5.4566427608033745,-1.86530034988567
1669909872518453356,-3.5233578556351173,4.9250103502171445,8.269444428890544,-1.0,-5.455863153225142,-1.86530034988567
1669909872531201329,-3.5870953262377587,4.947665542604412,8.279373687041243,-1.0,-5.455863153225152,-1.8653003498856207
1669909872545297177,-3.5870953262377587,4.947665542604412,8.279373687041243,-1.0,-5.999999999981287,-1.8653003498856207
1669909872567595861,-3.5870953262377587,4.947665542604412,8.279373687041243,-1.0,-5.573989111017703,-1.8653003498856207
1669909872590586991,-3.5454710186053124,4.939287513734783,8.214413862956008,-1.0,-5.574426011986437,-1.7569843679610868
1669909872606639774,-3.5454710186053124,4.939287513734783,8.214413862956008,-1.0,-5.574426011986437,-1.7569843679610868
1669909872624137340,-3.5454710186053124,4.939287513734783,8.214413862956008,-1.0,-5.575171343910352,-1.7569843679610868
1669909872645472008,-3.5454710186053124,4.939287513734783,8.214413862956008,-1.0,-5.575567704367959,-1.7569843679610868
1669909872684731349,-3.615378961694091,4.960550251245117,8.213959454207032,-1.0,-5.999999999981294,-1.7569843679610495
1669909872703918360,-3.620660827290862,4.960025730371093,8.21288925281009,-1.0,-5.999999999981294,-1.8134148046318297
1669909872711659530,-3.620660827290862,4.960025730371093,8.21288925281009,-1.0,-5.688879454566275,-1.8134148046318297
1669909872729784713,-3.620660827290862,4.960025730371093,8.21288925281009,-1.0,-5.690015147831744,-1.8134148046318297
1669909872752687335,-3.620660827290862,4.960025730371093,8.21288925281009,-1.0,-5.691285242766298,-1.8134148046318297
1669909872863365685,-3.620660827290862,4.960025730371093,8.21288925281009,-1.0,-5.691285242766298,-1.8134148046318297
1669909872887799243,-3.66676090235667,4.968552649290147,8.22213659856325,-1.0,-5.999999999981299,-1.813414804631799
1669909872887826883,-3.66676090235667,4.968552649290147,8.22213659856325,-1.0,-5.799571982209398,-1.813414804631799
1669909872887891721,-3.589531164121196,4.9459413292713785,8.178545933699663,-1.0,-5.801432529034806,-1.687484085554212
1669909872887930348,-3.589531164121196,4.9459413292713785,8.178545933699663,-1.0,-5.801432529034806,-1.687484085554212
1669909872888005830,-3.589531164121196,4.9459413292713785,8.178545933699663,-1.0,-5.8048817512373585,-1.687484085554212
1669909872903624058,-3.589531164121196,4.9459413292713785,8.178545933699663,-1.0,-5.806904906930346,-1.687484085554212
1669909872922110196,-3.6296075202669056,4.9598594126211335,8.148012705013624,-1.0,-5.999999999981303,-1.6874840855541986
1669909872938411486,-3.6296075202669056,4.9598594126211335,8.148012705013624,-1.0,-5.999999999981303,-1.6874840855541986
1669909872955879338,-3.6296075202669056,4.9598594126211335,8.148012705013624,-1.0,-5.868398374688996,-1.6874840855541986
1669909872972345710,-3.6296075202669056,4.9598594126211335,8.148012705013624,-1.0,-5.868398374688996,-1.6874840855541986
1669909872994200496,-3.599296061851969,4.936680013585287,8.128219314273064,-1.0,-5.999999999981308,-1.542630605393956
1669909873010772617,-3.599296061851969,4.936680013585287,8.128219314273064,-1.0,-5.913982348197033,-1.542630605393956
1669909873028269225,-3.599296061851969,4.936680013585287,8.128219314273064,-1.0,-5.913982348197033,-1.542630605393956
1669909873049509577,-3.599296061851969,4.936680013585287,8.128219314273064,-1.0,-5.919037503585079,-1.542630605393956
1669909873066441556,-3.599296061851969,4.936680013585287,8.128219314273064,-1.0,-5.919037503585079,-1.542630605393956
1669909873089408447,-3.5841839002156166,4.9324683493854575,8.112350322659676,-1.0,-5.923713535969326,-1.5660601481738785
1669909873111306162,-3.5841839002156166,4.9324683493854575,8.112350322659676,-1.0,-5.926173686593753,-1.5660601481738785
1669909873128213918,-3.601469808229093,4.947023527261269,8.112158054168553,-1.0,-5.999999999981312,-1.5660601481738838
1669909873149150751,-3.601469808229093,4.947023527261269,8.112158054168553,-1.0,-5.944894718921719,-1.5660601481738838
1669909873165994799,-3.601469808229093,4.947023527261269,8.112158054168553,-1.0,-5.944894718921719,-1.5660601481738838
1669909873192059361,-3.552253955014829,4.9007181688513874,8.114475929792256,-1.0,-5.949968444805325,-1.4960597455445084
1669909873213111373,-3.552253955014829,4.9007181688513874,8.114475929792256,-1.0,-5.949968444805325,-1.4960597455445084
1669909873232795525,-3.5943738752685825,4.926788048383248,8.111130619104237,-1.0,-5.954714646389262,-1.6504203155580315
1669909873249689614,-3.6167025486491107,4.920526942716231,8.08125361445316,-1.0,-5.730428950023058,-1.650420315558046
1669909873268109947,-3.6167025486491107,4.920526942716231,8.08125361445316,-1.0,-5.730428950023058,-1.650420315558046
1669909873284126826,-3.6167025486491107,4.920526942716231,8.08125361445316,-1.0,-5.947916941885222,-1.650420315558046
1669909873549578338,-3.6167025486491107,4.920526942716231,8.08125361445316,-1.0,-5.950428787005612,-1.650420315558046
1669909873549645334,-3.6167025486491107,4.920526942716231,8.08125361445316,-1.0,-5.953009151365346,-1.650420315558046
1669909873549691261,-3.6167025486491107,4.920526942716231,8.08125361445316,-1.0,-5.953009151365346,-1.650420315558046
1669909873549734140,-3.6167025486491107,4.920526942716231,8.08125361445316,-1.0,-5.957640672677645,-1.650420315558046
1669909873549775690,-3.626295402844175,4.9103575218946265,8.061647952449327,-1.0,-5.305943371759308,-1.6504203155580663
1669909873549816780,-3.626295402844175,4.9103575218946265,8.061647952449327,-1.0,-5.924598274819944,-1.6504203155580663
1669909873549858402,-3.585638567282648,4.903286075595598,8.06236969035399,-1.0,-5.924598274819934,-1.6504203155581
1669909873549899480,-3.585638567282648,4.903286075595598,8.06236969035399,-1.0,-5.255657417543779,-1.6504203155581
1669909873549964489,-3.585638567282648,4.903286075595598,8.06236969035399,-1.0,-5.255657417543779,-1.6504203155581
1669909873549969452,-3.585638567282648,4.903286075595598,8.06236969035399,-1.0,-5.856707719109534,-1.6504203155581
1669909873550028923,-3.585638567282648,4.903286075595598,8.06236969035399,-1.0,-5.858395803279498,-1.6504203155581
1669909873570177080,-3.585638567282648,4.903286075595598,8.06236969035399,-1.0,-5.860151998476577,-1.6504203155581
1669909873570300006,-3.585638567282648,4.903286075595598,8.06236969035399,-1.0,-5.862001066061696,-1.6504203155581
1669909873578864454,-3.591772733912205,4.920573747508993,8.032578706662953,-1.0,-5.862001066061693,-1.650420315558109
1669909873596641763,-3.591772733912205,4.920573747508993,8.032578706662953,-1.0,-5.614753835204762,-1.650420315558109
1669909873613709508,-3.591772733912205,4.920573747508993,8.032578706662953,-1.0,-5.614753835204762,-1.650420315558109
1669909873631382511,-3.1652690631973144,4.8804880677495115,8.082448999101699,-0.9792571830409273,-4.5033944505825065,-1.52399774640247
1669909873655081250,-3.1652690631973144,4.8804880677495115,8.082448999101699,-1.0,-5.699854473653137,-1.52399774640247
1669909873670018810,-3.1652690631973144,4.8804880677495115,8.082448999101699,-1.0,-5.699854473653137,-1.52399774640247
1669909873698574724,-3.1652690631973144,4.8804880677495115,8.082448999101699,-1.0,-5.7012787573823624,-1.52399774640247
1669909873715863784,-3.1652690631973144,4.8804880677495115,8.082448999101699,-1.0,-5.7012787573823624,-1.52399774640247
1669909873736524674,-3.1191267234908935,4.866393953445923,8.089959184343398,-1.0,-5.70221709959682,-1.5745550394003072
1669909873754057529,-3.1191267234908935,4.866393953445923,8.089959184343398,-1.0,-5.70221709959682,-1.5745550394003072
1669909873770512804,-3.130951815135666,4.860389024672486,8.08009419081549,-1.0,-5.199717321438975,-1.5745550394003256
1669909873820732560,-3.130951815135666,4.860389024672486,8.08009419081549,-1.0,-5.199717321438975,-1.5745550394003256
1669909873935013704,-3.130951815135666,4.860389024672486,8.08009419081549,-1.0,-5.651400921184223,-1.5745550394003256
1669909873935019525,-3.130951815135666,4.860389024672486,8.08009419081549,-1.0,-5.651650352508165,-1.5745550394003256
1669909873935021408,-3.130951815135666,4.860389024672486,8.08009419081549,-1.0,-5.651650352508165,-1.5745550394003256
1669909873935111935,-3.130951815135666,4.860389024672486,8.08009419081549,-1.0,-5.652092453560492,-1.5745550394003256
1669909873935150798,-2.9913210802151644,4.860171467719056,8.132617803791565,-1.0,-5.6523235129033464,-1.5882309526150091
1669909873935189477,-2.9286016767871668,4.845936435597439,8.122569029483017,-1.0,-5.652323512903334,-1.5882309526150555
1669909873947689814,-2.9286016767871668,4.845936435597439,8.122569029483017,-0.9787173406421602,-4.406734914796986,-1.5882309526150555
1669909873947737324,-2.9286016767871668,4.845936435597439,8.122569029483017,-0.9787173406421602,-4.406734914796986,-1.5882309526150555
1669909873964957869,-2.9286016767871668,4.845936435597439,8.122569029483017,-1.0,-5.516255558880974,-1.5882309526150555
1669909873988072087,-2.9286016767871668,4.845936435597439,8.122569029483017,-1.0,-5.516255558880974,-1.5882309526150555
1669909874009781358,-2.9286016767871668,4.845936435597439,8.122569029483017,-1.0,-5.514942499400553,-1.5882309526150555
1669909874027084485,-2.8685914224040796,4.8371364058428,8.095267419966873,-1.0,-5.514281820625214,-1.6039498150294156
1669909874051791919,-2.8685914224040796,4.8371364058428,8.095267419966873,-1.0,-5.513614870026145,-1.6039498150294156
1669909874067766050,-2.810104979259617,4.804416623142005,8.084577324667343,-1.0,-5.513614870026136,-1.6039498150294573
1669909874083614947,-2.810104979259617,4.804416623142005,8.084577324667343,-0.9785016961107542,-4.1600591537019005,-1.6039498150294573
1669909874105756277,-2.810104979259617,4.804416623142005,8.084577324667343,-0.9785016961107542,-4.1600591537019005,-1.6039498150294573
1669909874125369912,-2.5947796237298317,4.852760758426429,8.16443622378386,-1.0,-5.363129105599908,-1.629723608488396
1669909874158919141,-2.5947796237298317,4.852760758426429,8.16443622378386,-1.0,-5.363129105599908,-1.629723608488396
1669909874176792436,-2.5947796237298317,4.852760758426429,8.16443622378386,-1.0,-5.359728055656899,-1.629723608488396
1669909874194264636,-2.5947796237298317,4.852760758426429,8.16443622378386,-1.0,-5.359728055656899,-1.629723608488396
1669909874211348020,-2.4978798971010834,4.825653627055342,8.183328719578562,-0.989753542539264,-4.149549359178144,-1.6297236084884348
1669909874253194641,-2.5011754379107147,4.87670858158415,8.142618449173746,-0.989753542539264,-4.149549359178144,-1.661795563990468
1669909874274034393,-2.5011754379107147,4.87670858158415,8.142618449173746,-1.0,-5.227464776062177,-1.661795563990468
1669909874274111242,-2.5011754379107147,4.87670858158415,8.142618449173746,-1.0,-5.227464776062177,-1.661795563990468
1669909874289202762,-2.5011754379107147,4.87670858158415,8.142618449173746,-1.0,-5.2225877109737295,-1.661795563990468
1669909874308613857,-2.5011754379107147,4.87670858158415,8.142618449173746,-1.0,-5.219886245227172,-1.661795563990468
1669909874329139618,-2.5011754379107147,4.87670858158415,8.142618449173746,-1.0,-5.219886245227172,-1.661795563990468
1669909874563450797,-2.5011754379107147,4.87670858158415,8.142618449173746,-1.0,-5.214703403933844,-1.661795563990468
1669909874633360593,-2.5011754379107147,4.87670858158415,8.142618449173746,-1.0,-5.214703403933844,-1.661795563990468
1669909874633416033,-2.52834397112799,4.835036959305104,8.184779391170224,-1.0,-4.336812228164395,-1.6118058934754274
1669909874633456570,-2.52834397112799,4.835036959305104,8.184779391170224,-1.0,-4.336812228164395,-1.6118058934754274
1669909874633495948,-2.52834397112799,4.835036959305104,8.184779391170224,-1.0,-5.118382778900568,-1.6118058934754274
1669909874633536266,-2.52834397112799,4.835036959305104,8.184779391170224,-1.0,-5.118382778900568,-1.6118058934754274
1669909874633580141,-2.52834397112799,4.835036959305104,8.184779391170224,-1.0,-5.112206288471162,-1.6118058934754274
1669909874633621480,-2.52834397112799,4.835036959305104,8.184779391170224,-1.0,-5.112206288471162,-1.6118058934754274
1669909874633660168,-2.52834397112799,4.835036959305104,8.184779391170224,-1.0,-5.106397995980087,-1.6118058934754274
1669909874633698644,-2.52834397112799,4.835036959305104,8.184779391170224,-1.0,-5.103352529146633,-1.6118058934754274
1669909874633762606,-2.4675714309083245,4.829320279327993,8.213903222535286,-1.0,-5.103352529146632,-1.6118058934754256
1669909874633767768,-2.4675714309083245,4.829320279327993,8.213903222535286,-1.0,-4.59773218962083,-1.6118058934754256
1669909874684675022,-2.4675714309083245,4.829320279327993,8.213903222535286,-1.0,-4.59773218962083,-1.6118058934754256
1669909874686589177,-2.4675714309083245,4.829320279327993,8.213903222535286,-1.0,-5.033395521142515,-1.6118058934754256
1669909874686711401,-2.4675714309083245,4.829320279327993,8.213903222535286,-1.0,-5.028324382078593,-1.6118058934754256
1669909874686773360,-2.4675714309083245,4.829320279327993,8.213903222535286,-1.0,-5.028324382078593,-1.6118058934754256
1669909874697814659,-2.4544231346149585,4.835903012268606,8.264330301292004,-1.0,-5.390399062342005,-1.611805893475397
1669909874697861257,-2.4544231346149585,4.835903012268606,8.264330301292004,-1.0,-5.390399062342005,-1.611805893475397
1669909874709822843,-2.4544231346149585,4.835903012268606,8.264330301292004,-1.0,-5.048143908401559,-1.611805893475397
1669909874726265613,-2.4544231346149585,4.835903012268606,8.264330301292004,-1.0,-5.044960600721705,-1.611805893475397
1669909874745958323,-2.485492532935583,4.833806082376684,8.265114405991875,-1.0,-5.044960600721699,-1.6118058934753656
1669909874767123425,-2.485492532935583,4.833806082376684,8.265114405991875,-1.0,-5.567843590541953,-1.6118058934753656
1669909874783979075,-2.485492532935583,4.833806082376684,8.265114405991875,-1.0,-5.567843590541953,-1.6118058934753656
1669909874808550629,-2.485492532935583,4.833806082376684,8.265114405991875,-1.0,-5.0907986553653535,-1.6118058934753656
1669909874828600155,-2.1173884029059047,5.011414512762274,8.268094191195809,-1.0,-5.088002996474879,-1.7819894850199938
1669909874844696403,-2.1173884029059047,5.011414512762274,8.268094191195809,-1.0,-5.088002996474879,-1.7819894850199938
1669909874963527149,-2.1173884029059047,5.011414512762274,8.268094191195809,-1.0,-5.082321256625164,-1.7819894850199938
1669909875022018056,-2.1173884029059047,5.011414512762274,8.268094191195809,-1.0,-5.079264801294542,-1.7819894850199938
1669909875022145508,-2.1173884029059047,5.011414512762274,8.268094191195809,-1.0,-5.079264801294542,-1.7819894850199938
1669909875022192931,-2.1065620689731586,5.025208045598976,8.318709898172866,-1.0,-5.6051151525527105,-1.7819894850199727
1669909875022236371,-2.1065620689731586,5.025208045598976,8.318709898172866,-1.0,-5.6051151525527105,-1.7819894850199727
1669909875022281546,-2.1065620689731586,5.025208045598976,8.318709898172866,-1.0,-5.123361824853341,-1.7819894850199727
1669909875053041242,-2.1065620689731586,5.025208045598976,8.318709898172866,-1.0,-5.123361824853341,-1.7819894850199727
1669909875053089024,-2.1065620689731586,5.025208045598976,8.318709898172866,-1.0,-5.118364222791068,-1.7819894850199727
1669909875053133788,-2.216128370080565,4.989650596734993,8.28285710829402,-1.0,-5.118364222791068,-1.7355981096570996
1669909875064074189,-2.2745282819639554,4.9954479480272385,8.304077022251375,-1.0,-5.999999999981245,-1.735598109657036
1669909875077021111,-2.2745282819639554,4.9954479480272385,8.304077022251375,-1.0,-5.276582898693993,-1.735598109657036
1669909875093052937,-2.2745282819639554,4.9954479480272385,8.304077022251375,-1.0,-5.276582898693993,-1.735598109657036
1669909875110986089,-2.2745282819639554,4.9954479480272385,8.304077022251375,-1.0,-5.273885480317258,-1.735598109657036
1669909875127695385,-2.2745282819639554,4.9954479480272385,8.304077022251375,-1.0,-5.272525502919715,-1.735598109657036
1669909875146184876,-2.2745282819639554,4.9954479480272385,8.304077022251375,-1.0,-5.271167960687477,-1.735598109657036
1669909875171773724,-2.2745282819639554,4.9954479480272385,8.304077022251375,-1.0,-5.269567720631513,-1.735598109657036
1669909875189234353,-2.2373798465754087,5.126354329175233,8.292410741615155,-1.0,-5.269567720631523,-1.8435660749618668
1669909875205730055,-2.2373798465754087,5.126354329175233,8.292410741615155,-1.0,-5.944113125692741,-1.8435660749618668
1669909875227753427,-2.2373798465754087,5.126354329175233,8.292410741615155,-1.0,-5.33340808142882,-1.8435660749618668
1669909875244050163,-2.2373798465754087,5.126354329175233,8.292410741615155,-1.0,-5.33340808142882,-1.8435660749618668
1669909875269528329,-2.2373798465754087,5.126354329175233,8.292410741615155,-1.0,-5.331820948516425,-1.8435660749618668
1669909875289776139,-2.315738496782928,5.157092444485902,8.245571027564862,-1.0,-5.330907843396806,-1.7711849883143562
1669909875306716796,-2.315738496782928,5.157092444485902,8.245571027564862,-1.0,-5.329990206959372,-1.7711849883143562
1669909875334090426,-2.315738496782928,5.157092444485902,8.245571027564862,-1.0,-5.328632627648669,-1.7711849883143562
1669909875377147657,-2.315738496782928,5.157092444485902,8.245571027564862,-1.0,-5.328632627648669,-1.7711849883143562
1669909875614860190,-2.431557188526591,5.188293325901782,8.23508171448266,-1.0,-5.99999999998127,-1.7711849883142767
1669909875614914296,-2.392673949495753,5.146683919430529,8.247766327948924,-1.0,-5.99999999998127,-1.749010719353324
1669909875656448620,-2.392673949495753,5.146683919430529,8.247766327948924,-1.0,-5.561769308880396,-1.749010719353324
1669909875656464694,-2.392673949495753,5.146683919430529,8.247766327948924,-1.0,-5.561769308880396,-1.749010719353324
1669909875656502828,-2.392673949495753,5.146683919430529,8.247766327948924,-1.0,-5.562950870961308,-1.749010719353324
1669909875656510638,-2.392673949495753,5.146683919430529,8.247766327948924,-1.0,-5.563636594245581,-1.749010719353324
1669909875656523314,-2.392673949495753,5.146683919430529,8.247766327948924,-1.0,-5.563636594245581,-1.749010719353324
1669909875656562291,-2.392673949495753,5.146683919430529,8.247766327948924,-1.0,-5.564829206458337,-1.749010719353324
1669909875656575226,-2.392673949495753,5.146683919430529,8.247766327948924,-1.0,-5.56545797232503,-1.749010719353324
1669909875656578686,-2.48347702620724,5.1829839859508695,8.266439358670764,-1.0,-5.565457972325029,-1.7490107193532707
1669909875656597143,-2.48347702620724,5.1829839859508695,8.266439358670764,-1.0,-5.999999999981269,-1.7490107193532707
1669909875656613389,-2.48347702620724,5.1829839859508695,8.266439358670764,-1.0,-5.737285379037681,-1.7490107193532707
1669909875656629360,-2.48347702620724,5.1829839859508695,8.266439358670764,-1.0,-5.739034322566444,-1.7490107193532707
1669909875656645437,-2.48347702620724,5.1829839859508695,8.266439358670764,-1.0,-5.739034322566444,-1.7490107193532707
1669909875656662085,-2.48347702620724,5.1829839859508695,8.266439358670764,-1.0,-5.742515269940038,-1.7490107193532707
1669909875667764939,-2.48347702620724,5.1829839859508695,8.266439358670764,-1.0,-5.742515269940038,-1.7490107193532707
1669909875690520729,-2.48347702620724,5.1829839859508695,8.266439358670764,-1.0,-5.74634037747351,-1.7490107193532707
1669909875709480094,-2.48347702620724,5.1829839859508695,8.266439358670764,-1.0,-5.74634037747351,-1.7490107193532707
1669909875726991166,-2.5477744168283243,5.355355671743648,8.203244433524153,-1.0,-5.999999999981259,-1.851605884725118
1669909875742820071,-2.5477744168283243,5.355355671743648,8.203244433524153,-1.0,-5.999999999981259,-1.851605884725118
1669909875766602374,-2.5477744168283243,5.355355671743648,8.203244433524153,-1.0,-5.9064210275722475,-1.851605884725118
1669909875782530173,-2.5477744168283243,5.355355671743648,8.203244433524153,-1.0,-5.909191610181739,-1.851605884725118
1669909875831012888,-2.5477744168283243,5.355355671743648,8.203244433524153,-1.0,-5.909191610181739,-1.851605884725118
1669909875848812976,-2.5477744168283243,5.355355671743648,8.203244433524153,-1.0,-5.914660535333649,-1.851605884725118
1669909875848833662,-2.5477744168283243,5.355355671743648,8.203244433524153,-1.0,-5.917436195919623,-1.851605884725118
1669909875866582745,-2.5477744168283243,5.355355671743648,8.203244433524153,-1.0,-5.917436195919623,-1.851605884725118
1669909875882260579,-2.560538247034184,5.392093670070579,8.09858206247865,-1.0,-5.9999999999812506,-1.9236087799015014
1669909875905499757,-2.560538247034184,5.392093670070579,8.09858206247865,-1.0,-5.9999999999812506,-1.9236087799015014
1669909876034248282,-2.560538247034184,5.392093670070579,8.09858206247865,-1.0,-5.9999999999812506,-1.9236087799015014
1669909876034297250,-2.560538247034184,5.392093670070579,8.09858206247865,-1.0,-5.9999999999812506,-1.9236087799015014
1669909876034368174,-2.560538247034184,5.392093670070579,8.09858206247865,-1.0,-5.9999999999812506,-1.9236087799015014
1669909876034380199,-2.560538247034184,5.392093670070579,8.09858206247865,-1.0,-5.9999999999812506,-1.9236087799015014
1669909876034384401,-2.560538247034184,5.392093670070579,8.09858206247865,-1.0,-5.9999999999812506,-1.9236087799015014
1669909876040345655,-2.6194661351308506,5.403512879412398,8.07743222381674,-1.0,-5.999999999981232,-1.9236087799014785
1669909876040431319,-2.6194661351308506,5.403512879412398,8.07743222381674,-1.0,-5.999999999981232,-1.9236087799014785
1669909876053469352,-2.6194661351308506,5.403512879412398,8.07743222381674,-1.0,-5.999999999981232,-1.9236087799014785
1669909876094916103,-2.6253575749571034,5.3806853984870395,8.07759445104367,-0.937483640572411,-5.99999999998121,-1.9236087799014816
1669909876114523331,-2.6253575749571034,5.3806853984870395,8.07759445104367,-0.937483640572411,-5.99999999998121,-1.9236087799014816
1669909876131242374,-2.4506785638506123,5.364949176219889,7.516201845738951,-1.0,-5.99999999998121,-1.9052573293390045
1669909876149509990,-2.4506785638506123,5.364949176219889,7.516201845738951,-1.0,-5.99999999998121,-1.9052573293390045
1669909876167137951,-2.468549613511075,5.359093618116185,7.4863555611676755,-1.0,-5.999999999981204,-1.9052573293390085
1669909876186963141,-2.468549613511075,5.359093618116185,7.4863555611676755,-1.0,-5.999999999981204,-1.9052573293390085
1669909876202861560,-2.468549613511075,5.359093618116185,7.4863555611676755,-1.0,-5.999999999981204,-1.9052573293390085
1669909876223871590,-2.431205616177157,5.344273181339894,7.681484115119847,-0.976581192021307,-5.873205113030072,-1.867894604796408
1669909876248266962,-2.431205616177157,5.344273181339894,7.681484115119847,-1.0,-5.999999999981185,-1.867894604796408
1669909876269992513,-2.431205616177157,5.344273181339894,7.681484115119847,-1.0,-5.999999999981185,-1.867894604796408
1669909876287915150,-2.431205616177157,5.344273181339894,7.681484115119847,-1.0,-5.999999999981185,-1.867894604796408
1669909876308112490,-2.431205616177157,5.344273181339894,7.681484115119847,-1.0,-5.999999999981185,-1.867894604796408
1669909876324825282,-2.4383733827676863,5.376300820392911,7.7273171481450005,-0.981591916830976,-5.735627339000928,-1.9241371750774487
1669909876347716274,-2.4383733827676863,5.376300820392911,7.7273171481450005,-1.0,-5.999999999981176,-1.9241371750774487
1669909876364527119,-2.4383733827676863,5.376300820392911,7.7273171481450005,-1.0,-5.999999999981176,-1.9241371750774487
1669909876388333415,-2.4383733827676863,5.376300820392911,7.7273171481450005,-1.0,-5.999999999981176,-1.9241371750774487
1669909876403141716,-2.4383733827676863,5.376300820392911,7.7273171481450005,-1.0,-5.999999999981176,-1.9241371750774487
1669909876427960331,-2.3240294713583083,5.317315467876736,7.703085624869625,-1.0,-5.999999999981176,-1.9215530902090177
1669909876672951665,-2.3139902372256724,5.294830410623277,7.6744099484991395,-1.0,-5.999999999981157,-1.9215530902090492
1669909876712975773,-2.3139902372256724,5.294830410623277,7.6744099484991395,-0.9654055607507888,-5.451632362940721,-1.9215530902090492
1669909876713015626,-2.263091465161538,5.272384130892272,7.675748588387058,-0.9165073862478756,-4.617594353485303,-1.9215530902090867
1669909876713051851,-2.263091465161538,5.272384130892272,7.675748588387058,-0.9165073862478756,-4.617594353485303,-1.9215530902090867
1669909876713088030,-2.2377290669621956,5.262720119047871,7.676290442878322,-0.9883180119484934,-5.5351502284182725,-1.9215530902091047
1669909876713124802,-2.2377290669621956,5.262720119047871,7.676290442878322,-1.0,-5.9528013011424905,-1.9215530902091047
1669909876713160430,-2.2377290669621956,5.262720119047871,7.676290442878322,-1.0,-5.9550577645164795,-1.9215530902091047
1669909876713196314,-2.2377290669621956,5.262720119047871,7.676290442878322,-1.0,-5.9550577645164795,-1.9215530902091047
1669909876713232331,-2.2377290669621956,5.262720119047871,7.676290442878322,-1.0,-5.959543184135517,-1.9215530902091047
1669909876713268081,-2.2377290669621956,5.262720119047871,7.676290442878322,-1.0,-5.959543184135517,-1.9215530902091047
1669909876713303218,-2.2377290669621956,5.262720119047871,7.676290442878322,-1.0,-5.96426295010525,-1.9215530902091047
1669909876713340609,-2.2377290669621956,5.262720119047871,7.676290442878322,-1.0,-5.96426295010525,-1.9215530902091047
1669909876719085278,-2.2377290669621956,5.262720119047871,7.676290442878322,-1.0,-5.967990824284356,-1.9215530902091047
1669909876719141673,-2.2519694754705593,5.240693879372652,7.646402295907673,-1.0,-5.967990824284355,-1.921553090209108
1669909876719185297,-2.2519694754705593,5.240693879372652,7.646402295907673,-1.0,-5.87230533463361,-1.921553090209108
1669909876744000942,-2.2519694754705593,5.240693879372652,7.646402295907673,-1.0,-5.963861551337475,-1.921553090209108
1669909876766925533,-2.2519694754705593,5.240693879372652,7.646402295907673,-1.0,-5.963861551337475,-1.921553090209108
1669909876788806563,-2.0496126005277797,5.3242065432139,7.72321644075745,-1.0,-5.9682013303720085,-2.0178716629687363
1669909876811797410,-2.0496126005277797,5.3242065432139,7.72321644075745,-1.0,-5.9682013303720085,-2.0178716629687363
1669909876838507499,-2.0496126005277797,5.3242065432139,7.72321644075745,-1.0,-5.97214223455289,-2.0178716629687363
1669909876856162120,-1.9523343858110291,5.2801774082024275,7.694663059599081,-0.8343162160864172,-2.2433083164138274,-2.0178716629688105
1669909876872334317,-1.9523343858110291,5.2801774082024275,7.694663059599081,-1.0,-5.758316620313389,-2.0178716629688105
1669909876888172722,-1.9523343858110291,5.2801774082024275,7.694663059599081,-1.0,-5.758316620313389,-2.0178716629688105
1669909876906498169,-1.9523343858110291,5.2801774082024275,7.694663059599081,-1.0,-5.759521432717618,-2.0178716629688105
1669909876937214457,-1.7677048262941224,5.337143951400059,7.727260541803518,-1.0,-5.760185283886551,-2.1414636075441202
1669909877062790276,-1.7677048262941224,5.337143951400059,7.727260541803518,-1.0,-5.760185283886551,-2.1414636075441202
1669909877062830490,-1.7677048262941224,5.337143951400059,7.727260541803518,-1.0,-5.761496207079809,-2.1414636075441202
1669909877100283560,-1.7677048262941224,5.337143951400059,7.727260541803518,-1.0,-5.7621640140214225,-2.1414636075441202
1669909877100488820,-1.68387512975145,5.3278936524477825,7.727362480918177,-1.0,-5.762164014021407,-2.1414636075441744
1669909877100540598,-1.68387512975145,5.3278936524477825,7.727362480918177,-0.9481010424167868,-4.310000947552594,-2.1414636075441744
1669909877100583101,-1.68387512975145,5.3278936524477825,7.727362480918177,-0.9977454081989668,-5.607243361744085,-2.1414636075441744
1669909877100624481,-1.68387512975145,5.3278936524477825,7.727362480918177,-0.9977301745945578,-5.606862038234964,-2.1414636075441744
1669909877110180162,-1.68387512975145,5.3278936524477825,7.727362480918177,-0.9977301745945578,-5.606862038234964,-2.1414636075441744
1669909877110263340,-1.68387512975145,5.3278936524477825,7.727362480918177,-0.9977011033140526,-5.606134294032253,-2.1414636075441744
1669909877124950087,-1.5962931721170326,5.288113705909916,7.7064297230426995,-0.9977011033140526,-5.606134294032245,-2.141463607544239
1669909877148102029,-1.5962931721170326,5.288113705909916,7.7064297230426995,-0.9695728749694594,-3.7508376257112017,-2.141463607544239
1669909877162765922,-1.541114721485352,5.294664241909218,7.705508786359443,-1.0,-3.61735941794647,-2.1414636075442726
1669909877184870858,-1.5456181504213566,5.274821259617043,7.743331509748115,-0.9966001332549608,-5.2992666749728095,-2.071749642485946
1669909877209102624,-1.5456181504213566,5.274821259617043,7.743331509748115,-0.9966001332549608,-5.2992666749728095,-2.071749642485946
1669909877236468059,-1.5456181504213566,5.274821259617043,7.743331509748115,-0.9965501557060714,-5.293734188340408,-2.071749642485946
1669909877252017967,-1.5456181504213566,5.274821259617043,7.743331509748115,-0.9965501557060714,-5.293734188340408,-2.071749642485946
1669909877274262408,-1.5563651413356352,5.2668976789452415,7.743147169691156,-1.0,-5.105847916004774,-2.0717496424859494
1669909877293503499,-1.1468304187690306,5.44121444282311,7.811795031171869,-1.0,-5.105847916004774,-2.3428760468905896
1669909877310158481,-1.1468304187690306,5.44121444282311,7.811795031171869,-0.9971237207043038,-5.267853737869275,-2.3428760468905896
1669909877329698657,-1.1468304187690306,5.44121444282311,7.811795031171869,-0.9971062834510296,-5.265325056961352,-2.3428760468905896
1669909877358598511,-1.1468304187690306,5.44121444282311,7.811795031171869,-0.997085566525596,-5.262331800027923,-2.3428760468905896
1669909877411103064,-1.0407590937763564,5.434022436332184,7.8307396635305,-0.997085566525596,-5.262331800027925,-2.3428760468906193
1669909877425638356,-1.1758509349972122,5.388340840529877,7.829998330761106,-1.0,-4.37571869365849,-2.098348662251833
1669909877425684000,-1.1758509349972122,5.388340840529877,7.829998330761106,-1.0,-5.16935198459074,-2.098348662251833
1669909877425764084,-1.1519534758250158,5.396094841825111,7.829357689464583,-1.0,-4.394580604548742,-2.09834866225184
1669909877448933803,-1.1519534758250158,5.396094841825111,7.829357689464583,-1.0,-5.118703748607961,-2.09834866225184
1669909877906396835,-1.1519534758250158,5.396094841825111,7.829357689464583,-1.0,-5.115157602024375,-2.09834866225184
1669909877982685990,-1.0813759884755056,5.538873000012977,7.69847855552484,-1.0,-5.115157602024375,-2.201045975083719
1669909877982819663,-1.0813759884755056,5.538873000012977,7.69847855552484,-1.0,-5.108671152107733,-2.201045975083719
1669909877982878564,-1.0609910497020754,5.542668086975375,7.7081793934550085,-1.0,-5.108671152107733,-2.201045975083724
1669909877983480061,-1.0609910497020754,5.542668086975375,7.7081793934550085,-1.0,-4.9195666158281295,-2.201045975083724
1669909877983486502,-1.0609910497020754,5.542668086975375,7.7081793934550085,-1.0,-5.079421393770234,-2.201045975083724
1669909877983488861,-1.041871714926223,5.552841461930555,7.707588010683739,-1.0,-4.45664032450366,-2.201045975083722
1669909877983574085,-1.041871714926223,5.552841461930555,7.707588010683739,-1.0,-4.45664032450366,-2.201045975083722
1669909877983615675,-1.041871714926223,5.552841461930555,7.707588010683739,-1.0,-5.032742128522591,-2.201045975083722
1669909877983656866,-1.041871714926223,5.552841461930555,7.707588010683739,-1.0,-5.032742128522591,-2.201045975083722
1669909877983698741,-1.041871714926223,5.552841461930555,7.707588010683739,-1.0,-5.0258599498087495,-2.201045975083722
1669909877983747159,-0.9872486852872213,5.587930389124044,7.747429707929522,-1.0,-5.025859949808751,-2.2010459750837175
1669909877983785547,-0.9872486852872213,5.587930389124044,7.747429707929522,-1.0,-4.939107457724226,-2.2010459750837175
1669909878459614799,-0.9872486852872213,5.587930389124044,7.747429707929522,-1.0,-5.0038816228109235,-2.2010459750837175
1669909878459729932,-0.9937034277593024,5.591874790243887,7.7476158430171065,-1.0,-5.003881622810926,-2.201045975083706
1669909878459775949,-0.9937034277593024,5.591874790243887,7.7476158430171065,-1.0,-5.147876034151549,-2.201045975083706
1669909878459881196,-0.9937034277593024,5.591874790243887,7.7476158430171065,-1.0,-5.006240178553049,-2.201045975083706
1669909878459935497,-0.9937034277593024,5.591874790243887,7.7476158430171065,-1.0,-5.006240178553049,-2.201045975083706
1669909878459977862,-0.9937034277593024,5.591874790243887,7.7476158430171065,-1.0,-4.999525215734726,-2.201045975083706
1669909878460018874,-0.9611418955339588,5.613948696687621,7.777832737081988,-1.0,-4.999525215734728,-2.2010459750836953
1669909878460060741,-0.9611418955339588,5.613948696687621,7.777832737081988,-1.0,-5.119047795041224,-2.2010459750836953
1669909878460136304,-1.0058350092163448,5.619955743100297,7.779038801267111,-1.0,-5.999999999981097,-2.2010459750836486
1669909878460141479,-1.0058350092163448,5.619955743100297,7.779038801267111,-1.0,-5.999999999981097,-2.2010459750836486
1669909878460199095,-1.0058350092163448,5.619955743100297,7.779038801267111,-1.0,-5.07895684647476,-2.2010459750836486
1669909878460304794,-1.0058350092163448,5.619955743100297,7.779038801267111,-1.0,-5.07895684647476,-2.2010459750836486
1669909878460371114,-1.0058350092163448,5.619955743100297,7.779038801267111,-1.0,-5.072789058384038,-2.2010459750836486
1669909878460414773,-0.9559197020384947,5.630603051982105,7.829285388497231,-1.0,-5.38883115147893,-2.2010459750836358
1669909878460456401,-0.9559197020384947,5.630603051982105,7.829285388497231,-1.0,-5.38883115147893,-2.2010459750836358
1669909878505227278,-0.9559197020384947,5.630603051982105,7.829285388497231,-1.0,-5.082755807768953,-2.2010459750836358
1669909878505297375,-0.9559197020384947,5.630603051982105,7.829285388497231,-1.0,-5.082755807768953,-2.2010459750836358
1669909878505351775,-0.9559197020384947,5.630603051982105,7.829285388497231,-1.0,-5.076773497128068,-2.2010459750836358
1669909878505393392,-1.0190785989166016,5.627425071553029,7.830625843032303,-1.0,-5.076773497128069,-2.2010459750835882
1669909878505434073,-1.0190785989166016,5.627425071553029,7.830625843032303,-1.0,-5.999999999981098,-2.2010459750835882
1669909878505495031,-1.0190785989166016,5.627425071553029,7.830625843032303,-1.0,-5.18633467998903,-2.2010459750835882
1669909878505558087,-1.0190785989166016,5.627425071553029,7.830625843032303,-1.0,-5.18633467998903,-2.2010459750835882
1669909878505659345,-1.0190785989166016,5.627425071553029,7.830625843032303,-1.0,-5.181949286086067,-2.2010459750835882
1669909878505703685,-1.0190785989166016,5.627425071553029,7.830625843032303,-1.0,-5.181949286086067,-2.2010459750835882
1669909878505746181,-1.0190785989166016,5.627425071553029,7.830625843032303,-1.0,-5.17751084382049,-2.2010459750835882
1669909878505823106,-1.0420555815965789,5.652160664012772,7.86167257222698,-1.0,-5.177510843820496,-2.201045975083521
1669909878505869117,-1.0420555815965789,5.652160664012772,7.86167257222698,-0.9961412661879788,-5.999999999981104,-2.201045975083521
1669909878505910477,-1.0420555815965789,5.652160664012772,7.86167257222698,-1.0,-5.307914386928753,-2.201045975083521
1669909878506038926,-1.142866430573537,5.648892446201708,7.862208597378586,-0.9932779172858004,-5.999999999981115,-2.20104597508345
1669909878506120315,-1.142866430573537,5.648892446201708,7.862208597378586,-0.9932779172858004,-5.999999999981115,-2.20104597508345
1669909878506164543,-1.142866430573537,5.648892446201708,7.862208597378586,-1.0,-5.492867274704137,-2.20104597508345
1669909878506204457,-1.142866430573537,5.648892446201708,7.862208597378586,-1.0,-5.492867274704137,-2.20104597508345
1669909878506244573,-1.142866430573537,5.648892446201708,7.862208597378586,-1.0,-5.492851508720619,-2.20104597508345
1669909878982020670,-1.142866430573537,5.648892446201708,7.862208597378586,-1.0,-5.4928426183525465,-2.20104597508345
1669909878995656573,-1.142866430573537,5.648892446201708,7.862208597378586,-1.0,-5.4928426183525465,-2.20104597508345
1669909878995702121,-1.142866430573537,5.648892446201708,7.862208597378586,-1.0,-5.492827021969368,-2.20104597508345
1669909878995721266,-1.142866430573537,5.648892446201708,7.862208597378586,-1.0,-5.492827021969368,-2.20104597508345
1669909878995734228,-1.142866430573537,5.648892446201708,7.862208597378586,-1.0,-5.49280561219578,-2.20104597508345
1669909878995745583,0.026911747664847205,0.03257262253077147,9.919742790678054,-1.0,-5.492805612195791,5.6759686081884435e-12
1669909878995756576,0.026911747664847205,0.03257262253077147,9.919742790678054,-1.0,-5.999999999981125,5.6759686081884435e-12
1669909879045892864,-1.4379065213495112,5.555878753893687,7.897559253194839,-1.0,-5.6115676609770695,-1.709638349706219
1669909879045895229,-1.4379065213495112,5.555878753893687,7.897559253194839,-1.0,-5.6115676609770695,-1.709638349706219
1669909879046010032,-1.4379065213495112,5.555878753893687,7.897559253194839,-1.0,-5.613309467747774,-1.709638349706219
1669909879046013563,-1.4379065213495112,5.555878753893687,7.897559253194839,-1.0,-5.613309467747774,-1.709638349706219
1669909879046015946,-1.4379065213495112,5.555878753893687,7.897559253194839,-1.0,-5.614886783250644,-1.709638349706219
1669909879046019202,-1.5035253899815166,5.569308466318734,7.896622916833518,-1.0,-5.9999999999811395,-1.7096383497061638
1669909879046021741,-1.5035253899815166,5.569308466318734,7.896622916833518,-1.0,-5.9999999999811395,-1.7096383497061638
1669909879046023985,-1.5035253899815166,5.569308466318734,7.896622916833518,-1.0,-5.776884320308226,-1.7096383497061638
1669909879046056127,-1.5035253899815166,5.569308466318734,7.896622916833518,-1.0,-5.776884320308226,-1.7096383497061638
1669909879046106476,-1.5035253899815166,5.569308466318734,7.896622916833518,-1.0,-5.780546783049036,-1.7096383497061638
1669909879046134851,-1.5035253899815166,5.569308466318734,7.896622916833518,-1.0,-5.783309301376302,-1.7096383497061638
1669909879046137360,-1.5035253899815166,5.569308466318734,7.896622916833518,-1.0,-5.783309301376302,-1.7096383497061638
