%time,field.header.seq,field.header.stamp,field.header.frame_id,field.position.x,field.position.y,field.position.z,field.velocity.x,field.velocity.y,field.velocity.z,field.acceleration.x,field.acceleration.y,field.acceleration.z,field.orientation.x,field.orientation.y,field.orientation.z,field.angular_velocity.x,field.angular_velocity.y,field.angular_velocity.z
1669909809169809037,17976,1669909808752496236,,-1.3582058131341237,-5.104394976149961,1.030161596353326,0.07099998415798434,-0.046999960278452754,0.00199997663850223,-2.999261395732126e-141,-5.4737561457083025e-142,-5.33719287292925e-141,-0.0008123381448541522,-0.018775875376649154,0.09133773459287653,-5.479577294155794e-07,1.3614387337129405e-07,6.147962561518637e-07
1669909809207439505,17977,1669909808934940941,,-1.3434559006797238,-5.117250039572435,1.0400050257912583,0.07199998433009784,-0.0579999601103018,0.004999976892310166,2.3567229001612168e-144,-2.20508263667457e-146,5.518116051247615e-143,-0.007426634629528195,-0.017935996715891633,0.11666473126336285,-5.487162920287884e-07,1.365388000997273e-07,6.199374651970231e-07
1669909809305401773,17978,1669909809111561976,,-1.3278122247668118,-5.1321882672584795,1.0400762405515842,0.07399989694889036,-0.0699994336863752,0.006999889651532519,-1.9208854609743652e-139,-1.8173623901912225e-139,-5.010692556346237e-140,-0.009400019312796104,-0.015370360632516622,0.14265320590384079,-5.486956992719156e-07,1.371290295144364e-07,6.246818217344568e-07
1669909809692285488,17979,1669909809276567454,,-1.3125056192342848,-5.152177966626051,1.0396036110966205,0.07400002728112859,-0.09099962289512681,0.00899993636315333,6.246219708017317e-232,-2.8096811684966523e-229,-1.6622729179033947e-232,-0.007827969672517199,-0.010492327481442132,0.1767687322548479,-5.480699329125976e-07,1.380418378652024e-07,6.303987042176778e-07
1669909809701154805,17980,1669909809478425998,,-1.29546055969034,-5.169441525887511,1.0395989005414186,0.07100024596892199,-0.09499961079883042,0.009999891800207043,2.877263595849218e-298,4.4472785655791036e-297,1.4330639782491527e-296,-0.0027101415786923155,-0.004317625120759061,0.21470338219860885,-5.470296916373076e-07,1.391149917247507e-07,6.366435644864831e-07
1669909810117725019,17981,1669909809644884505,,-1.2808251298556845,-5.186866546784533,1.0482832080072075,0.06800015857238313,-0.10499938047337894,0.010999920886720176,0.0,0.0,0.0,0.0032472767369267075,0.0016414072436035099,0.2494902092112401,-5.46165961158326e-07,1.401555701586903e-07,6.424558821426401e-07
1669909810144157435,17982,1669909809812949680,,-1.2652484235968864,-5.202336953638168,1.0499896180601118,0.06699998524932171,-0.10799995691316507,0.010999978247847673,-3.0198744003117017e-64,-6.764995080081976e-64,-6.632959817641664e-62,0.00918102404488863,0.008015304080942087,0.28829864676607997,-5.452708607547135e-07,1.414345060573701e-07,6.498984719086823e-07
1669909810145185545,17983,1669909809941600451,,-1.253430361314635,-5.214618921929173,1.0502369412670103,0.0650002578405398,-0.11099954689563726,0.010000114151036688,-5.799878573567712e-107,-4.3453205691893634e-106,-3.070038146668387e-104,0.012389308935620846,0.01191690386802513,0.3139217071321596,-5.449765698722005e-07,1.4208480321052982e-07,6.540393391629362e-07
1669909810265562759,17984,1669909810072519519,,-1.2412105452455504,-5.225355366158461,1.050118457663003,0.06399998435608897,-0.10999995591416965,0.008999976930638124,-1.6200825142851174e-76,-1.2471847397413707e-76,2.9234424897461453e-79,0.015601569591241926,0.01636135222117474,0.3461617498676688,-5.447587160004608e-07,1.428257660900851e-07,6.590978941993986e-07
1669909810633533867,17985,1669909810196805473,,-1.2355644153076553,-5.234673228021236,1.0502661385388168,0.049000646660398536,-0.10300026474456378,0.009999932032491441,0.0,0.0,0.0,0.01869939473611204,0.020533511467194288,0.3807744043641357,-5.445188185226467e-07,1.4347397071150953e-07,6.642790702340344e-07
1669909810708546214,17986,1669909810336464441,,-1.2296802452746216,-5.2430523099934465,1.0498169015620833,0.03699998346022996,-0.09199995498863685,0.009999975609555704,-1.1493090541543121e-153,-5.558678769535481e-153,-1.518971492171161e-155,0.02100434298881204,0.02328817797083005,0.41011714201446203,-5.444031665595639e-07,1.4387574639667002e-07,6.68668523773683e-07
1669909810709370111,17987,1669909810441760636,,-1.2221932834772082,-5.2503664700227874,1.0497841413069176,0.03699998346022996,-0.09199995498863685,0.009999975609555704,0.0,0.0,0.0,0.022029458295502735,0.024374273739676156,0.4256338940063191,-5.443768779439064e-07,1.4404508409414488e-07,6.710733022251202e-07
1669909810782803934,17988,1669909810495006794,,-1.223127698160612,-5.252980249026967,1.0501926489372073,0.026999983106683438,-0.08499995451527195,0.010999975088196773,-5.152919015677707e-231,-2.0611676062710827e-230,-3.2978681700337323e-229,0.022493434279734714,0.024745079598353925,0.4334194149288919,-5.443827262366948e-07,1.4405881446681168e-07,6.719015038467339e-07
1669909810858234680,17989,1669909810670903438,,-1.2164237154778323,-5.262862881704215,1.0588755721654732,0.01900045716328632,-0.07700042835142802,0.009000093164895851,-1.5586724467226482e-65,1.2243247045307951e-65,2.1534212770360582e-64,0.02451296121441615,0.025438964167314282,0.46533442007218007,-5.442356256045563e-07,1.441127374117537e-07,6.765222664286654e-07
1669909811255499244,17990,1669909810790899334,,-1.210166548413806,-5.2700712745172815,1.060039099546823,0.01900045716328632,-0.07700042835142802,0.009000093164895851,5.992545734006014e-95,-1.4981364335015035e-95,1.8726705418768793e-96,0.026646229056463966,0.02485238520029931,0.4799138178487379,-5.438572458398665e-07,1.439804687943959e-07,6.775294384104704e-07
1669909811255503011,17991,1669909810845555222,,-1.2072873713074588,-5.273329958024123,1.0598363819710517,0.01900045716328632,-0.07700042835142802,0.009000093164895851,-8.276284646623072e-141,-1.6031888328648677e-140,-5.580065253030303e-143,0.027741550308075347,0.02447022540968291,0.48268702098726557,-5.436833078111575e-07,1.439029904033293e-07,6.773046719045757e-07
1669909811255506324,17992,1669909810899178070,,-1.208250353870194,-5.271083022375101,1.060047098446991,0.01699998252875931,-0.06299995343068032,0.003999974235958431,0.0,0.0,0.0,0.028718165014705477,0.024084082425677167,0.4824896690030265,-5.435901440085827e-07,1.438131390035858e-07,6.763083611964182e-07
1669909811287836107,17993,1669909811065311371,,-1.2031957795384454,-5.269851044220284,1.0600039648956772,0.021999741655867287,-0.04200096363955727,0.003000022097947072,4.5112099713448e-77,2.5567915658860014e-77,1.360400938666976e-78,0.03067994877576119,0.02322703450671071,0.46764809253705053,-5.434450581345932e-07,1.4363631672894354e-07,6.71063499894348e-07
1669909811682199942,17994,1669909811192514419,,-1.1980426179814077,-5.257874578187361,1.0601625068227727,0.037999982240506526,-0.011999952487483513,0.002999973810885198,0.0,0.0,0.0,0.030701024756641715,0.023279594768494505,0.44393375829108805,-5.435726055703345e-07,1.4359732722049245e-07,6.656367979183372e-07
1669909811788394374,17995,1669909811374440431,,-1.1897232317234072,-5.242455450812948,1.0600454056952704,0.05299998205754513,0.014000047543595802,0.0039999735410803814,0.0,0.0,0.0,0.028292425612209016,0.02491244536299675,0.3696170754516146,-5.438419198604425e-07,1.436551064902807e-07,6.510627269368638e-07
1669909811788432495,17996,1669909811499610808,,-1.1838216066917597,-5.228750496834704,1.0601963302647832,0.06199998192030405,0.03300004694023765,0.0059999733386972166,2.4749924652441743e-76,-2.461429162428184e-78,-2.1906399060769276e-78,0.027738902428252388,0.026485373207094653,0.32420594432288397,-5.435682271868724e-07,1.4379279998351638e-07,6.430986655579393e-07
1669909811886992628,17997,1669909811630283300,,-1.1737615632847809,-5.2141865820548,1.0596424516324576,0.07599927257350898,0.04699933647572714,0.008999821341757575,9.280010528133686e-154,1.700605720091391e-153,-3.8988429577355225e-157,0.02832377720886825,0.028607681493770798,0.2741893300744138,-5.431114784178407e-07,1.4399109429423204e-07,6.346924443769426e-07
1669909812136610156,17998,1669909811745962830,,-1.1658949201062565,-5.199362840933409,1.0596450431395759,0.08399848133859696,0.06499666730899017,0.011999410843962128,-6.992791961316957e-294,-1.7188712137605795e-293,-4.90369920661435e-293,0.02955143924348036,0.030942361235570814,0.2268501319412124,-5.427092255441091e-07,1.441823200799376e-07,6.281142836680715e-07
1669909812153114839,17999,1669909811875897112,,-1.156898448664436,-5.188889764114733,1.0600576962484316,0.08399848133859696,0.06499666730899017,0.011999410843962128,4.097257066262214e-63,8.964509966654597e-64,9.934527151925488e-61,0.03046221873473165,0.03413316978883785,0.16860428526181792,-5.425797521969954e-07,1.4442461857715146e-07,6.204140077181316e-07
1669909812153117732,18000,1669909811941972769,,-1.1473269608608154,-5.178520600948461,1.0684780576959025,0.09699935713496388,0.07599951307385375,0.012999925630901613,2.3291573183972886e-42,1.8518358293874035e-42,6.1738649987969e-41,0.029798749198107544,0.03805410855034452,0.10224603884374162,-5.424816929796475e-07,1.449040390191776e-07,6.061810426271574e-07
1669909812309548786,18001,1669909812103348144,,-1.1325047518268505,-5.159924788617258,1.0616465443324579,0.09899979128570958,0.0879988952857417,0.013999878245883323,2.203410082011067e-296,3.6572793145712706e-296,-1.2625020880783734e-292,0.023969720409489526,0.043972091770973165,0.01728980620438847,-5.434541828127328e-07,1.4557463507486832e-07,5.940095551969523e-07
1669909812670526625,18002,1669909812256141099,,-1.1189984752951623,-5.147483590426181,1.0598654331547341,0.09500015997524974,0.08600012663234238,0.012000062446733566,1.0178240702601293e-230,1.1268018567569784e-233,-4.386001225052607e-231,0.017817648408470887,0.04749260861626503,-0.031619127096355726,-5.444769681377235e-07,1.4597049323846253e-07,5.874268469139129e-07
1669909812758955206,18003,1669909812400472023,,-1.1046510028518786,-5.140893103134313,1.0601523436055678,0.09499998205300796,0.07400057830446036,0.008000154471112977,-3.6082934512248e-217,-6.46940112604827e-219,-1.3004031480856526e-217,0.006062694185914097,0.051317812738666646,-0.08995119804800744,-5.461784531733587e-07,1.4635275905781128e-07,5.804051812527301e-07
1669909812823906044,18004,1669909812535414601,,-1.0915203989304696,-5.1376639882475414,1.060082400918672,0.09400002721881456,0.06100061699980421,0.006000063727957981,3.188051441207361e-77,6.036339409491293e-77,-1.0222500028621927e-77,-0.004327838601188461,0.05328658614870285,-0.1235411132646469,-5.480586827430217e-07,1.4661563218796342e-07,5.766917095706415e-07
1669909812885520550,18005,1669909812683198936,,-1.0765341823202392,-5.13057447618757,1.060006823199754,0.09400002721881456,0.06100061699980421,0.006000063727957981,0.0,0.0,0.0,-0.02013257199594065,0.054665142298862435,-0.14092311182914585,-5.509334391838198e-07,1.4676567223847964e-07,5.771483921703316e-07
1669909813244703901,18006,1669909812790361646,,-1.064574456004858,-5.147378862245347,1.0598306607970918,0.1009999828345346,0.019000031693766038,-2.5313128717247688e-08,-6.7381538377513396e-220,-6.351368363550937e-219,3.6490128244629765e-218,-0.030929340404888706,0.055484778797630696,-0.13677592083555012,-5.528104808747347e-07,1.4686266963771843e-07,5.796894328614481e-07
1669909813356702825,18007,1669909812966506036,,-1.0435450781010696,-5.170038218755109,1.0599733265900908,0.11299923756463456,-0.02699710960593419,-2.4032613064857366e-08,0.0,0.0,0.0,-0.04275793392267957,0.05729887197221828,-0.11129452602026113,-5.540690125662381e-07,1.4695814694824686e-07,5.86256980815808e-07
1669909813423730203,18008,1669909813120854132,,-1.0247760030642956,-5.194452258633989,1.0598642459792613,0.12099998449420568,-0.06299997014768513,0.001999977134312524,-2.804919164142553e-76,-3.3477754806417294e-76,-1.7947245898461194e-77,-0.04167472467325162,0.05977705815071488,-0.06336530792871109,-5.532259707879827e-07,1.470277000048155e-07,5.962146023949375e-07
1669909813483311901,18009,1669909813260662408,,-1.0091398361800559,-5.226938158137379,1.060016197645363,0.12399998542896343,-0.10899996988738266,-2.1487242863896463e-08,0.0,0.0,0.0,-0.03604169011235214,0.06153676672500552,-0.0234252446934331,-5.522329129774123e-07,1.4707349397338946e-07,6.036885077353717e-07
1669909813815038253,18010,1669909813432669543,,-0.9930934048013688,-5.272383540172075,1.0596821248506627,0.1140009207941984,-0.16999596441917023,-0.0019997528096439726,0.0,0.0,0.0,-0.020945276188832906,0.06369669517878762,0.048412042806701194,-5.498900029649821e-07,1.4709675111701713e-07,6.159986983174862e-07
1669909813816991801,18011,1669909813572075848,,-0.9755838915583952,-5.294849521891222,1.0599887409769397,0.1140009207941984,-0.16999596441917023,-0.0019997528096439726,-3.672467857621119e-153,3.7388494700271564e-153,-2.2567277325388183e-154,-0.0004103072745529346,0.06455043587420128,0.12397354132243876,-5.469561814313545e-07,1.471206688854608e-07,6.277342575674983e-07
1669909813899384013,18012,1669909813640686085,,-0.9699514811778505,-5.312818064468311,1.0603049890817928,0.10500121485139732,-0.18699764623285237,-0.002000020001907619,0.0,0.0,0.0,0.006916266663527182,0.06450548528060196,0.1471543471506518,-5.460362132561052e-07,1.471325832597339e-07,6.308232197690783e-07
1669909814259680209,18013,1669909813826589586,,-0.9523171641454167,-5.3394275914330835,1.0680803639798147,0.09000200169322779,-0.17600144337730358,-0.0020000210321293984,-1.1755501261808516e-76,-1.6435052217988858e-76,1.8761597820944003e-77,0.029329203310602736,0.06352650068924959,0.2139029110142907,-5.435547751346886e-07,1.4720314690994703e-07,6.399477695949384e-07
1669909814353931572,18014,1669909813994301830,,-0.937759130402125,-5.3616193676690544,1.0694361274493314,0.07600086428435912,-0.16700052930870454,-0.004999834447678162,1.4258553366854395e-141,4.10873101241304e-142,2.0371452755302112e-140,0.04808328640353743,0.06118169352228975,0.2769281476669754,-5.419189640846198e-07,1.4720182515144078e-07,6.492983085266176e-07
1669909814392047549,18015,1669909814131491995,,-0.92595186988808,-5.376243790836397,1.0599179137128862,0.06800037707167189,-0.1550005533516981,-0.005999975589119054,7.295547783691448e-229,3.3011321868837475e-230,1.8461386915743354e-229,0.06047195909699177,0.0576340062854932,0.33424689343506486,-5.413390484624948e-07,1.4709113524828496e-07,6.572554950699518e-07
1669909814451868589,18016,1669909814262692759,,-0.9196347837976807,-5.386761694133276,1.0600582556385671,0.052000503519417735,-0.13600058105413684,-0.0069999943172498035,-6.191566804822238e-64,-4.387828355168983e-64,5.589700951340277e-62,0.06424652148824883,0.055220460445548625,0.36223279856544366,-5.416143038872487e-07,1.4691821577771662e-07,6.601104120076803e-07
1669909814956725752,18017,1669909814417465127,,-0.9112116652046856,-5.39623103981839,1.0589677488736848,0.042999980487962434,-0.11499996033963004,-0.010000028773511622,0.0,0.0,0.0,0.06546243578146616,0.05033948553970724,0.4006234845573484,-5.424147434612962e-07,1.463992341553459e-07,6.648339302382345e-07
1669909815081033248,18018,1669909814607160418,,-0.9007224663724108,-5.408098785568112,1.0576688585781255,0.03599997960185901,-0.10099995926496856,-0.01200003008020792,7.112827998352248e-161,-7.112827998352248e-161,-2.8451311993408992e-160,0.06218229093110139,0.04528541005710274,0.423268203583282,-5.434588159389288e-07,1.4575866417240397e-07,6.663831531203995e-07
1669909815339868701,18019,1669909814765736069,,-0.8935746957317896,-5.408811610881219,1.060262557096417,0.03699997918748611,-0.07499995842613383,-0.015000030691264718,5.903488869124851e-223,5.598605318369181e-220,-1.0796977105271547e-219,0.05885058090222017,0.04221291044473752,0.4272476978702109,-5.440792149500638e-07,1.4528752099826126e-07,6.65139424404935e-07
1669909815420198467,18020,1669909814961337942,,-0.8870825830693619,-5.407108579383033,1.0507273783689681,0.035999979109538754,-0.04899995751765872,-0.015000030806210136,-5.926305640834859e-43,-8.482964178053754e-43,-1.6021535249415765e-41,0.052664417922681395,0.03667681362976971,0.410356271493848,-5.447898776215927e-07,1.4427446851511672e-07,6.602230788387381e-07
1669909815420716164,18021,1669909815133588920,,-0.8836203714226271,-5.400060585149575,1.049131832137857,0.03599997940156299,-0.02199995680321038,-0.014000030375575312,-2.8275030528002118e-216,-1.5629958809314857e-217,-4.300587093768669e-215,0.04993724476442374,0.03336291770125577,0.38302126188479946,-5.449598117794225e-07,1.4361598405842121e-07,6.547729417069269e-07
1669909815502232016,18022,1669909815295720862,,-0.8811650062769935,-5.392516568383156,1.0496987947877021,0.034999979830722804,-0.0029999566309722066,-0.013000029742712919,0.0,0.0,0.0,0.04810212202698061,0.030815574090929942,0.3378838022747548,-5.449430415312111e-07,1.429276211382342e-07,6.456357003666967e-07
1669909815956230567,18023,1669909815473975034,,-0.8800751689399007,-5.3762550554691435,1.0501400211481275,0.03599998022557639,0.02600004319100913,-0.011000029160440353,1.0157147687937719e-280,1.3933408776527764e-280,6.534034656408853e-280,0.0474678677896172,0.030082751218657222,0.2861541239436747,-5.44775040575751e-07,1.4258061630463943e-07,6.364773379954648e-07
1669909816132316127,18024,1669909815647777893,,-0.8786818349402297,-5.353348103838962,1.0497295523231,0.038999980757089686,0.06100004192486756,-0.006000028376641934,0.0,0.0,0.0,0.045913028172510195,0.03080106417138495,0.18953130827877018,-5.448018998901056e-07,1.421566298071976e-07,6.212777789236327e-07
1669909816295865275,18025,1669909815830804034,,-0.8732511848751332,-5.334232694392006,1.04981543585496,0.0429996316799612,0.0759987311007145,-0.0050001154551748,0.0,0.0,0.0,0.04185129879036431,0.03195163136655843,0.11714187962996725,-5.455666622041178e-07,1.4188478979544605e-07,6.094414640680462e-07
1669909816382432242,18026,1669909816005472212,,-0.8681114687169067,-5.31995931613021,1.0413619182181602,0.04100001296004817,0.07700002342272787,-0.00400004394729626,-2.0077858455653752e-143,-3.156110446963827e-143,-9.896795121642549e-143,0.03603267336914584,0.03272696116973606,0.056507637737695404,-5.463929482826246e-07,1.416798852793963e-07,6.010644104764825e-07
1669909816382439594,18027,1669909816173273921,,-0.8627349435243032,-5.305091641785151,1.0400582776182434,0.03899998124589616,0.08100003736475192,-0.004000027655821332,1.3619666690646762e-64,3.19608156349813e-66,-2.1051889521065554e-63,0.029487632639543904,0.032640951960249964,-0.006715047670269314,-5.472634056728626e-07,1.4129083120092655e-07,5.918064143285761e-07
1669909816467712585,18028,1669909816302939310,,-0.8588140595631757,-5.295541148804364,1.0399432889893638,0.03600003032824991,0.07900006843385278,-0.005000010947381395,0.0,0.0,0.0,0.02432565096830075,0.031732827821302934,-0.04538646871545282,-5.479624644335509e-07,1.4097073288466213e-07,5.873981932034964e-07
1669909816635667716,18029,1669909816432064673,,-0.8553064925041547,-5.290053076338545,1.0396069235142198,0.032000156817783836,0.0680005153596588,-0.0050000265610859514,-2.4915967664453937e-298,-1.1204468441055583e-298,-5.296119343512988e-296,0.01773769412221604,0.02939673825004263,-0.09025922389437824,-5.488049701504293e-07,1.4036101033495982e-07,5.813161567394666e-07
1669909816930772705,18030,1669909816547954087,,-0.8525854266696038,-5.285794410836875,1.039357994140234,0.027999982427600205,0.059000033367629164,-0.00700002591321629,0.0,0.0,0.0,0.015130006689325626,0.027950591157004823,-0.10779576093665,-5.491210918628321e-07,1.4004400432802706e-07,5.79072459055438e-07
1669909817153240819,18031,1669909816672265880,,-0.8482690068452196,-5.278919944659611,1.0400712576914954,0.027999982427600205,0.059000033367629164,-0.00700002591321629,7.996201641361048e-65,-2.404534804976375e-65,1.4393445895777577e-64,0.00965247145968462,0.023365810839283796,-0.14332489481824595,-5.498618720530029e-07,1.3910643767868502e-07,5.742663020538618e-07
1669909817153532291,18032,1669909816744827433,,-0.8489484126767938,-5.2779832153493045,1.0394371253825638,0.02099998287968659,0.05100003250264733,-0.009000025246545123,0.0,0.0,0.0,0.00814483460116655,0.02149723439580775,-0.15302727368921154,-5.500289510144806e-07,1.3875935370360374e-07,5.733525459470625e-07
1669909817387803979,18033,1669909816898635845,,-0.8491808439979961,-5.273527128047687,1.0399117105931581,0.010999983381774029,0.043000031752380194,-0.009000024506139681,0.0,0.0,0.0,0.0039672459500526,0.015051828737943751,-0.17431625847140353,-5.507300128004085e-07,1.3759634633557314e-07,5.715443618443023e-07
1669909817512187789,18034,1669909817103419063,,-0.8500615839442983,-5.2698149095160876,1.0310060304894673,0.0029999837898655856,0.03200003127756902,-0.01100002390434568,0.0,0.0,0.0,-0.0015323172763270776,0.006893395297124627,-0.18269827105415715,-5.518124513419462e-07,1.3634974151213217e-07,5.721271397205974e-07
1669909817512362925,18035,1669909817240049896,,-0.8528212551433627,-5.273109838526862,1.0296432809829368,-0.0030000157024741344,0.013000031058652058,-0.011000023155722224,0.0,0.0,0.0,-0.009060280077143545,-0.000895317930684314,-0.1765461343501773,-5.533276026392283e-07,1.3518408579392323e-07,5.746045476260281e-07
1669909817565443610,18036,1669909817363956323,,-0.8561892891134332,-5.276152918218606,1.0287503855270552,-0.009000015318802112,3.129506060718662e-08,-0.012000022589938595,2.5630153683502087e-300,-9.288592151941023e-300,7.631396987895535e-295,-0.015350260309194397,-0.0059239063115708035,-0.1655086624065234,-5.54454018002237e-07,1.3443224612815533e-07,5.775128325203567e-07
1669909817718582366,18037,1669909817533481341,,-0.8617657384101077,-5.282465868181357,1.029461764385524,-0.015999714032801995,-0.016999237435438935,-0.011000065017289753,0.0,0.0,0.0,-0.025303119833175458,-0.01169668779457922,-0.13464713447223708,-5.561408724621961e-07,1.3361042299660887e-07,5.846515006034982e-07
1669909818078395693,18038,1669909817681543110,,-0.8675945102540182,-5.294757162333074,1.0301445074441686,-0.020000014387106524,-0.041999967411135736,-0.01000002121600962,9.300150633177408e-65,2.7123139192974965e-64,4.5296037296264335e-63,-0.03417314402103422,-0.015028427816938361,-0.0875795801699617,-5.571394435402095e-07,1.3304631234439537e-07,5.941177135484451e-07
1669909818158311283,18039,1669909817830982384,,-0.8729364276503266,-5.310233207180036,1.0298070039264935,-0.022000013721453594,-0.06499996630714329,-0.009000020234401615,4.2168791772922093e-81,-2.1084395886461046e-81,6.747006683667535e-80,-0.037062108950411954,-0.015537694667589363,-0.05011956997808298,-5.570448376801668e-07,1.3298591698030454e-07,6.009015233305112e-07
1669909818185298729,18040,1669909817973245769,,-0.8769045447992843,-5.327079215775316,1.0299133086042676,-0.022000013100294362,-0.08399966429463891,-0.004000098454964716,0.0,0.0,0.0,-0.03353001885670359,-0.013466484119298627,0.01246704391454756,-5.552014516777923e-07,1.3339482292906526e-07,6.104318348761264e-07
1669909818587299420,18041,1669909818114643382,,-0.8794391205781564,-5.344182708738,1.0301652808469115,-0.021000012461928952,-0.0969999633651294,-1.8377038083982812e-08,0.0,0.0,0.0,-0.024272516915694098,-0.010168386736600254,0.06360299572840944,-5.531250627322992e-07,1.3388066681489012e-07,6.188715515379408e-07
1669909818648270123,18042,1669909818291198389,,-0.8811542833728749,-5.364689874084087,1.029919301577305,-0.020000123561625244,-0.10499907055642162,0.001999759286551701,-9.550222693974809e-230,1.045154170172681e-231,7.6848870398752415e-233,-0.008954401350214525,-0.0056394182612038435,0.12333186853645906,-5.501469279347918e-07,1.3462024037485916e-07,6.285325248583813e-07
1669909818648483616,18043,1669909818443972600,,-0.8792641824356524,-5.380327131921109,1.0381726950958108,-0.013000330555354106,-0.10400000554901585,0.001999981458412918,-1.1829284224780666e-145,-9.45369890548937e-144,-3.659242026940588e-141,0.006908236448996519,-0.0022897486320232474,0.16796501946659248,-5.4764890628616e-07,1.3509342316293222e-07,6.340523058442746e-07
1669909818721426255,18044,1669909818565344633,,-0.8802313133655632,-5.388431984309209,1.0397171054770458,-0.01599975717839658,-0.09100106929858212,0.0019999802235799594,0.0,0.0,0.0,0.02421362502795077,0.00025076342467045265,0.20725820107654158,-5.445792879983265e-07,1.356151237342503e-07,6.402545070519918e-07
1669909819063903968,18045,1669909818678059908,,-0.8797882254443421,-5.398843253593971,1.0399114656424142,-0.01599975717839658,-0.09100106929858212,0.0019999802235799594,0.0,4.2673040507977214e-272,3.6728724371941333e-274,0.03819887301324343,0.0017185286799392685,0.23431852139084164,-5.423858689571071e-07,1.359760547941516e-07,6.442628393946626e-07
1669909819181345647,18046,1669909818739694737,,-0.881206099896941,-5.4016777428953064,1.0400203697080488,-0.018999885791932878,-0.08300030094636503,0.003999892900196006,-6.908934844075556e-77,0.0,0.0,0.04381789387734081,0.002167040352539118,0.24471522933608547,-5.416992887425463e-07,1.3608168606562834e-07,6.455096031046624e-07
1669909819181370136,18047,1669909818867398811,,-0.8806326554570933,-5.4086944212392005,1.0400181296880344,-0.01600001579617847,-0.07299995701150162,0.003999976706096266,0.0,0.0,0.0,0.062023000966584974,0.002962085906908385,0.279735926615853,-5.394827030636043e-07,1.364040691687439e-07,6.504717923504649e-07
1669909819198968970,18048,1669909819004640068,,-0.8799251904458616,-5.418960436324812,1.0399741725009746,-0.01600001579617847,-0.07299995701150162,0.003999976706096266,0.0,0.0,0.0,0.06991230368930879,0.002664569852255383,0.2976369364823057,-5.386845780227725e-07,1.36458784559768e-07,6.529218605126305e-07
1669909819296428404,18049,1669909819080332995,,-0.8809129105763053,-5.420933684851573,1.0399750627443514,-0.017000017165342305,-0.06399995640886112,0.002999974687052827,8.83123565009128e-309,-5.527784338949636e-308,-2.60660939085042e-309,0.07323244789834149,0.002294278129705063,0.30601533523213575,-5.385089260291158e-07,1.3643233764436903e-07,6.537204844479521e-07
1669909819570996406,18050,1669909819250804288,,-0.8835743439597897,-5.426074502977689,1.040046744766178,-0.020000018538560534,-0.048999955929645164,0.001999972662030547,2.2115190198697324e-143,1.4965311198193062e-143,6.903603792194145e-142,0.07971628391642227,0.000631037088046682,0.32500298463577515,-5.382412565965255e-07,1.362702305696569e-07,6.555102224241984e-07
1669909819571063104,18051,1669909819377717827,,-0.8870380259684916,-5.424682813969617,1.0399978542530648,-0.021000019776085496,-0.02699995543265515,0.0019999708371089457,-8.440882865804355e-157,0.0,0.0,0.08125099444258055,-0.0013879165575030328,0.33227198078308184,-5.384692445460972e-07,1.3598667220292036e-07,6.554557504707104e-07
1669909819631568642,18052,1669909819496887609,,-0.889748509806814,-5.423275799954381,1.0399994835361084,-0.02000002046434011,-0.011999955112503633,0.0009999698221712689,0.0,0.0,0.0,0.0812011148800682,-0.0030748764714445542,0.33131225616840965,-5.387211600616183e-07,1.3562219215207008e-07,6.544251349615606e-07
1669909819648192527,18053,1669909819592683719,,-0.8911863285924604,-5.424992276904707,1.0399988498867458,-0.02000002046434011,-0.011999955112503633,0.0009999698221712689,0.0,0.0,0.0,0.08087846513512886,-0.00362569219771558,0.3292438475563504,-5.388539512648119e-07,1.355092643392172e-07,6.538408505773912e-07
1669909819689127612,18054,1669909819616285371,,-0.8915413825210291,-5.425414478326171,1.0399977498097241,-0.02000002046434011,-0.011999955112503633,0.0009999698221712689,0.0,0.0,0.0,0.08026590142578449,-0.004235562647284752,0.32578683928060137,-5.390571531842264e-07,1.3536557913305813e-07,6.53032644739103e-07
1669909819708779647,18055,1669909819648225493,,-0.8920230067273623,-5.425984890148934,1.0400009156411367,-0.02000002046434011,-0.011999955112503633,0.0009999698221712689,-1.0669886460188823e-65,-2.236263472119773e-64,-6.569437358691611e-63,0.07960949828639308,-0.004705398525674198,0.32237205304324235,-5.392623383225779e-07,1.3525730117671337e-07,6.522712063560192e-07
1669909819754259537,18056,1669909819676924855,,-0.8924577276678672,-5.426495734702289,1.039999428991089,-0.02000002046434011,-0.011999955112503633,0.0009999698221712689,0.0,0.0,0.0,0.07941005593660577,-0.004803147409631947,0.32141347150821176,-5.393145170530457e-07,1.3524270999744204e-07,6.520775440775831e-07
1669909820063196549,18057,1669909819710676231,,-0.8952956364201157,-5.420278740342294,1.0401053860949632,-0.0200000207624569,0.0050000450855914366,0.0019999693825520394,-5.6902623986817984e-160,-2.8451311993408992e-160,7.283535870312702e-158,0.0789793192762378,-0.004983317857670144,0.31941319346535124,-5.394346431355594e-07,1.3521238870789316e-07,6.516435413847907e-07
1669909820147283661,18058,1669909819842225634,,-0.8990215096529396,-5.416141670784404,1.0398743295483106,-0.0190000208087956,0.016000045156154077,0.002999969314218471,-5.192100481122186e-296,-1.284783039567743e-297,-1.2304713689341037e-295,0.0748042599152754,-0.0056883329103314395,0.30236366945735327,-5.404475675633072e-07,1.3502464011494157e-07,6.483898270679418e-07
1669909820178022611,18059,1669909819966821047,,-0.9015546983889902,-5.409708978666719,1.040024098550795,-0.01400002071520092,0.029000045023677132,0.004999969452238276,-2.6168107289635386e-77,-3.2132619330966635e-77,-8.357854529393159e-78,0.07017036022187462,-0.005462089437333617,0.2852985292251251,-5.413230148510938e-07,1.3496269495302172e-07,6.455432753212346e-07
1669909820178059246,18060,1669909820082936348,,-0.9040371420588927,-5.4069603014351015,1.0401423231426248,-0.01400002071520092,0.029000045023677132,0.004999969452238276,9.880965338102511e-67,-4.354690054808212e-65,1.465524069226502e-63,0.06610552458121788,-0.00506931443549874,0.2705287109020631,-5.421398047357009e-07,1.3490791924368016e-07,6.429855300099869e-07
1669909820292071668,18061,1669909820138875995,,-0.9047030973083002,-5.401732632478312,1.0396779848514341,-0.010000020491554382,0.03800004472716754,0.0069999697820396205,-3.07031165183708e-218,-3.755653438778295e-216,-7.227018529988198e-218,0.06279154931988984,-0.004711947986873355,0.2591997038255123,-5.427544432365253e-07,1.3488400183700586e-07,6.412045292864939e-07
1669909820595335635,18062,1669909820270509207,,-0.9075813772726287,-5.394606959181389,1.0400726199724122,-0.009000020190435023,0.04500004432983645,0.007999970226086605,0.0,0.0,0.0,0.053896767788456756,-0.00359418385033905,0.23024747086813946,-5.440981583918046e-07,1.348892957216459e-07,6.371819964163458e-07
1669909820652824147,18063,1669909820479528864,,-0.9114278763598463,-5.385909631372442,1.0401740851579853,-0.009000020190435023,0.04500004432983645,0.007999970226086605,0.0,0.0,0.0,0.043319462758416805,-0.002270515207310808,0.1944534106409037,-5.458362282214433e-07,1.348579989598465e-07,6.317464003695314e-07
1669909820814092321,18064,1669909820607694361,,-0.9142924794785714,-5.380296595407809,1.0404729194413231,-0.011000018958893779,0.04400004279413739,0.009999972042184288,0.0,0.0,0.0,0.03507424627647282,-0.0017251731083653965,0.16826790729168195,-5.47457138321043e-07,1.3475019744322853e-07,6.271123203307746e-07
1669909821307486876,18065,1669909820788760548,,-0.9179511910090962,-5.374982308739908,1.0501614910943757,-0.013000018330525975,0.03900004203437024,0.009999972968809624,2.0328509616870195e-222,8.916230403102666e-220,4.440709543493655e-218,0.025262041280832648,-0.001859864521009058,0.13622446273447153,-5.488923409420862e-07,1.345525387897755e-07,6.223477053355254e-07
1669909821319659636,18066,1669909820982446589,,-0.9219685132472808,-5.370249497514366,1.0501902067819233,-0.015000017720007067,0.03400004133597921,0.009999973869114004,0.0,0.0,0.0,0.019631234142718057,-0.003073133252428306,0.1108017162571393,-5.495062390247773e-07,1.341784375529548e-07,6.188375703572279e-07
1669909821356199643,18067,1669909821152919762,,-0.9256354463187675,-5.368196510313293,1.0498383805147835,-0.017000017107102323,0.027000040743501014,0.00899997477293667,0.0,0.0,0.0,0.016920077484266827,-0.005687684405563331,0.08781953398077391,-5.497887704889421e-07,1.336035785352646e-07,6.156196568822973e-07
1669909821797782137,18068,1669909821335056074,,-0.9303854265438247,-5.368562540676953,1.0497000518815873,-0.021000016160521894,0.016000039835937386,0.007999976168815641,-4.715214332473576e-259,-6.354725117297626e-259,-3.8598910006942993e-259,0.016337309535076727,-0.009762626161414545,0.06666077620512034,-5.497260559795201e-07,1.3285290712798068e-07,6.129138204303886e-07
1669909822321633496,18069,1669909821499506116,,-0.9340083172411296,-5.366173060579641,1.0502919300946894,-0.021000016160521894,0.016000039835937386,0.007999976168815641,-1.8133205199924446e-222,1.1768867498605256e-219,3.4766298202499986e-218,0.017555060999102423,-0.013959065253221326,0.05046983221762602,-5.496202916202e-07,1.3220823505064428e-07,6.10853377128812e-07
1669909822321817563,18070,1669909821564780344,,-0.936097896299431,-5.367251615176526,1.0500263740129416,-0.023000015876687294,0.011000039497779975,0.007999976587373578,-1.6850995936628294e-64,7.660395155103744e-64,4.073667650111822e-62,0.01796820317043135,-0.015560026036922636,0.044573912527500426,-5.495793699116169e-07,1.3186407213539506e-07,6.096644340158376e-07
1669909822378680959,18071,1669909821742892339,,-0.9402694054385141,-5.365907911360347,1.0585728575013176,-0.023000015760796272,0.010000039340306955,0.007999976758272777,3.846933995089009e-65,2.917489366875192e-65,-1.4235291576628837e-63,0.018472551663798242,-0.020041849190036487,0.027526815823179618,-5.498271278509093e-07,1.3132724223646703e-07,6.072769065520284e-07
1669909822378703480,18072,1669909821868268678,,-0.9440013753538559,-5.365189054482164,1.0598896463802259,-0.02500001574275129,0.009000039244542601,0.008999976784882891,1.6867516709168837e-80,8.433758354584419e-81,-1.349401336733507e-79,0.01768680742011952,-0.02132256834258861,0.01885406953290847,-5.501633716812717e-07,1.3125138463841125e-07,6.060836514236114e-07
1669909822378706247,18073,1669909822011519614,,-0.9464465381764637,-5.364358767383312,1.0604869747390615,-0.02200001574407804,0.008000039159324226,0.010999976782926392,-7.758993309511523e-80,-5.6813290065202264e-80,-9.529906120990816e-80,0.015952023408395632,-0.022149464959984044,0.008827755970806095,-5.506419683878673e-07,1.3125567219966694e-07,6.046774998792455e-07
1669909822400184138,18074,1669909822163062137,,-0.9498170332284624,-5.3635863951761396,1.060001946960493,-0.022000015720610604,0.00700003905827853,0.010999976817532746,-1.2256695530128427e-231,2.2319252563996828e-231,-1.3461894002577426e-232,0.0135293984979441,-0.02167298021748998,-0.001649449059250685,-5.51132622600978e-07,1.3153636352125435e-07,6.03252277564143e-07
1669909822427322180,18075,1669909822288974466,,-0.9522599054418741,-5.363474197525373,1.0603693213148797,-0.02100001563347761,0.005000038882046982,0.0139999769460238,0.0,0.0,0.0,0.0111061499842382,-0.019522246722516456,-0.012405223664179843,-5.515546441888139e-07,1.3206639531822317e-07,6.017646467425707e-07
1669909822686244348,18076,1669909822405603321,,-0.9547325453540427,-5.362876043919745,1.0605941832551606,-0.02100001563347761,0.005000038882046982,0.0139999769460238,0.0,0.0,0.0,0.009923561129578928,-0.017098048977942426,-0.01946719048119583,-5.517212208474144e-07,1.3258652441470528e-07,6.007325868331622e-07
1669909822704689019,18077,1669909822452027832,,-0.955714050184723,-5.362631583674942,1.0598642525961113,-0.02100001563347761,0.005000038882046982,0.0139999769460238,0.0,0.0,0.0,0.009701074773140306,-0.016286305351890462,-0.021419846218160288,-5.517421842485925e-07,1.327556253241243e-07,6.004411699384315e-07
1669909822704691539,18078,1669909822479481182,,-0.9558977842492592,-5.363737537619634,1.0602574660918478,-0.020000015491088118,0.002000038646608619,0.014999977155999088,6.596015746215189e-156,-1.7942245485171583e-155,0.0,0.009521075251591071,-0.015285429643613568,-0.023611697186847636,-5.51759559196878e-07,1.3295261356952265e-07,6.001335246347912e-07
1669909822733729068,18079,1669909822618442731,,-0.9586987197305348,-5.363406945583404,1.060829590145388,-0.020000015491088118,0.002000038646608619,0.014999977155999088,0.0,0.0,0.0,0.009423567486628315,-0.011658322076193883,-0.030433296975566293,-5.517223447509097e-07,1.3358347153688988e-07,5.992242004341941e-07
1669909822882339882,18080,1669909822712454078,,-0.9606149621313524,-5.364114935907436,1.0607883703024668,-0.020000015345303556,3.8285258858582775e-08,0.015999977370980932,0.0,0.0,0.0,0.009981904301795907,-0.008477574111351416,-0.035403815977419484,-5.51599704636385e-07,1.3406275965721601e-07,5.987424653883238e-07
1669909823209859539,18081,1669909822854810890,,-0.9635460462388044,-5.366783917166226,1.0697042260793592,-0.020000015276371214,-0.005999962095722773,0.013999977472632312,0.0,0.0,0.0,0.010964430741093878,-0.005021580278087967,-0.039283819202971415,-5.514312483675402e-07,1.3460483166056982e-07,5.984797643638923e-07
1669909823231645808,18082,1669909823002951012,,-0.9666151987890119,-5.3694081531625,1.0705426947674408,-0.02000001529394345,-0.009999962559282288,0.013999977446719339,-1.941065114144322e-80,2.0627267544613956e-80,-4.3389423224821985e-80,0.012598016789231892,-0.0016937476532330464,-0.041551580777110075,-5.512020517902923e-07,1.3501809108268853e-07,5.9847484199019e-07
1669909823392372639,18083,1669909823204853296,,-0.9708121428317398,-5.3733202331245495,1.0704946947978822,-0.02000001537288112,-0.013999962951908846,0.011999977330313554,0.0,0.0,0.0,0.015370803326423044,0.0025463702242021213,-0.04242433353453201,-5.50888281449611e-07,1.3553628924411844e-07,5.987180538903423e-07
1669909823736688737,18084,1669909823372818759,,-0.9748116616417144,-5.37605086918044,1.0709440584962087,-0.021000015524661367,-0.0149999633420051,0.009999977106490154,-3.744492067378719e-69,1.0273841589005079e-68,5.961192458992696e-67,0.017444171928350016,0.004547349135844314,-0.042285200282737634,-5.506505948387474e-07,1.3580980874222108e-07,5.988431953238526e-07
1669909823751912266,18085,1669909823538537910,,-0.9784334714897374,-5.379495601308484,1.0696230587298778,-0.021000015859498553,-0.01699996382718749,0.00899997661272103,-5.844464622006952e-45,-1.986095772919304e-44,-1.0479876191425563e-42,0.01906690441609271,0.005644248114624162,-0.04187734075183869,-5.504902001758021e-07,1.3589864812058333e-07,5.990293083837102e-07
1669909823864631737,18086,1669909823731146447,,-0.9826024529959062,-5.382633455936522,1.0706156484666567,-0.021000015859498553,-0.01699996382718749,0.00899997661272103,-9.681802538637246e-235,-7.635265375363366e-234,-1.5136982633908116e-232,0.020825327403493077,0.005721502997788619,-0.04016885376714896,-5.504398408965661e-07,1.3575511093703262e-07,5.994793473801058e-07
1669909824029375587,18087,1669909823835337149,,-0.985906575582601,-5.3852596106737,1.0703434788684305,-0.023000016049288557,-0.018999964003168567,0.0049999763328463665,-9.680463821303981e-156,-1.1881291109747493e-156,8.43013578883572e-156,0.021389783756252,0.005175814191826333,-0.038815728698015306,-5.504188330100777e-07,1.356090783679496e-07,5.999067915930505e-07
1669909824254194323,18088,1669909823974004952,,-0.9896796570501517,-5.3886480813356545,1.0700062852319077,-0.02400001622681392,-0.02099996411434669,0.0029999760710578125,-1.555412859910878e-153,8.218732242582613e-155,1.7051371110211952e-154,0.02141831763350943,0.0035023776748204227,-0.03603252208552732,-5.505797395736308e-07,1.352604612723738e-07,6.005487600830578e-07
1669909824254197849,18089,1669909824093173184,,-0.9930881669363565,-5.391009937288869,1.0699932569636208,-0.025000016299136767,-0.020999964129902324,-2.4035593388857907e-08,0.0,0.0,0.0,0.02106610341294335,0.001811012147360458,-0.033562468184324956,-5.507376607535247e-07,1.3495520612214335e-07,6.010617294032627e-07
1669909824403172800,18090,1669909824213661798,,-0.9966244000114537,-5.393847066627791,1.0699495160647248,-0.026000016353525814,-0.021999964052106,-0.0010000241157984292,1.1701839716985881e-79,1.349401336733507e-79,2.1590421387736112e-78,0.020356375293225426,-0.0004394819730944022,-0.030533721827193716,-5.509515475012886e-07,1.3454647330283107e-07,6.016496640484355e-07
1669909824517994263,18091,1669909824379108099,,-1.0010383421404665,-5.397788484815654,1.070013423865177,-0.026000016348256206,-0.022999963896335032,-0.0030000241080275795,0.0,0.0,0.0,0.018806571294451402,-0.004663332784822671,-0.024928040440485688,-5.513059400979571e-07,1.3394712480328137e-07,6.026735187168634e-07
1669909824696283058,18092,1669909824490316855,,-1.0039968420547867,-5.400668598791579,1.0698558816062327,-0.02600001627492699,-0.023999963624514745,-0.004000023999892333,2.5105808782449065e-144,4.0997990281970987e-143,-3.625301533893757e-142,0.01745348782172229,-0.007771601572816422,-0.019828735130266395,-5.515792789950548e-07,1.3352250176978107e-07,6.035713468099193e-07
1669909824829896543,18093,1669909824666816249,,-1.0086679500381097,-5.405667242791011,1.0700369598061916,-0.02600001615130473,-0.025999963296264975,-0.005000023817592225,-2.566272010293583e-66,7.628585173049488e-65,5.147388340776873e-63,0.016189130247202144,-0.011306458318470547,-0.013091553064768391,-5.518013255945464e-07,1.3306472724903208e-07,6.048788932158986e-07
1669909824950722196,18094,1669909824805497810,,-1.0123070006430182,-5.409218627269376,1.069866038695858,-0.026000015967502888,-0.025999962801290286,-0.0050000235465480335,0.0,0.0,0.0,0.015900460436450103,-0.012731343096458403,-0.008696254117875668,-5.518266138758077e-07,1.3296746239087318e-07,6.056271908276283e-07
1669909825291939721,18095,1669909824930244287,,-1.01450333062698,-5.412445603075272,1.0698110726961532,-0.023000015825717264,-0.025999962417964404,-0.0040000233374632484,-3.087423400878212e-194,1.2791707451933036e-192,1.887965459498764e-195,0.015871096721189915,-0.013466158376871817,-0.0048049745708809155,-5.518594853490306e-07,1.330046228955448e-07,6.06180682365318e-07
1669909825320636672,18096,1669909825061691203,,-1.0175293346990257,-5.4158449604864085,1.0701554639625097,-0.023000015825717264,-0.025999962417964404,-0.0040000233374632484,0.0,0.0,0.0,0.016014062611303004,-0.012957497317543698,-0.0003250917026687006,-5.518601243513362e-07,1.3336645509555886e-07,6.068789142565208e-07
1669909825320638568,18097,1669909825108854465,,-1.0182718289678305,-5.416729858654472,1.0699475636947293,-0.022000015730132626,-0.024999961998826,-0.0030000231965089438,-4.718081302548465e-155,-3.189854634934763e-154,-2.5212394920018727e-155,0.016162813694393208,-0.012338814834999212,0.0010703504764268956,-5.518432857390371e-07,1.335096371617073e-07,6.070609262123002e-07
1669909825320640468,18098,1669909825206561722,,-1.020413366548411,-5.419170976334816,1.0697136581205466,-0.022000015730132626,-0.024999961998826,-0.0030000231965089438,1.571196432620066e-145,-7.814611732029348e-146,-1.6265980543812715e-144,0.01664634215975269,-0.010735730168482505,0.0040439462693218076,-5.517613629345907e-07,1.3387169104401783e-07,6.075687864133469e-07
1669909825320642571,18099,1669909825242614224,,-1.0212018529784825,-5.420073308161921,1.0695818809500355,-0.022000015730132626,-0.024999961998826,-0.0030000231965089438,1.9319295379775476e-298,5.00302945676003e-299,1.2319882506430662e-296,0.01693318978564662,-0.009928195640027226,0.005329877893384349,-5.517053140842604e-07,1.3404246030155128e-07,6.077969238383026e-07
1669909825458440297,18100,1669909825273810051,,-1.020292624071272,-5.421262377154931,1.0700280520014087,-0.01800001571672283,-0.02599996183122585,-0.0020000231767341265,7.51077072968813e-142,4.372720221476348e-144,5.182085929707073e-142,0.017101001583432307,-0.00946558334933556,0.0060673058850149175,-5.516742228948451e-07,1.3420397285446892e-07,6.079872933744578e-07
1669909825691812156,18101,1669909825431098975,,-1.0226818992260422,-5.425771947240547,1.0698550921969092,-0.01700001574026446,-0.026999961712390847,-0.0020000232114498946,-5.114014261479744e-156,-1.5456261339442837e-155,-3.404929920130425e-156,0.01859344100268423,-0.006057037533008014,0.010451055394089082,-5.514311049918372e-07,1.3484456929961428e-07,6.087203312503961e-07
1669909825783582862,18102,1669909825584734864,,-1.0244154859218093,-5.430340926797742,1.0700078304353533,-0.015000015819885542,-0.027999961699278462,-0.0030000233288634713,-2.3029358332276176e-66,1.3779995415905468e-66,-2.3077177040330835e-63,0.020787357076837765,-0.001777124946162445,0.015387134328104679,-5.511421292577638e-07,1.3561440766419285e-07,6.095451923259762e-07
1669909825957396229,18103,1669909825755108880,,-1.0268900338903986,-5.435142937204091,1.0697676776506477,-0.015000015959539044,-0.027999961768601467,-0.0030000235348041217,0.0,0.0,0.0,0.022877207533758437,0.0028777431263886655,0.020316233299190856,-5.509455727788304e-07,1.3642616833664634e-07,6.103575971697087e-07
1669909826079268535,18104,1669909825929907935,,-1.028583835362559,-5.439639992804162,1.0698488396421435,-0.01300001619179988,-0.026999961925584605,-0.004000023877308577,-6.954957419881953e-221,1.8539894490364629e-221,4.1752168770940043e-218,0.024422062693300717,0.007202698970859345,0.02475616659877744,-5.508539299193126e-07,1.370908468162926e-07,6.11038696920235e-07
1669909826357494860,18105,1669909826050528357,,-1.0300832528961048,-5.442528993734033,1.0692781053255556,-0.01300001640717736,-0.0259999621000745,-0.005000024194915919,0.0,0.0,0.0,0.025299332841026256,0.009884863503865304,0.027600803182195932,-5.507910019804048e-07,1.3747485723584162e-07,6.114863246849791e-07
1669909826371123964,18106,1669909826159162043,,-1.0314213292362586,-5.445378691385118,1.0630293778149937,-0.01300001640717736,-0.0259999621000745,-0.005000024194915919,0.0,0.0,0.0,0.026480976417429858,0.012293821159129692,0.030487154602962363,-5.505789614482978e-07,1.3784382692816351e-07,6.120304932591364e-07
1669909826385196128,18107,1669909826218000378,,-1.0325542383164157,-5.446913912072706,1.060733916184321,-0.01400001659150582,-0.025999962279474962,-0.007000024466736693,0.0,0.0,0.0,0.027124970012017968,0.013094538914483422,0.031716697697177665,-5.504640008355549e-07,1.3793786890675914e-07,6.122516252849362e-07
1669909826493312440,18108,1669909826351548316,,-1.034685181004349,-5.451570103663161,1.059565918015179,-0.015000016755819011,-0.028999962473643053,-0.009000024709041862,0.0,0.0,0.0,0.02930879127047703,0.014664059516569239,0.035405891382685795,-5.50163575219667e-07,1.3806587753701157e-07,6.129325841209231e-07
1669909826525058943,18109,1669909826457696189,,-1.03618179046726,-5.454675646666985,1.0595085470045102,-0.015000016755819011,-0.028999962473643053,-0.009000024709041862,-2.122675474456981e-155,-1.3562670677558616e-155,-2.56690117331857e-156,0.03087183432589491,0.014914299699569256,0.038174146274705834,-5.499886130432091e-07,1.3800536367352975e-07,6.13419451973412e-07
1669909826753710397,18110,1669909826498082429,,-1.0367657618551231,-5.455825987196745,1.0600167185530474,-0.015000016897739084,-0.028999962630865316,-0.012000024918324918,7.646617060275338e-293,3.900147050171607e-293,4.534287804822042e-292,0.03133332764577901,0.014846938511656305,0.03903119726668436,-5.499449635136601e-07,1.3795350892881716e-07,6.135576748064732e-07
1669909826820369576,18111,1669909826629513117,,-1.0397321796665038,-5.4593078958331684,1.0595640984203725,-0.018000017062354205,-0.027999962704178923,-0.01500002516107532,0.0,0.0,0.0,0.03267990592749115,0.014016554433593953,0.04207187542012569,-5.498931804559495e-07,1.3771249833108847e-07,6.140634924318539e-07
1669909826851266682,18112,1669909826728402571,,-1.0414140644735073,-5.462102769620131,1.0596103152214777,-0.018000017062354205,-0.027999962704178923,-0.01500002516107532,-3.448745837695228e-144,-3.5980943007053675e-145,-3.8493549106253946e-143,0.0335224273832182,0.012351515519892331,0.044733067168408525,-5.49854908194606e-07,1.3733123757998568e-07,6.145016654116501e-07
1669909826851269108,18113,1669909826782377798,,-1.0423283756089055,-5.463629391340029,1.0605097205123106,-0.018000017062354205,-0.027999962704178923,-0.01500002516107532,3.928031854459604e-142,1.0508544799374483e-141,7.183003215611846e-143,0.03394609375250468,0.011001959215297674,0.04609390227168575,-5.498350344413944e-07,1.3706116352014758e-07,6.147102862364604e-07
1669909826994621878,18114,1669909826808271168,,-1.0431645481825362,-5.464365867319717,1.060108571297713,-0.019000017221029775,-0.027999962712511105,-0.01600002539506695,0.0,0.0,0.0,0.03393920036688769,0.011016494706105107,0.046072431990980434,-5.498365282304986e-07,1.3706557838376365e-07,6.147022174779511e-07
1669909827121610564,18115,1669909826964142678,,-1.04598613389014,-5.468016910104231,1.049746815889514,-0.019000017370215644,-0.02599996258166563,-0.018000025615064544,0.0,0.0,0.0,0.03484979433858015,0.006507290283721545,0.048758169799231865,-5.498165367594525e-07,1.3623918606847715e-07,6.150867030660349e-07
1669909827411757405,18116,1669909827094225683,,-1.0483044237428674,-5.47143549643803,1.0497246027778417,-0.019000017370215644,-0.02599996258166563,-0.018000025615064544,0.0,0.0,0.0,0.035196929718743775,0.00154504434670244,0.05014170764795445,-5.499002317274326e-07,1.353964588008351e-07,6.152835454586722e-07
1669909827467955104,18117,1669909827151855575,,-1.049366586467972,-5.472137330249606,1.0486430147401564,-0.019000017400777832,-0.02399996237437452,-0.01800002566013321,-1.2048691615975227e-258,-4.633373134186608e-261,-3.700990058781504e-258,0.03521939779052019,-0.0005250052342553602,0.05034923994155349,-5.499588511394003e-07,1.350406606408536e-07,6.152921877562022e-07
1669909827467957693,18118,1669909827262027666,,-1.0509799571195098,-5.474416211043392,1.0490733319647434,-0.01800001738986135,-0.022999962064012988,-0.019000025644035173,-1.6578092e-316,-1.32624737e-315,-1.35807730622e-312,0.03508263298570391,-0.004145109913441303,0.05047824598207207,-5.500621643801109e-07,1.3457048999167925e-07,6.153328749283251e-07
1669909827467959921,18119,1669909827368150064,,-1.052758434450371,-5.476879219822045,1.0487897202494645,-0.01800001738986135,-0.022999962064012988,-0.019000025644035173,-2.2761049594727193e-159,-1.8208839675781755e-158,2.3307314785000646e-156,0.03494345577944813,-0.0058452127792705255,0.05047483067924574,-5.501245606738746e-07,1.3435458497297755e-07,6.153403831547776e-07
1669909827559727695,18120,1669909827401858743,,-1.0533585114581643,-5.476961950598363,1.050166965714504,-0.018000017352223903,-0.020999961747659557,-0.01800002558853294,1.9836099319976284e-230,2.5558146606660318e-230,9.389284049655256e-232,0.03474589452857657,-0.007496777704645297,0.050424987264708676,-5.502154705340955e-07,1.3415394291636672e-07,6.153528939459532e-07
1669909827664836764,18121,1669909827529905877,,-1.0555087126806018,-5.479682884882353,1.0497112349972721,-0.018000017352223903,-0.020999961747659557,-0.01800002558853294,-2.7558123924080625e-65,9.976770417632904e-65,-7.599963168983791e-64,0.03429154721858829,-0.009923330532750185,0.05027717160955092,-5.503666902460055e-07,1.3384226978069175e-07,6.15356984333542e-07
1669909827806225110,18122,1669909827638631276,,-1.0564225528217166,-5.482391574737004,1.0411045237190597,-0.016000017271201563,-0.021999961409953736,-0.018000025469053,0.0,0.0,0.0,0.03374568217499885,-0.012641678411265289,0.049959362489033765,-5.504906296312072e-07,1.3353095445013472e-07,6.153655994701193e-07
1669909827928722586,18123,1669909827767727643,,-1.057898227910347,-5.485244595179192,1.0399746931893699,-0.015000017189895519,-0.02199996109047891,-0.017000025349154683,0.0,0.0,0.0,0.03357956759790248,-0.014650502886963679,0.049426807663282446,-5.505617176126655e-07,1.33378378663965e-07,6.153000464246236e-07
1669909827962900863,18124,1669909827899034226,,-1.0596920375192977,-5.4881501337674,1.0393392746814523,-0.015000017189895519,-0.02199996109047891,-0.017000025349154683,0.0,0.0,0.0,0.03332180633217874,-0.01536348694786227,0.04885650896915017,-5.506857915290047e-07,1.334264303145881e-07,6.152319367590015e-07
1669909828095854449,18125,1669909827934151994,,-1.0588668243751893,-5.488891814847856,1.0404376510521183,-0.012000017099528111,-0.021999960827678324,-0.015000025215893989,9.163500846181487e-292,6.213517218542627e-293,1.7242903367188043e-293,0.03319207416793901,-0.015434800605666155,0.04855465285863936,-5.507108036901595e-07,1.335006021885337e-07,6.151980189759956e-07
1669909828443301954,18126,1669909828067697079,,-1.058428506312278,-5.4910013583207355,1.0399288457219664,-0.007000016999189526,-0.019999960574640433,-0.013000025067929254,0.0,0.0,0.0,0.033005210938394924,-0.014884796920803467,0.047804012522512096,-5.507817798076089e-07,1.337430216677917e-07,6.150829623298781e-07
1669909828465371926,18127,1669909828184154100,,-1.0591112290015465,-5.493315385043788,1.0396921935679566,-0.007000016999189526,-0.019999960574640433,-0.013000025067929254,0.0,0.0,0.0,0.03313700245305817,-0.0133571167420925,0.04684237107006339,-5.507458268924068e-07,1.3415419247862833e-07,6.149368715543415e-07
1669909828465860039,18128,1669909828226244866,,-1.057806131343648,-5.494102702490615,1.0392459579147357,-0.0030000169701957314,-0.019999960458365152,-0.011000025025173428,0.0,0.0,0.0,0.033363822255072506,-0.012398195685152658,0.04638356847817349,-5.506901194974093e-07,1.3437054051684704e-07,6.148707708594679e-07
1669909828536732686,18129,1669909828365563819,,-1.0565674601215151,-5.496806953671399,1.0399634466137644,0.0009999830397848077,-0.019999960443052234,-0.009000025010455584,-4.587526716096163e-66,-1.50581808665334e-65,-1.901861433928755e-65,0.03418282478455836,-0.009795500252820943,0.04526199288184429,-5.505483635173554e-07,1.3491035045086622e-07,6.146942529341155e-07
1669909828605326496,18130,1669909828514800996,,-1.056275339406721,-5.499734767115243,1.0306846143039157,0.0009999830397848077,-0.019999960443052234,-0.009000025010455584,-5.616424370138479e-298,-9.057766012269351e-296,-3.683538575121242e-297,0.036120688749640806,-0.004992523205608279,0.04336432624240061,-5.502348139837315e-07,1.3582074659331914e-07,6.143655345947444e-07
1669909828874274055,18131,1669909828581090779,,-1.0539277287775106,-5.5009490072591305,1.0299850428548123,0.005999983015670471,-0.01999996053512468,-0.008000025046015895,-3.736056662475002e-144,2.709116524530078e-142,1.0083049863311378e-141,0.03695860505425941,-0.0030978084608488388,0.04259722320882808,-5.50076758361289e-07,1.3614065426528118e-07,6.142374265302823e-07
1669909828945946819,18132,1669909828751840320,,-1.0509205850415895,-5.50373584043538,1.030104432570452,0.009999982925866617,-0.018999960721829426,-0.007000025178445543,0.0,0.0,0.0,0.04046513798728668,0.0026234018550663762,0.039764479955074705,-5.494561514066119e-07,1.3699014104891548e-07,6.13740504303984e-07
1669909829106845678,18133,1669909828924084490,,-1.0480837504176796,-5.507337178676563,1.0295117367501694,0.011999982759345574,-0.01999996102653011,-0.007000025424006527,1.0175896870640471e-78,-1.2915315608571931e-80,-9.179740873037045e-79,0.045081172332894326,0.007596396416580831,0.03649141316692095,-5.487031776988668e-07,1.3772764133053324e-07,6.132247296299515e-07
1669909829483136265,18134,1669909829084966784,,-1.0460346564802765,-5.5109313233541934,1.0298196541908,0.011999982546647676,-0.020999961396053136,-0.007000025737662414,0.0,0.0,0.0,0.05036988683767518,0.012382577640384085,0.03346709855467189,-5.479223957209946e-07,1.3845033021160212e-07,6.128386465078351e-07
1669909829508210409,18135,1669909829239942240,,-1.0422151157686497,-5.514044519276721,1.0301457357778234,0.01599998218328344,-0.020999961954789016,-0.0050000262734990735,-6.498112592372601e-65,2.47831662632687e-64,-9.985129101635223e-64,0.0553643995537314,0.01644958605913338,0.030846843301198135,-5.47251851190797e-07,1.389748121865228e-07,6.124647808151045e-07
1669909829538498008,18136,1669909829383070968,,-1.038950832253391,-5.516451128803209,1.0298610996493374,0.01799998184348168,-0.01999996236783881,-0.005000026774589232,-4.2168791772922093e-81,-2.1084395886461046e-81,-5.397605346934028e-79,0.058471879198419785,0.018615175025558983,0.02902771300137985,-5.469176948353524e-07,1.3919390206992025e-07,6.122149238613391e-07
1669909829744509936,18137,1669909829515410392,,-1.036080831743205,-5.518952618738267,1.0295927235023852,0.018999981456186442,-0.019999962776662914,-0.0060000273457158455,-9.027226725632518e-144,-1.6091417166974733e-144,-4.5419660523087005e-142,0.06089445203316224,0.02005404881465722,0.02731069351101567,-5.466835049360282e-07,1.3928603560964875e-07,6.119960622630261e-07
1669909830222513068,18138,1669909829730872159,,-1.0314341612294784,-5.52204917814396,1.0294752590992364,0.019999981105819905,-0.017999963147004215,-0.006000027862385394,-3.861528639798188e-232,-1.3206108543150179e-233,2.9048460664064103e-233,0.06444551378114483,0.02023810644988444,0.024376579944227927,-5.463796009967749e-07,1.3902260785708762e-07,6.116914753758356e-07
1669909830222890004,18139,1669909829860379611,,-1.0283352932456895,-5.524224969046481,1.021071031536265,0.02099998077108521,-0.01799996350117479,-0.007000028356003376,0.0,0.0,-3.4001497121819183e-122,0.06535263547479708,0.017844863133472444,0.02279850961955532,-5.464995835062845e-07,1.38412060700873e-07,6.116044359398141e-07
1669909830298185597,18140,1669909830046282589,,-1.0244071826128742,-5.526844369493601,1.0201574592330267,0.020999980545224395,-0.016999963737299093,-0.008000028689070017,1.2928533746308022e-143,1.1444779434960388e-139,4.8080797055278004e-142,0.06422719182153003,0.013091773259601425,0.021854342672021687,-5.470042987369579e-07,1.3745025758999607e-07,6.116487131663356e-07
1669909830765003204,18141,1669909830256718933,,-1.0217314928778596,-5.528794703521613,1.0200499335504472,0.01799998035831655,-0.013999963763163,-0.011000028964694493,0.0,0.0,0.0,0.060812520887866484,0.004899598528282922,0.02113525803019911,-5.477587089761919e-07,1.3602022324635512e-07,6.117138551351409e-07
1669909830767995531,18142,1669909830411151033,,-1.0193108495801937,-5.53080416908231,1.019420146051648,0.016999980463314975,-0.013999963538936441,-0.011000028809858101,7.267677153012602e-297,-1.4104879788626963e-294,-7.455703422484202e-293,0.0580310326752862,-0.002129015355986752,0.020798566677861174,-5.48253843666288e-07,1.3493772874211464e-07,6.117969729496709e-07
1669909830768052347,18143,1669909830571401579,,-1.0165356141993118,-5.5328893411190805,1.0198935344139075,0.016999980463314975,-0.013999963538936441,-0.011000028809858101,6.038793855970428e-44,5.193267049465537e-43,9.217185611854387e-42,0.05613099294984458,-0.006955151940331916,0.020858486886627503,-5.485834666151231e-07,1.3421629994410508e-07,6.119664735130464e-07
1669909830807786957,18144,1669909830631688680,,-1.0154791398331167,-5.5341401593351245,1.0191884248856569,0.016999980697372977,-0.014999963172705697,-0.011000028464703446,0.0,0.0,0.0,0.05531525773247026,-0.00905571692250895,0.02113246360882215,-5.487202419053871e-07,1.3403348743134114e-07,6.120953028111718e-07
1669909831270890271,18145,1669909830793546917,,-1.0121600074578465,-5.53738252441588,1.0196739166389879,0.01799998096560585,-0.016999962738429387,-0.010000028069152664,-1.0631728652587115e-142,1.1398221311287512e-142,-4.9859195687925786e-141,0.053001250985948545,-0.013629027153061912,0.022973442849540504,-5.490947592391156e-07,1.3379371274367277e-07,6.12629932461057e-07
1669909831280993229,18146,1669909830948403741,,-1.0083258220773323,-5.540405443605741,1.020100606805107,0.019999981243989044,-0.017999962252485673,-0.007000027658633669,-5.385587164048391e-80,-1.7188232383370506e-79,1.6981763590338043e-79,0.04999058197609685,-0.01340152601212452,0.026598980068992972,-5.499438798003087e-07,1.3434698122357473e-07,6.134183370770414e-07
1669909831289740439,18147,1669909831130407106,,-1.0005028182636118,-5.543599478382056,1.0199646709352979,0.02799998147595657,-0.017999961802357974,-2.7316561740894744e-08,6.789158960143809e-157,-1.4814614509085955e-154,2.1555687447379285e-156,0.044901863168144374,-0.010547508282034102,0.03161237507093695,-5.508422871150094e-07,1.3510001361433826e-07,6.143997864393567e-07
