%time,field.header.seq,field.header.stamp,field.header.frame_id,field.position.x,field.position.y,field.position.z,field.velocity.x,field.velocity.y,field.velocity.z,field.acceleration.x,field.acceleration.y,field.acceleration.z,field.orientation.x,field.orientation.y,field.orientation.z,field.angular_velocity.x,field.angular_velocity.y,field.angular_velocity.z
1669909269146031035,12415,1669909268686685197,,-3.409345831108617,-3.7935371986161766,0.7799935387673154,0.23000416764435613,-0.019000658033009547,0.03000017434459534,-2.9983846541190245e-80,-1.3474928339827155e-79,-2.501078419222606e-80,0.07692462561105629,0.12504605030368587,0.310355682767689,-3.264727150545824e-07,1.0053435815680808e-07,4.0362992333834144e-07
1669909269249699458,12416,1669909268815339239,,-3.3801234962951945,-3.7870025258717708,0.7799695301118926,0.23000416764435613,-0.019000658033009547,0.03000017434459534,6.946635214887629e-296,-9.173350626601603e-295,-4.707418199063146e-295,0.07182050271678264,0.12444551310144192,0.31242308893821047,-3.2797372215344033e-07,1.001541661050084e-07,4.0391376519354774e-07
1669909269249717490,12417,1669909268862187550,,-3.383896580186372,-3.7852389152056256,0.7800006341433083,0.1960010855638298,-0.010000268756381837,0.025000140711946173,0.0,0.0,0.0,0.07076494428791413,0.1241432642983824,0.3126234901295586,-3.2823898340285167e-07,1.0002182383542383e-07,4.039196054719856e-07
1669909269249735559,12418,1669909268978947371,,-3.361535795224684,-3.7794360348222593,0.7799862433817469,0.1960010855638298,-0.010000268756381837,0.025000140711946173,5.04819486526078e-79,4.1805284427328455e-78,7.383897759905175e-78,0.061007701855698926,0.11978818104810962,0.31356251550089453,-3.302073477833198e-07,9.894708970014363e-08,4.0405754297528973e-07
1669909269262246662,12419,1669909269039662128,,-3.360526487216207,-3.7768778926251163,0.7800561526938057,0.17300073465547758,-0.0040001732347037635,0.018000206668251185,2.252709992063151e-229,5.390428543748365e-229,2.588305964013963e-228,0.057157589504191364,0.1175087203556302,0.31367138063791344,-3.3098651715174753e-07,9.837494305485741e-08,4.0407650971142153e-07
1669909269262250608,12420,1669909269156759368,,-3.3409772150878005,-3.7711499172237573,0.7799952760105265,0.17300073465547758,-0.0040001732347037635,0.018000206668251185,-7.419218762595795e-64,-1.8200363493087046e-63,3.3881204624957827e-63,0.04961665816855643,0.1118525811337765,0.31347122675910555,-3.3223873203744036e-07,9.721179876663028e-08,4.040726463693692e-07
1669909269348949244,12421,1669909269197625687,,-3.3424328374432917,-3.7701582811406897,0.7797766499923323,0.15100068720415888,-1.054151982171968e-07,0.011000202200513152,-5.905148930950383e-217,-1.314956573688194e-217,-1.105281893082349e-216,0.046787665921662835,0.10917771580771429,0.31328973970696694,-3.325130572987171e-07,9.672182742744694e-08,4.0405190633916904e-07
1669909269669018842,12422,1669909269295162789,,-3.3283777790979383,-3.7656579378543165,0.7798520600605218,0.15100068720415888,-1.0541519821719676e-07,0.011000202200513152,-3.536533953397924e-79,4.421945796170328e-80,-1.9949303196266788e-79,0.042204945825368156,0.10377314638153301,0.3128674882617357,-3.331337809208121e-07,9.568244809344983e-08,4.040316659289375e-07
1669909269744609952,12423,1669909269335442977,,-3.322572688282798,-3.763799442183988,0.7796550951545929,0.15100068720415888,-1.0541519821719676e-07,0.011000202200513152,3.0510422323881993e-78,1.0498510752360014e-77,1.4428899112285302e-77,0.03894237234181119,0.09887367046969331,0.31247080814297234,-3.335848077934725e-07,9.477192734586626e-08,4.0402360791923493e-07
1669909269744627193,12424,1669909269365316195,,-3.318266483763096,-3.7624217110947793,0.7800450836812403,0.15100068720415888,-1.0541519821719674e-07,0.011000202200513152,1.3814964571129713e-61,1.6459241688331572e-62,7.779109761134355e-61,0.038739966740863,0.09852466252229952,0.312444562480934,-3.336085723512189e-07,9.471473502334911e-08,4.040245534530775e-07
1669909269744643963,12425,1669909269379682145,,-3.316196011879596,-3.7617588925187806,0.7799762168116606,0.15100068720415888,-1.0541519821719674e-07,0.011000202200513152,0.0,0.0,0.0,0.03715759215169001,0.09561786660142424,0.3122339713306239,-3.33798708718986e-07,9.422677727205976e-08,4.04028245795742e-07
1669909269744660738,12426,1669909269399379152,,-3.3210320495027545,-3.763228319017849,0.7798392801259781,0.13200137580071777,2.228393318723781e-08,0.006000345377818782,-3.8491653897155915e-216,-3.78199197460682e-218,2.2984592356290877e-214,0.03667165914358428,0.09465941174989823,0.31216626205861076,-3.3381240673819995e-07,9.409719031187359e-08,4.040256109989486e-07
1669909269744677631,12427,1669909269504952617,,-3.3077637429863334,-3.758971786577431,0.7798023001086594,0.13200137580071777,2.2283933187237835e-08,0.006000345377818782,-3.5328464918471134e-217,-2.446747231162034e-216,-1.604445492736231e-216,0.0324691858805668,0.08446574204116963,0.3114807121834371,-3.3430090374567044e-07,9.23493830863539e-08,4.0402637251700675e-07
1669909269744694618,12428,1669909269543528877,,-3.3029140716956493,-3.757417219855526,0.7801386040878061,0.13200137580071777,2.2283933187237852e-08,0.006000345377818782,0.0,0.0,0.0,0.03087194398946913,0.07917932000236938,0.3111499391426733,-3.345008435135819e-07,9.143696704820175e-08,4.04025145026593e-07
1669909269774421380,12429,1669909269567202112,,-3.3034903401509377,-3.7590343418100067,0.780086106684094,0.12100034842214633,-0.003999845778035418,1.7808499135855806e-07,0.0,0.0,0.0,0.030891445445590193,0.07919731231838334,0.3111511116336416,-3.344323330739717e-07,9.153473499922827e-08,4.0402269514101735e-07
1669909269774466665,12430,1669909269677738846,,-3.2906606430881955,-3.755373282155838,0.779068771110384,0.12100034842214633,-0.003999845778035418,1.780849913585682e-07,0.0,0.0,0.0,0.02810828429893597,0.06700785994242331,0.3104100152017004,-3.3481141773258945e-07,8.948332527305037e-08,4.0401440259944464e-07
1669909269792520986,12431,1669909269711556611,,-3.2867320008060794,-3.7542547556285384,0.7787901005950129,0.12100034842214633,-0.003999845778035418,1.780849913585682e-07,-2.823014682678128e-145,-8.141681252799314e-147,-2.3525568605586885e-145,0.027897419988342165,0.06591561841208105,0.3103435204559961,-3.348386176232616e-07,8.930855042428454e-08,4.04013835779209e-07
1669909269846391558,12432,1669909269745959132,,-3.2827348839951345,-3.7531171615424075,0.7803105777070471,0.12100034842214633,-0.003999845778035418,1.780849913585687e-07,3.6815380622973254e-300,1.7385756656644554e-299,6.979136675851942e-299,0.02713861462657441,0.061660303260094196,0.310084237317664,-3.3492908106911704e-07,8.863581127819804e-08,4.0400866697345246e-07
1669909269870091237,12433,1669909269779618460,,-3.278824073627658,-3.7520040275907247,0.7800398581506063,0.12100034842214633,-0.003999845778035418,1.780849913585687e-07,6.782234269062842e-213,-7.638999576522576e-215,-8.727707461697199e-212,0.0266631411881999,0.058396325831806095,0.30986263536496494,-3.349801022235593e-07,8.8198347105031e-08,4.0400246913844274e-07
1669909270147837987,12434,1669909269803713182,,-3.2824595823671556,-3.7532179788785958,0.7794760430805905,0.10299998799408734,-0.003999976226930824,-0.005000017704571678,-3.141547206983337e-142,-3.2533949622574086e-143,1.1273518125180798e-139,0.026271851567482685,0.0558697902888845,0.30969685914088707,-3.35031859303171e-07,8.779055267898085e-08,4.0399639666638387e-07
1669909270196610173,12435,1669909269917570634,,-3.2711988642823018,-3.7500800224042905,0.7793867359813755,0.10299998799408734,-0.003999976226930824,-0.005000017704571678,0.0,0.0,0.0,0.024876706539094684,0.044413557761107114,0.3089414269585333,-3.352166733243086e-07,8.596932750858725e-08,4.039806527939285e-07
1669909270196662697,12436,1669909269969422343,,-3.270360059337566,-3.7492020911808908,0.7799918409416716,0.0920003560003656,-0.002000042297473565,-0.0069999501534183575,0.0,0.0,0.0,0.02437755469142644,0.03843643227913063,0.30856175255325446,-3.352861751385901e-07,8.50211418726188e-08,4.0398662803421966e-07
1669909270212632251,12437,1669909270080429236,,-3.2606000683534626,-3.7463062964187177,0.7799561201789413,0.0920003560003656,-0.002000042297473565,-0.0069999501534183575,1.34450937913645e-63,-1.2843252768482064e-63,-5.714005107898182e-62,0.023881336497497685,0.028468476618597194,0.3079625564422024,-3.353410938310658e-07,8.334598710490428e-08,4.0400315398703327e-07
1669909270230192426,12438,1669909270134736098,,-3.255820903512354,-3.7448905960749346,0.7794324088425219,0.0920003560003656,-0.002000042297473565,-0.0069999501534183575,-2.4314138039930185e-295,-1.7200399650717462e-295,-7.911346448368733e-293,0.023798096349615605,0.02225181545910715,0.30761671167284277,-3.3533682104553733e-07,8.235888822137346e-08,4.040098312818284e-07
1669909270347683428,12439,1669909270179479539,,-3.255683913450973,-3.7453283545047045,0.780002803228287,0.08100036319468665,-0.0029999403471766646,-0.007000016065127772,0.0,0.0,0.0,0.023885236420388978,0.016973400204900457,0.3073116044038535,-3.352967450392694e-07,8.165737407410979e-08,4.0401390573317457e-07
1669909270411354928,12440,1669909270299559149,,-3.246323171698986,-3.7427155097034768,0.7798591761569368,0.08100036319468665,-0.0029999403471766646,-0.007000016065127772,0.0,0.0,0.0,0.024218178702966497,0.006635450331280879,0.3067258725728568,-3.3527237298266207e-07,8.001689157683037e-08,4.040389523888206e-07
1669909270657000767,12441,1669909270342250585,,-3.2429926674177123,-3.741787073666932,0.7795282295249754,0.08100036319468665,-0.0029999403471766646,-0.007000016065127772,3.3840799810986e-309,-1.779875942809847e-309,8.025087658172996e-309,0.024446772817263707,0.0017738996466416523,0.3064587344053713,-3.3523814861924957e-07,7.932171911130415e-08,4.0404267177584016e-07
1669909270757947785,12442,1669909270370446819,,-3.244754895356875,-3.742422568111847,0.7801745507324936,0.07100032004100512,-0.002999973602420323,-0.007999982504921151,2.64965468375674e-309,3.0821718096281e-310,4.497481668590382e-308,0.02444826197413441,0.0017916462240226139,0.30645988107411704,-3.3523182035786973e-07,7.944152569888003e-08,4.0404405119917174e-07
1669909270757950670,12443,1669909270482130183,,-3.2370992293007443,-3.7403298455585876,0.7800404446225784,0.07100032004100512,-0.002999973602420323,-0.007999982504921151,1.0757860659835829e-63,4.4746792961140134e-63,-4.232967349359328e-62,0.025046056016016394,-0.007324492993024734,0.30587307899154936,-3.351650414107868e-07,7.812960981749225e-08,4.0404148434362644e-07
1669909270757953115,12444,1669909270533799741,,-3.2335543575715437,-3.7393622657403505,0.7796522555433686,0.07100032004100512,-0.002999973602420323,-0.007999982504921151,0.0,0.0,0.0,0.025421451579290988,-0.012131839189622795,0.3054942784260053,-3.3512987965902535e-07,7.749547084280916e-08,4.0403700737069164e-07
1669909270812383168,12445,1669909270565515804,,-3.233072930032316,-3.739703174462231,0.7856033249469572,0.06600031920623481,-0.003999906683895462,-0.00800001493726204,2.1211905678756185e-65,-9.416975264253536e-66,-1.1290479442572728e-63,0.025843023233980134,-0.017104459307738296,0.3051251694776269,-3.351119040724726e-07,7.689169132127925e-08,4.0405896264052163e-07
1669909270830001411,12446,1669909270679121407,,-3.225777217223139,-3.7378570012606045,0.7889753775991656,0.06600031920623481,-0.003999906683895462,-0.00800001493726204,0.0,0.0,0.0,0.026020611635946267,-0.024727075634235263,0.30417645497930934,-3.352807933820418e-07,7.574016919343388e-08,4.0382365101868315e-07
1669909270922277117,12447,1669909270746532066,,-3.2172403012391495,-3.7337254566343243,0.7886422615789498,0.07799958837383045,-1.0582426866311545e-07,-0.007000048109240164,-8.116648499892305e-293,-2.5016315881024638e-293,-8.058994297790324e-293,0.02585038140917284,-0.02844582886411473,0.30295510415108673,-3.353753284296991e-07,7.542291135327495e-08,4.035025002313783e-07
1669909271195889902,12448,1669909270872048209,,-3.207879451702837,-3.7307838837718927,0.7900786311565035,0.07799958837383045,-1.0582426866311533e-07,-0.007000048109240164,1.0095706949258354e-43,7.720926362435308e-44,3.014417327735363e-42,0.0256179692089038,-0.033911215110240533,0.2995128475559241,-3.354272140869712e-07,7.472987229467028e-08,4.027390640154809e-07
1669909271241448754,12449,1669909270918515643,,-3.2044109318554197,-3.7297020328065753,0.7898750331080139,0.07799958837383045,-1.0582426866311533e-07,-0.007000048109240164,0.0,0.0,0.0,0.026052204545090163,-0.03574314594158423,0.29736586127055276,-3.3519779573353803e-07,7.463474542557909e-08,4.0234405971573834e-07
1669909271241545835,12450,1669909270947098898,,-3.1844720566042644,-3.7206620501661196,0.7901651227244106,0.12799501036054484,0.006999331730935761,-0.0010006118727646047,0.0,0.0,0.0,0.027149921849025205,-0.03714968696191434,0.2948290677965453,-3.3483848200511587e-07,7.464086465875701e-08,4.018519284475148e-07
1669909271241593955,12451,1669909271058382791,,-3.1710792320288776,-3.7157690012884554,0.7902781615018993,0.12799501036054484,0.006999331730935761,-0.0010006118727646047,0.0,0.0,0.0,0.031673089987407366,-0.03840593264099468,0.2878325037440206,-3.338472551944675e-07,7.488927431851019e-08,4.00495157527049e-07
1669909271241637944,12452,1669909271096767236,,-3.1664472781738797,-3.7141164343348327,0.7899291788080782,0.12799501036054484,0.006999331730935761,-0.0010006118727646047,0.0,0.0,0.0,0.03167307657896856,-0.0384059302546742,0.2878325192115305,-3.338472551944675e-07,7.488927431851019e-08,4.00495157527049e-07
1669909271241681973,12453,1669909271125926381,,-3.1629296128831,-3.7128580568249285,0.7900500486926363,0.12799501036054484,0.006999331730935761,-0.0010006118727646047,-2.3716530515060775e-137,1.866277729134636e-138,-2.769138180693777e-136,0.03361341523503647,-0.03816159844489064,0.285201898455103,-3.334154540248622e-07,7.510403041317408e-08,3.9992516227706636e-07
1669909271297608603,12454,1669909271146368181,,-3.1479115406153375,-3.710069313994785,0.7905323011723945,0.16299883616679844,0.002000194380882449,0.0029998541085125277,9.660706062318653e-296,-2.2918998401507994e-296,-1.0011530062817113e-293,0.034059917000602624,-0.0379422322743288,0.2846416588141487,-3.334163199759042e-07,7.516509844794171e-08,3.9995295743210916e-07
1669909271351698762,12455,1669909271248038667,,-3.132078183248513,-3.7052528311281994,0.7994825997519033,0.16299883616679844,0.002000194380882449,0.0029998541085125277,8.058435678656879e-231,-3.3346112613619175e-230,-6.165237010842023e-231,0.04027579074576515,-0.035282094109478024,0.2756132229113568,-3.325638550157306e-07,7.58426522431271e-08,3.9829302423334404e-07
1669909271373357493,12456,1669909271304637381,,-3.1232409412562565,-3.7026440290003952,0.7999695687426208,0.16299883616679844,0.002000194380882449,0.0029998541085125277,-8.898457007157304e-64,1.5350348610425776e-63,6.651201386491994e-63,0.04080277566793811,-0.03495396029784459,0.2747378576795505,-3.3250358365515867e-07,7.591529314499174e-08,3.981294980636995e-07
1669909271409703446,12457,1669909271326258644,,-3.1198644808612395,-3.701649171805618,0.8001596679914152,0.16299883616679844,0.002000194380882449,0.0029998541085125277,0.0,0.0,0.0,0.0424025963061645,-0.033796389297361173,0.2718687151522339,-3.3233716490763827e-07,7.614637192949316e-08,3.9763047625498717e-07
1669909271717785137,12458,1669909271345689498,,-3.104555787642743,-3.6963260472236423,0.8006366262808104,0.194997882655165,0.003999897916237151,0.007999656793258987,0.0,0.0,0.0,0.045168008193410714,-0.03120487822379836,0.2660920533324571,-3.321342189874631e-07,7.666752275748323e-08,3.9665427955276217e-07
1669909271778483412,12459,1669909271464517450,,-3.082353019617854,-3.689828887326171,0.800005316214361,0.194997882655165,0.003999897916237151,0.007999656793258987,-7.216409948067085e-291,-4.697172050059533e-292,-4.5847472286671493e-290,0.048466024901136606,-0.025852059412054373,0.2557944473578466,-3.3205760551905747e-07,7.762051601042546e-08,3.9497214939409326e-07
1669909271778486170,12460,1669909271504442042,,-3.0685153002842593,-3.683461280676539,0.8007229900335276,0.21599859870871468,0.010999565670873832,0.01199972060402655,-3.6477078013176735e-289,-3.118668353176101e-289,-3.007856989748268e-291,0.04844687141967796,-0.02585586308860144,0.2558202354269117,-3.321291517062621e-07,7.758038524267215e-08,3.950763992419621e-07
1669909271778488629,12461,1669909271610313083,,-3.0466772038532923,-3.67671077208377,0.8008776303041917,0.21599859870871468,0.010999565670873832,0.01199972060402655,-3.292425238995414e-65,-2.595993341447506e-64,-3.425101349593491e-63,0.04900241212412482,-0.019255156487535174,0.24537760211369886,-3.3265347825801123e-07,7.880571729959242e-08,3.9340407721846e-07
1669909271778491209,12462,1669909271654707168,,-3.037498912973185,-3.673938034846216,0.8016168252615075,0.21599859870871468,0.010999565670873832,0.01199972060402655,-1.2863890854515623e-297,1.275680307038771e-294,3.189051301044566e-293,0.04811450268825901,-0.015218725766439789,0.23980853132572477,-3.330036751605033e-07,7.94670511006392e-08,3.925067981338157e-07
1669909271779777323,12463,1669909271682152208,,-3.0318185725196383,-3.6722408219221196,0.8000441538738935,0.21599859870871468,0.010999565670873832,0.01199972060402655,-1.2382986206152007e-63,3.314762433219259e-64,-2.058945029349373e-62,0.04741189913132615,-0.012834595398514281,0.23656411881251316,-3.3319679541622173e-07,7.984042638826847e-08,3.9198887982394666e-07
1669909271779798835,12464,1669909271711340699,,-3.025768629524906,-3.670460555335041,0.8004965677471299,0.21599859870871468,0.010999565670873832,0.01199972060402655,-1.5109417681123554e-142,1.0082251627436988e-141,-5.1271118877653325e-141,0.046961299715309934,-0.011492933779397418,0.23476672262800236,-3.333161301217959e-07,8.00547764932061e-08,3.917073080460893e-07
1669909271898960386,12465,1669909271729779552,,-3.033691104136487,-3.66990891908358,0.8010531418605842,0.18900089314804888,0.016999828263592552,0.01799978429181584,0.0,0.0,0.0,0.046724079255659134,-0.010823262436158387,0.23387640806527799,-3.3337309794807417e-07,8.016302465796963e-08,3.915700900387323e-07
1669909271950325690,12466,1669909271849955901,,-3.0120425235019432,-3.6628280451757056,0.8012071530165547,0.18900089314804888,0.016999828263592552,0.01799978429181584,-2.1581966030100883e-77,-2.4758776686242686e-77,-9.658466381565068e-77,0.04391521300404477,-0.003931556260258873,0.2247681902575458,-3.3398839401727136e-07,8.119688097682661e-08,3.901193625686096e-07
1669909272242745378,12467,1669909271895814162,,-3.0122781896025574,-3.6618389182466986,0.808613668986021,0.1650029490510896,0.017999904579075944,0.01700010753777241,1.3051921221856398e-290,1.6368388130227527e-292,2.009243044924682e-294,0.04242305469841767,-0.0009586423307759162,0.22060131387702953,-3.3427430565457953e-07,8.154269292741595e-08,3.8953726165935697e-07
1669909272314888032,12468,1669909271997886901,,-2.9962161090498856,-3.656468910741188,0.8097738555682713,0.1650029490510896,0.017999904579075944,0.01700010753777241,0.0,0.0,0.0,0.039079316473179304,0.004366832686425681,0.2124646931707872,-3.349945882424385e-07,8.228573122374884e-08,3.882441047419358e-07
1669909272314934188,12469,1669909272038946570,,-2.989743260566436,-3.6543367254223007,0.810475833969434,0.1650029490510896,0.017999904579075944,0.01700010753777241,0.0,0.0,0.0,0.03694792226552046,0.006990405334860839,0.2081612197846674,-3.354373338880226e-07,8.264400224431419e-08,3.875743264770534e-07
1669909272314937311,12470,1669909272063906152,,-2.9858010964681534,-3.6530590028382552,0.8108889354176517,0.1650029490510896,0.017999904579075944,0.01700010753777241,-9.598147997792638e-260,-1.338508590983801e-258,1.3226564471617567e-257,0.036504149482997406,0.007485285067595271,0.20732234759461576,-3.3553254580691536e-07,8.270883068526095e-08,3.874438238334748e-07
1669909272315313064,12471,1669909272089614495,,-2.991343828086948,-3.651423099564753,0.8097552429572829,0.1420007634055815,0.02399982512506774,0.016999984044138283,1.349401336733507e-79,5.397605346934028e-79,1.727233711018889e-77,0.03453869765462336,0.009483878293790937,0.20380777539312334,-3.3588337766094085e-07,8.290046792816931e-08,3.870049772275021e-07
1669909272338229355,12472,1669909272211225290,,-2.974974572358694,-3.645166474913823,0.810004173668135,0.1420007634055815,0.02399982512506774,0.016999984044138283,3.211205908858707e-307,7.888780989893623e-306,-2.6819781780658584e-305,0.030540867152323514,0.012988435447429225,0.1970803129104457,-3.3659371259351005e-07,8.333583386225829e-08,3.859699083317095e-07
1669909272457530030,12473,1669909272277604233,,-2.9721440530504957,-3.643097010252793,0.8093815885580593,0.12599998919183342,0.02400002607106395,0.01799998406168983,-6.905497704313769e-44,-1.206197201895347e-43,-4.47425728424939e-42,0.026443609741686913,0.015729338161321493,0.19045657093773904,-3.372073943149201e-07,8.351438360710925e-08,3.851183671107525e-07
1669909272764786061,12474,1669909272415248138,,-2.959176133241813,-3.63848956681439,0.8104468641368161,0.11599998927492958,0.02100002547743757,0.01699998418422793,0.0,0.0,0.0,0.018996509552131613,0.01846946856549536,0.17865606874295636,-3.3823006724518524e-07,8.347927931204164e-08,3.8362460619591414e-07
1669909272780921723,12475,1669909272515592467,,-2.9480569923921975,-3.634382459241592,0.8102096603189701,0.11599998927492958,0.02100002547743757,0.01699998418422793,0.0,0.0,0.0,0.015529978160184754,0.0187617568906866,0.17292118532148137,-3.3874932112118533e-07,8.33490645336684e-08,3.827765744459571e-07
1669909272780925342,12476,1669909272558957269,,-2.943243843235744,-3.632627753665459,0.8108663876537346,0.11599998927492958,0.02100002547743757,0.01699998418422793,0.0,0.0,0.0,0.013823014399811484,0.018581057073944862,0.16991349883073426,-3.389856591443177e-07,8.323047360048792e-08,3.8233486028032514e-07
1669909272780927471,12477,1669909272592587763,,-2.9438900657217673,-3.6324361263164526,0.8096132148765568,0.10300043408148449,0.020000058811036333,0.015000053021563856,-8.602642207145989e-280,-1.3402706840211326e-280,-1.2236451656398369e-277,0.013747945773697978,0.018621534960777453,0.16979424611476546,-3.391091034972409e-07,8.325080457551509e-08,3.821814687650983e-07
1669909272790842414,12478,1669909272694568946,,-2.9338511473058446,-3.628667224508012,0.8098355451768693,0.10300043408148449,0.020000058811036333,0.015000053021563856,-1.4083877871287407e-143,-3.4151699114075366e-143,-1.3800049100376298e-140,0.009379274569287332,0.01611525538802283,0.15950808199986355,-3.394096529040095e-07,8.265650479596776e-08,3.809608235812242e-07
1669909272828232088,12479,1669909272757825001,,-2.927604237377546,-3.626387677101615,0.8106902962591747,0.10300043408148449,0.020000058811036333,0.015000053021563856,8.830814143989003e-156,3.310915019703109e-154,6.450672164314028e-155,0.008752333544778779,0.015277171382503951,0.15723010546271965,-3.39420800520132e-07,8.24714349428751e-08,3.806709080319204e-07
1669909272851835807,12480,1669909272779527899,,-2.925460366237891,-3.6256072174071163,0.8109838503866644,0.10300043408148449,0.020000058811036333,0.015000053021563856,0.0,0.0,0.0,0.00829625049184557,0.014378588323388897,0.15509689699745977,-3.394182155369648e-07,8.228087194761537e-08,3.803948227761989e-07
1669909272868312671,12481,1669909272801172362,,-2.923320106662557,-3.624836004581506,0.819015701645105,0.10300043408148449,0.020000058811036333,0.015000053021563856,-7.305261529455759e-308,3.0024957324603535e-307,-1.557558983432498e-308,0.008177189622418979,0.014062038074584393,0.15440805992454898,-3.3941496837731423e-07,8.220929290568583e-08,3.8030122830613554e-07
1669909272985002201,12482,1669909272822835131,,-2.9258814462957536,-3.6264585419943276,0.8193153546222803,0.0900004408517561,0.01600016278908664,0.01400001985316848,0.0,0.0,0.0,0.007874945410399903,0.013773849836887564,0.1534838188678247,-3.3956485292070314e-07,8.204504832437739e-08,3.7990000648793256e-07
1669909273019457770,12483,1669909272926438160,,-2.9168950161600473,-3.6234206452816484,0.8200964822996721,0.0900004408517561,0.01600016278908664,0.01400001985316848,5.401255111668631e-79,-1.1171443377540393e-78,1.703660876488561e-79,0.007855920086454304,0.009632819904403789,0.14687887995053828,-3.394002025587274e-07,8.126308749033634e-08,3.790419581037401e-07
1669909273265407430,12484,1669909272971679920,,-2.9129670948933764,-3.622109160218067,0.8206933005232687,0.0900004408517561,0.01600016278908664,0.01400001985316848,1.153732595995032e-308,-5.939209682597546e-307,-6.50299395753253e-310,0.008398198060156403,0.006941452595816244,0.14337088450808544,-3.3924766363516583e-07,8.077124397872224e-08,3.7857524988314886e-07
1669909273289844944,12485,1669909272998457610,,-2.914676977803197,-3.6249070696874788,0.8197208023121376,0.07900074870765016,0.009000506428205934,0.013999985610173175,3.1015015729305776e-64,-9.44674236001148e-65,-1.4275522793944913e-61,0.008508109180251466,0.006411801619197632,0.14269873584654746,-3.3917046437135886e-07,8.063190028997028e-08,3.7848747821241226e-07
1669909273289850577,12486,1669909273137686750,,-2.9039508753648,-3.622141564249325,0.8194708977223851,0.07900074870765016,0.009000506428205934,0.013999985610173175,1.2132254482133156e-77,1.5534761808021392e-77,2.6101404859890924e-78,0.01047891392231115,0.00017077837349610547,0.13626071917088645,-3.387707687364414e-07,7.951883545311146e-08,3.7761997667374513e-07
1669909273343327089,12487,1669909273176944215,,-2.903868173268491,-3.6217983357605266,0.8200202580899011,0.07099999059220602,0.0090000236478922,0.0139999861267554,1.6948328147805225e-151,5.073185518474623e-153,4.520746062826306e-153,0.01107018970759377,-0.0009733861462652982,0.1352349106616657,-3.3868161243707846e-07,7.940927370823108e-08,3.775691998902364e-07
1669909273382458867,12488,1669909273300463842,,-2.8953264597291355,-3.619551516267232,0.8298996417632656,0.07099999059220602,0.0090000236478922,0.0139999861267554,-8.811150502982586e-220,-1.666412935900191e-218,1.9547705145742014e-217,0.014547268381054579,-0.007383029508130079,0.12945450435529082,-3.381701779772425e-07,7.853295637671795e-08,3.768957070418352e-07
1669909273432633522,12489,1669909273338272203,,-2.8927115261505327,-3.618873719571058,0.8295427143196358,0.07099999059220602,0.0090000236478922,0.0139999861267554,-1.6668482863535922e-215,-3.193084015511494e-215,-6.703403144523109e-215,0.016214167829573967,-0.01027754778411527,0.12685783125991712,-3.3796950049775175e-07,7.820507480054349e-08,3.7657342540930863e-07
1669909273545648367,12490,1669909273368866340,,-2.89375950557212,-3.6196152014251153,0.83000330836374,0.06299999071404767,0.007000023707940738,0.01499998630642974,-9.832412982124304e-141,-3.3495752384497755e-141,-9.094801854827885e-139,0.017365349831582222,-0.012101164219169291,0.12499889361029837,-3.376832047610825e-07,7.786525329791992e-08,3.762183310428674e-07
1669909273800722496,12491,1669909273491701687,,-2.886207118547202,-3.6178404083092772,0.8304278849769429,0.06299999071404767,0.007000023707940738,0.01499998630642974,1.5984048769734868e-220,7.20321881100291e-222,-1.1545988689405878e-218,0.02002993139779896,-0.01606065376817334,0.1201870763623969,-3.3751901506971335e-07,7.736070427806573e-08,3.755520117271805e-07
1669909273836581222,12492,1669909273537794195,,-2.8833727407811964,-3.6171873924104365,0.8294184051259222,0.06299999071404767,0.007000023707940738,0.01499998630642974,-4.13124247192901e-44,-5.085054400702291e-44,-2.5157607686570872e-42,0.020375790101150315,-0.01675938053598891,0.11926054337078362,-3.375276946371712e-07,7.727832154712024e-08,3.754210548318256e-07
1669909273836701081,12493,1669909273563480969,,-2.881793318480606,-3.6168213139178045,0.8298319427194819,0.06299999071404767,0.007000023707940738,0.01499998630642974,7.670458539527698e-93,-3.835229269763849e-93,-3.835229269763849e-93,0.020683781936540413,-0.017572481166354237,0.11800884180152416,-3.375067693710071e-07,7.71962638912818e-08,3.752680460919582e-07
1669909273837285540,12494,1669909273593217446,,-2.8808861359893827,-3.615720189934318,0.8305512049810175,0.061000083279790174,0.008999931461631295,0.017999847679286918,0.0,0.0,0.0,0.021251128814483877,-0.018997311620740476,0.11592539044007033,-3.375746460561281e-07,7.706577006329324e-08,3.7498761199955866e-07
1669909273837513966,12495,1669909273702269327,,-2.874425315861861,-3.614030782879958,0.8330021448755868,0.061000083279790174,0.008999931461631295,0.017999847679286918,-1.0983332229703934e-147,-9.482497245547631e-148,2.144413279715833e-146,0.02226507629327834,-0.02147472594903377,0.11183012584914209,-3.3733802632475726e-07,7.665056243726845e-08,3.743876948578518e-07
1669909273903923941,12496,1669909273737495330,,-2.8737539147319717,-3.61405318768003,0.838570064341872,0.05699999072167178,0.00800002417387092,0.02199998631767266,6.494720447443763e-43,6.629722922420573e-43,2.836309044905238e-41,0.02365432172700821,-0.023182481668474253,0.10917445978892104,-3.3689632386555254e-07,7.631218459078045e-08,3.739723147219604e-07
1669909273956060866,12497,1669909273859508090,,-2.867004500440407,-3.612406129460444,0.839743194536909,0.05699999072167178,0.00800002417387092,0.02199998631767266,4.1923811083778266e-63,1.7307304907904087e-63,1.2970915060140694e-61,0.028230888831028977,-0.02657390781885205,0.10493344677859895,-3.3558781711459485e-07,7.55735807650917e-08,3.7336463455800135e-07
1669909273997480398,12498,1669909273910676063,,-2.8641744561552214,-3.61172733359577,0.8409561813550067,0.05699999072167178,0.00800002417387092,0.02199998631767266,1.2105449306204536e-77,9.388987568780767e-79,3.319029465197852e-78,0.033364066793325264,-0.029421013669818308,0.10208608509721273,-3.344241854591902e-07,7.501120201964189e-08,3.729675741801004e-07
1669909274329697240,12499,1669909273950400776,,-2.8577552056999567,-3.613984665116793,0.8484964468930655,0.06699969549452743,2.6035156773345524e-07,0.028999779591419597,1.235433107163389e-215,1.5549288277281758e-214,3.8533368817091175e-214,0.03628785843324067,-0.030921522119166767,0.10071951956527059,-3.337824716343584e-07,7.475827865084011e-08,3.7287734343072005e-07
1669909274345938417,12500,1669909274060147719,,-2.850532594083143,-3.61338965641328,0.8586750347796138,0.06699969549452743,2.603515677334556e-07,0.028999779591419597,8.073651221988856e-291,3.234801458924182e-290,1.1284613617506526e-291,0.047037272166534194,-0.03620247978627589,0.09635203406221571,-3.318448157196633e-07,7.38219479983245e-08,3.722673410503824e-07
1669909274345959639,12501,1669909274095780008,,-2.848190351985576,-3.613211797918791,0.8597928197660359,0.06699969549452743,2.603515677334556e-07,0.028999779591419597,0.0,0.0,0.0,0.051020884360319485,-0.03800187178575243,0.0948128401414774,-3.312887153700158e-07,7.361101884764217e-08,3.7207996493404653e-07
1669909274345962514,12502,1669909274130905623,,-2.8458824321072056,-3.613042333960144,0.8608978260155083,0.06699969549452743,2.603515677334556e-07,0.028999779591419597,1.9459618032355122e-78,-3.264242666271732e-78,-3.286861267576714e-78,0.05668048295625461,-0.04044108858562723,0.09254214160064933,-3.3067381382492443e-07,7.335542007311641e-08,3.7178571209723497e-07
1669909274345965301,12503,1669909274158678866,,-2.8233461378161775,-3.615914890192907,0.8603265027122943,0.11199511234853951,-0.010998783250514281,0.0369991189159244,1.97281295944456e-64,4.9387659142131956e-65,-1.775127618052495e-63,0.05941538713426908,-0.04158973221134943,0.09134353857432487,-3.304877281788801e-07,7.327964363261775e-08,3.7167259086060487e-07
1669909274410423736,12504,1669909274281648329,,-2.8096843669689795,-3.6163124333375656,0.8696818984478101,0.11199511234853951,-0.010998783250514281,0.0369991189159244,0.0,0.0,0.0,0.06729401016797709,-0.044583162067471704,0.08615396828957245,-3.3026789347990995e-07,7.333495588603102e-08,3.7095349358854744e-07
1669909274507896552,12505,1669909274333100567,,-2.78691624638638,-3.611316435870619,0.8684132893196751,0.15599374905093932,-0.0020012518157525427,0.03799984386005498,0.0,0.0,0.0,0.06853019386689319,-0.044342180336256476,0.08433145404790565,-3.3052464987759226e-07,7.366377642276327e-08,3.70725102679658e-07
1669909274548623264,12506,1669909274450118056,,-2.768893816362314,-3.610340703089409,0.8782623890058607,0.15599374905093932,-0.0020012518157525427,0.03799984386005498,-2.8130557026838774e-63,9.382337336664328e-63,-5.6117661881552247e-61,0.06892048106451654,-0.04263330957464184,0.08161268234560026,-3.309193387831056e-07,7.423474055312236e-08,3.7033630760092336e-07
1669909274847864569,12507,1669909274481535421,,-2.752826181313444,-3.6110720867326362,0.8796733723305131,0.18399797368946938,-0.006999615384055374,0.03799998514317244,4.247080097004435e-143,3.94766393954511e-143,2.404752409649203e-140,0.06869299185808764,-0.04193760552723447,0.08099378513662181,-3.311814205201085e-07,7.446963387615133e-08,3.702875715956947e-07
1669909274865083096,12508,1669909274598352423,,-2.7315052277962195,-3.610486943943763,0.8814070440798135,0.18399797368946938,-0.006999615384055374,0.03799998514317244,0.0,0.0,0.0,0.06658597834575275,-0.03725475467640749,0.078078123018118,-3.3186697374764575e-07,7.55397625970726e-08,3.6983337768162445e-07
1669909274865089913,12509,1669909274646628172,,-2.7226866528261042,-3.610259050277931,0.888141453991146,0.18399797368946938,-0.006999615384055374,0.03799998514317244,5.334119757331655e-141,1.0125228556083689e-137,5.1788325229504567e-138,0.06470329613569348,-0.0336969047126594,0.07659610133251604,-3.323266698918903e-07,7.626173768234208e-08,3.6959952204297066e-07
1669909274865238227,12510,1669909274679930431,,-2.7055478243878333,-3.6077174388175886,0.8896274221142424,0.2139967413305539,-0.0030004082452558594,0.03899987587412265,0.0,0.0,0.0,0.06325600126081632,-0.031076114159247936,0.07568207211784816,-3.325934275985194e-07,7.668698088959687e-08,3.694842968652227e-07
1669909274869311550,12511,1669909274791373846,,-2.6818603724683063,-3.6065388666524623,0.891110416324747,0.2139967413305539,-0.0030004082452558594,0.03899987587412265,0.0,0.0,0.0,0.0603507771615277,-0.02509067059119907,0.07387560974806462,-3.330067838567517e-07,7.774941790430681e-08,3.6920093471722107e-07
1669909274910046782,12512,1669909274823743178,,-2.6749735814385027,-3.606202475735881,0.892540287018455,0.2139967413305539,-0.0030004082452558594,0.03899987587412265,0.0,0.0,0.0,0.05947588078043253,-0.022811885522830977,0.07330126664223968,-3.3309411534252035e-07,7.813038106444747e-08,3.691140310236691e-07
1669909275045085821,12513,1669909274864644410,,-2.6575522862342686,-3.6067119538201,0.8898736024439141,0.23499873299256618,-0.006999736300531837,0.038000043652846816,0.0,0.0,0.0,0.058453649593399604,-0.019619771794056717,0.07258662653565828,-3.331491580550955e-07,7.864004577413721e-08,3.6906025255141486e-07
1669909275086382353,12514,1669909274999205362,,-2.6260116144116847,-3.6056749550680296,0.8990329019113987,0.23499873299256618,-0.006999736300531837,0.038000043652846816,0.0,0.0,0.0,0.056874437814018464,-0.009452071611057988,0.07123989987676005,-3.3317863707724395e-07,8.037508023415669e-08,3.6892210243526815e-07
1669909275104432026,12515,1669909275038935514,,-2.616687918256461,-3.60537437960014,0.8986468572028216,0.23499873299256618,-0.006999736300531837,0.038000043652846816,-1.6325621104674955e-154,2.8554943036749873e-154,6.885617234311474e-154,0.05680917968963506,-0.0063515057246341655,0.07110603775643298,-3.3313819359667784e-07,8.088449925544127e-08,3.689298830281941e-07
1669909275245509826,12516,1669909275058496868,,-2.6043124175282992,-3.6091486732072586,0.8994180608857527,0.25499508283769834,-0.018997032572455993,0.03799998378706159,-2.246898794642465e-62,-2.8274994166613175e-61,2.6012755611864235e-61,0.056818694537518866,-0.00617881977636614,0.07110686402350908,-3.3310420967803077e-07,8.086185650298687e-08,3.689473314016677e-07
1669909275263509186,12517,1669909275160298811,,-2.578281357717504,-3.6094533643049447,0.900672756059322,0.25499508283769834,-0.018997032572455993,0.03799998378706159,-3.1160943942144736e-77,-2.494786825438891e-77,-1.8191522677155443e-76,0.05773388536726998,0.0022147263363088143,0.0715723225302014,-3.3280480402485515e-07,8.221020021326204e-08,3.6913198106060273e-07
1669909275286451122,12518,1669909275192659342,,-2.5700014637995805,-3.60954893395487,0.9018633614847854,0.25499508283769834,-0.018997032572455993,0.03799998378706159,-2.6684016274520716e-221,1.941056199680875e-220,-1.4253062516553428e-218,0.05835500965909901,0.006168538239162302,0.07205574471730891,-3.327518712702936e-07,8.287932760072787e-08,3.69205804284106e-07
1669909275307105896,12519,1669909275242073688,,-2.557347498711229,-3.6096865654928787,0.9086027042765472,0.25499508283769834,-0.018997032572455993,0.03799998378706159,8.170198439200187e-298,2.505191223924869e-296,3.994499974289286e-295,0.05857111529701342,0.007794704139129749,0.07226837467968927,-3.327496279143546e-07,8.315905645096315e-08,3.692336214946425e-07
1669909275443663597,12520,1669909275264929167,,-2.5485500709633753,-3.6147106613002915,0.9094193567427697,0.260999052460978,-0.03099810461933316,0.03799998377198463,0.0,0.0,0.0,0.05867113736981899,0.008849128343127788,0.0724047407615025,-3.3273826204541425e-07,8.323254714168133e-08,3.692542607615858e-07
1669909275513617264,12521,1669909275400808146,,-2.5127921876993673,-3.6166294570745507,0.9127990141145566,0.260999052460978,-0.03099810461933316,0.03799998377198463,-1.997746248116364e-143,-7.581206820190595e-144,-8.334484257798082e-145,0.05942960766115846,0.019939800035356114,0.0735267453396844,-3.3279742713556725e-07,8.491394331023203e-08,3.692694271107993e-07
1669909275620108184,12522,1669909275467142543,,-2.511850380990118,-3.6180120011569605,0.9102966977993693,0.2210119681013908,-0.029000575708228372,0.041998785550639225,0.0,0.0,0.0,0.059660851614168564,0.02768494026128998,0.07388809528020523,-3.328610468185914e-07,8.624135041014216e-08,3.6922538116870647e-07
1669909275664550942,12523,1669909275577809196,,-2.4870831306389833,-3.619673148305436,0.9104876126753886,0.2210119681013908,-0.029000575708228372,0.041998785550639225,0.0,0.0,0.0,0.05943715526451676,0.03302553850324408,0.07382729898507279,-3.3303296799076086e-07,8.701969547328162e-08,3.6912840786817517e-07
1669909276142707221,12524,1669909275620582105,,-2.4893875105368224,-3.617801658771058,0.9118539285773397,0.19300114189717424,-0.02100030709298853,0.04000006545739895,-2.2990451115880956e-78,6.671106162731998e-79,-5.2196802891859365e-77,0.05910566420434549,0.03582258349275591,0.07367445734349687,-3.331781429312383e-07,8.732135113257878e-08,3.690486601580042e-07
1669909276142812985,12525,1669909275732951983,,-2.467416932000419,-3.618813518179078,0.9187894154270208,0.19300114189717424,-0.02100030709298853,0.04000006545739895,9.311776286706202e-295,-4.5356836987172184e-296,2.9953887303773246e-293,0.05727952242085621,0.043057767346137865,0.07262794854841914,-3.3367349462147635e-07,8.823553508735613e-08,3.687508668616214e-07
1669909276148152622,12526,1669909275791141789,,-2.463620494280362,-3.618764562747269,0.9205264269302297,0.17200178247265216,-0.018000234838776923,0.037000238904810426,-1.8647338430963937e-291,-4.6576296094952975e-291,-9.1082063932237e-289,0.05607589530701773,0.04562858557038396,0.07183664939184631,-3.3392582808681085e-07,8.841351263771359e-08,3.686064609590203e-07
1669909276148154939,12527,1669909275906980582,,-2.443410401250105,-3.6196415176001846,0.9211801233256157,0.17200178247265216,-0.018000234838776923,0.037000238904810426,0.0,0.0,0.0,0.053042133079589604,0.04963402799581296,0.06973870550179484,-3.345451371646101e-07,8.875219407997728e-08,3.682202553344297e-07
1669909276148157175,12528,1669909275945352737,,-2.4367128530110334,-3.619940354390101,0.919309258698101,0.17200178247265216,-0.018000234838776923,0.037000238904810426,-4.4148749941217996e-43,-4.7119340502319484e-43,-8.875049765716803e-42,0.05274708887360724,0.049895195662220004,0.06953253540648063,-3.3460598834014885e-07,8.877042447444229e-08,3.681830242484251e-07
1669909276148159313,12529,1669909275970283197,,-2.44016963401121,-3.6194944972554146,0.9199961942080281,0.15200083054117525,-0.015000105360786326,0.03500006660896644,0.0,0.0,0.0,0.05125199054842966,0.05092053872031954,0.06846516354847054,-3.34894530495181e-07,8.879632547572643e-08,3.6798672539946876e-07
1669909276180591414,12530,1669909276092238545,,-2.4213476342453517,-3.620257482633598,0.9296598498065703,0.15200083054117525,-0.015000105360786326,0.03500006660896644,-3.931365215818563e-236,-2.457103259886602e-237,3.931365215818563e-236,0.04756531777805861,0.052128346097571665,0.06576431576917052,-3.3555210975868374e-07,8.876440176626956e-08,3.675621603050214e-07
1669909276620028857,12531,1669909276138120197,,-2.414266070112979,-3.6205539554904296,0.9292016527324646,0.15200083054117525,-0.015000105360786326,0.03500006660896644,-3.7447733196299566e-65,-9.110219784772306e-65,6.235408689459828e-64,0.04601236757185312,0.05225570137262814,0.06456915368417881,-3.3581896034210283e-07,8.87052425862695e-08,3.67379735704862e-07
1669909276647860016,12532,1669909276159554765,,-2.416370984495986,-3.620302347712645,0.9297746985956715,0.1369999879867099,-0.012999979642850398,0.03199998228454913,0.0,0.0,0.0,0.0456248914900641,0.05224170085842772,0.06426747463748761,-3.35856029657995e-07,8.865380408165179e-08,3.673509014933886e-07
1669909276647879551,12533,1669909276282974801,,-2.3992052263772408,-3.6209946531817994,0.9304240350766985,0.1369999879867099,-0.012999979642850398,0.03199998228454913,3.218008638436529e-143,-7.156314683587154e-145,1.5526757843249182e-141,0.041677340525998474,0.051616168229200454,0.061136698897728436,-3.3653011999316224e-07,8.837402311879352e-08,3.6689407991663724e-07
1669909276647918025,12534,1669909276318181507,,-2.3943089644694715,-3.621197028078732,0.9312777980759266,0.1369999879867099,-0.012999979642850398,0.03199998228454913,0.0,0.0,0.0,0.03933583539073382,0.05076450405743316,0.05922567847803961,-3.369253202879052e-07,8.812959770344918e-08,3.666149063996264e-07
1669909276647939891,12535,1669909276354061387,,-2.3950192896721485,-3.6205451211164505,0.9296135824530313,0.12300060079980793,-0.01000011125461702,0.030000069960185644,-3.0379006442101086e-63,-1.385238371769202e-63,-1.4818434112838992e-61,0.039254460190880636,0.05071867898646332,0.05915842887977796,-3.369040238838276e-07,8.811060708831227e-08,3.666273861156413e-07
1669909276652303961,12536,1669909276463129074,,-2.38141152818654,-3.6209687934107917,0.9388661672897881,0.12300060079980793,-0.01000011125461702,0.030000069960185644,1.198389793044067e-308,2.615729781232033e-307,2.8270628050058355e-308,0.035446231565584796,0.048552668744651584,0.05604411861039438,-3.375125211071964e-07,8.76357686316723e-08,3.662247795215398e-07
1669909276652321005,12537,1669909276532795613,,-2.3727240868189607,-3.6212565719792,0.9405175732901555,0.12300060079980793,-0.01000011125461702,0.030000069960185644,0.0,0.0,0.0,0.03331986277292032,0.0469172853833939,0.05428088184067015,-3.378310693314814e-07,8.729841510681297e-08,3.6599848500046823e-07
1669909277138560308,12538,1669909276573153146,,-2.3716102619973336,-3.6220025967163125,0.9400170145577471,0.1130004172300581,-0.010999937329564238,0.027000111508678263,4.6426493843433606e-63,5.4862010977208375e-64,3.781022658142748e-62,0.03179948171673175,0.04553849411643185,0.052988157122314306,-3.3802857581433275e-07,8.702622436303265e-08,3.658565435904019e-07
1669909277217220929,12539,1669909276672809672,,-2.3601970785039894,-3.622589262751046,0.9401694434761635,0.1130004172300581,-0.010999937329564238,0.027000111508678263,-1.2659608937183154e-141,-6.587643451687006e-142,-7.365462101505491e-142,0.02777507373412824,0.040734664419261435,0.04939240956884561,-3.386211153324289e-07,8.611063432042432e-08,3.654266993780863e-07
1669909277217223429,12540,1669909276742851583,,-2.3563427487542623,-3.6227924511084253,0.9394120462399567,0.10299998864108256,-0.009999980263736786,0.023999983249522662,0.0,0.0,0.0,0.026234287425321412,0.03828589892349932,0.047896010916034015,-3.3879621484924716e-07,8.567795127211213e-08,3.6525951774089445e-07
1669909277217226007,12541,1669909276862647275,,-2.343861210947141,-3.6234752957249428,0.9489604150935627,0.10299998864108256,-0.009999980263736786,0.023999983249522662,0.0,0.0,0.0,0.023425839526582948,0.0319837326585759,0.04470979594040614,-3.390918647591518e-07,8.468021054660969e-08,3.649372906221061e-07
1669909277217228355,12542,1669909276914380578,,-2.3384773241406354,-3.6237815823333177,0.950019776677831,0.10299998864108256,-0.009999980263736786,0.023999983249522662,-5.650298514334201e-221,-8.298828270254807e-221,2.5054531550449094e-220,0.022829834430966756,0.030054239355520096,0.04384697700639251,-3.391450143820892e-07,8.437134069743951e-08,3.6484656222825707e-07
1669909277217231182,12543,1669909276937924208,,-2.339490546994735,-3.624456488440406,0.9493905700758588,0.09399998907962395,-0.010999980177522429,0.021999983896219658,2.950309473214481e-63,4.1021098114784905e-63,-4.973015729413465e-62,0.021948538471370682,0.02656008358266959,0.0423786183803756,-3.3923649697923786e-07,8.367779233061595e-08,3.6467151368402027e-07
1669909277217306221,12544,1669909277063398808,,-2.3275814042481757,-3.625399090147803,0.9499344702046038,0.09399998907962395,-0.010999980177522429,0.021999983896219658,0.0,0.0,0.0,0.021259455093789015,0.01983244767678194,0.04006520674195002,-3.3925341218469613e-07,8.252918346378122e-08,3.644489184893784e-07
1669909277734852052,12545,1669909277122670248,,-2.325703079395297,-3.6268460051999263,0.9510642096807529,0.08499998938341252,-0.012999980014787454,0.020999984344202787,-1.3866838602040386e-297,-6.826878279275943e-299,2.9707933927485083e-295,0.021211935919708935,0.01564547229985358,0.03883151332859036,-3.3919846823794063e-07,8.193331711371903e-08,3.6435611631685465e-07
1669909277758134623,12546,1669909277250053519,,-2.3179608015808912,-3.6286253629692142,0.9595116007015774,0.0759999897433449,-0.013999979699552191,0.020999984874978655,2.449016850927593e-230,5.818892847089769e-231,6.055654492087139e-231,0.021669268857248625,0.008640120005120266,0.03690547391724763,-3.3905742167688095e-07,8.08619384482838e-08,3.6418818516725085e-07
1669909277758624007,12547,1669909277349880451,,-2.3103117735529834,-3.6297901678418185,0.959680717211173,0.0759999897433449,-0.013999979699552191,0.020999984874978655,-3.115843523295285e-44,-2.7968673632219604e-43,-1.2484455601131103e-41,0.022491229498507792,0.0017707897126886252,0.035205669313171484,-3.389500249449657e-07,7.981846815884487e-08,3.640556706469182e-07
1669909277758639600,12548,1669909277395495534,,-2.3068211647003527,-3.6303268129747406,0.9606143976167066,0.0759999897433449,-0.013999979699552191,0.020999984874978655,0.0,0.0,0.0,0.02304235377900099,-0.0021866679188526916,0.03428600071319998,-3.388634603261983e-07,7.920608128576076e-08,3.639661724255438e-07
1669909277758646065,12549,1669909277434421755,,-2.303846067169737,-3.6307881201532752,0.9687131421005248,0.0759999897433449,-0.013999979699552191,0.020999984874978655,6.755468954604477e-217,1.283765763751453e-215,1.3606908103854037e-213,0.02337944073605236,-0.00438782654635439,0.033785626596333884,-3.388158268729362e-07,7.886180064379084e-08,3.639245568927093e-07
1669909277758650933,12550,1669909277452052869,,-2.3047175946528777,-3.630719951449394,0.9690610051940266,0.06999999002250283,-0.012999979280723818,0.0219999852866401,2.606552328814121e-140,-9.67480658991288e-137,-2.7584008571296706e-136,0.023531086442371674,-0.005379400456654082,0.03355942396661504,-3.3879752160494754e-07,7.868169824550073e-08,3.639035988855389e-07
1669909277758821487,12551,1669909277563913512,,-2.296857771191573,-3.631971817670637,0.9700670229433062,0.06999999002250283,-0.012999979280723818,0.0219999852866401,0.0,0.0,0.0,0.02502914267325984,-0.01369307363919603,0.03166754558094098,-3.385622551740563e-07,7.742596871681406e-08,3.6372411363456476e-07
1669909277758827077,12552,1669909277605109728,,-2.2939674149555596,-3.632436170239232,0.9709915007003271,0.06999999002250283,-0.012999979280723818,0.0219999852866401,8.933589470604152e-78,3.4239380686765797e-78,4.925733919936745e-77,0.02599753817145256,-0.01784264309660344,0.03066686243810146,-3.384007454768379e-07,7.690380243641583e-08,3.636174293308655e-07
1669909277759441106,12553,1669909277633412876,,-2.2919865973908085,-3.6327596541028746,0.969055356537799,0.06999999002250283,-0.012999979280723818,0.0219999852866401,8.933589470604152e-78,3.4239380686765797e-78,4.925733919936745e-77,0.02599752840905012,-0.01784264118824197,0.030666872784369303,-3.384007454768379e-07,7.690380243641583e-08,3.636174293308655e-07
1669909278194916276,12554,1669909277652881267,,-2.2939908785620444,-3.63267845624916,0.9694999039957222,0.062000372001970054,-0.012000026630408108,0.02199998552153791,8.273055036417011e-78,2.1224902536043076e-78,2.7400926646748114e-77,0.026017985272670074,-0.01796766427440666,0.03063840990362543,-3.383919825798331e-07,7.68488930231371e-08,3.63605067117307e-07
1669909278237533366,12555,1669909277762135744,,-2.287226142477591,-3.633848984490977,0.978233871762865,0.062000372001970054,-0.012000026630408108,0.02199998552153791,0.0,0.0,0.0,0.027447902262064616,-0.024211128125671166,0.02887967030583205,-3.3838989629062854e-07,7.606076753967975e-08,3.6345241243507906e-07
1669909278237553445,12556,1669909277801342230,,-2.286325398456428,-3.634351169664928,0.9794305766841168,0.05799999033703164,-0.011999978436802667,0.0249999857504614,0.0,0.0,0.0,0.027815634750881557,-0.026435125859858744,0.028199122785039776,-3.383829586356516e-07,7.578993810853857e-08,3.633678526814557e-07
1669909278237573297,12557,1669909277932791108,,-2.278752785936912,-3.6358117608782208,0.9817096290741972,0.05799999033703164,-0.011999978436802667,0.0249999857504614,-1.1177668132758763e-296,-3.669434995118131e-296,-2.207192223555338e-294,0.028010316837242755,-0.031359078406847374,0.026273266929699446,-3.3855112913941685e-07,7.520724908902509e-08,3.631672072612879e-07
1669909278237590880,12558,1669909277974905979,,-2.2771501207260796,-3.634860743556081,0.9801848476627636,0.055999990461347786,-0.00799997798075705,0.02899998593378475,3.5786711927548085e-64,1.632937945266346e-64,-1.1958387014001646e-62,0.027947330049782337,-0.03240541430371913,0.025775848768713416,-3.385967471043195e-07,7.514959025896123e-08,3.6312045884879356e-07
1669909278237610578,12559,1669909278087514134,,-2.2709325421354554,-3.6356955601835335,0.9891902955272115,0.055999990461347786,-0.00799997798075705,0.02899998593378475,8.658889935272351e-143,4.497410740465143e-143,-5.344587646745832e-141,0.027810726548819886,-0.035100382664769114,0.024108244943619184,-3.3868569728355956e-07,7.493026040052196e-08,3.6296518862306964e-07
1669909278266098999,12560,1669909278124681032,,-2.270001989950408,-3.6363927980261606,0.9904369377116619,0.052999990505479475,-0.008999977665673516,0.030999985998863742,0.0,0.0,0.0,0.027790739125023833,-0.03526392815509638,0.023969545027387795,-3.3869113565160525e-07,7.49706344166626e-08,3.629601089844147e-07
1669909278735100690,12561,1669909278224423321,,-2.264807439912765,-3.637254456195255,0.9915256747807054,0.052999990505479475,-0.008999977665673516,0.030999985998863742,0.0,0.0,0.0,0.027700157815427673,-0.03629979042069742,0.022271563493996283,-3.3874375686064307e-07,7.509938938521318e-08,3.6278070037217603e-07
1669909278752465172,12562,1669909278271060933,,-2.2623796847231534,-3.637660033085193,0.9898559120328784,0.052999990505479475,-0.008999977665673516,0.030999985998863742,-9.769660719423249e-65,-3.883180120784159e-65,-1.609207956089807e-63,0.027705440249954805,-0.03626098965725255,0.021869781794894294,-3.3876134991512404e-07,7.517529964337384e-08,3.6275132339736076e-07
1669909278752468893,12563,1669909278305196915,,-2.260602845098049,-3.637957364407727,0.9909702901324696,0.052999990505479475,-0.008999977665673516,0.030999985998863742,4.678508261903601e-222,6.022633283293373e-222,1.101167620288716e-219,0.027738524828524902,-0.03595577308886888,0.021362992943663173,-3.3876324563563276e-07,7.535509949251283e-08,3.627089223412807e-07
1669909278752471461,12564,1669909278327312113,,-2.2602609327915117,-3.638595626869009,0.9918961514379023,0.05099999057584152,-0.009999977433693635,0.03499998610262344,-1.9492574809676764e-297,-2.1975526180299634e-297,-1.3039607294747135e-295,0.027790552472787056,-0.0355297103375829,0.021017722291057694,-3.387520813578471e-07,7.553680721932808e-08,3.626821324861117e-07
1669909278752474313,12565,1669909278447766097,,-2.2542425730705684,-3.639791845040232,0.9987736450195441,0.05099999057584152,-0.009999977433693635,0.03499998610262344,0.0,0.0,0.0,0.028101978488281887,-0.03290778779398629,0.01979325556903966,-3.3876584250770706e-07,7.621783229359362e-08,3.6257909316659005e-07
1669909278752476765,12566,1669909278485098025,,-2.2528097684566935,-3.6406077524522393,1.0001542340902707,0.049999990619490585,-0.010999977332482562,0.03899998616699072,1.0795210693868056e-78,2.698802673467014e-79,1.727233711018889e-77,0.028132329333288908,-0.032587535370296905,0.019688122440598477,-3.387716802331133e-07,7.62802695054996e-08,3.6257867831633777e-07
1669909278752479180,12567,1669909278589245963,,-2.247708160100031,-3.641768918407278,1.0081487927291153,0.049999990619490585,-0.010999977332482562,0.03899998616699072,0.0,0.0,0.0,0.028338065893763087,-0.02850602883589559,0.018524588333434622,-3.3883273962638034e-07,7.713529460800237e-08,3.6245448090021123e-07
1669909278752481474,12568,1669909278629089878,,-2.245753486032322,-3.642214370324323,1.0097476608143165,0.049999990619490585,-0.010999977332482562,0.03899998616699072,8.280421605278095e-171,4.140210802639048e-171,4.140210802639048e-171,0.028432446075129292,-0.025917198181488743,0.01784550158080833,-3.388398674736083e-07,7.762840732421036e-08,3.623686527629825e-07
1669909278812318951,12569,1669909278656188698,,-2.2437297900766904,-3.642174443767273,1.0086239275596358,0.051999990606500034,-0.009999977321817531,0.042999986147834145,-2.137281243765343e-43,-2.3096681886653145e-43,-8.124717054419456e-42,0.028438264512299583,-0.025861239186752982,0.017825708569080945,-3.3882227593200423e-07,7.770788700970984e-08,3.62353681728459e-07
1669909279274731793,12570,1669909278759279162,,-2.23846129724762,-3.643238534925568,1.0088741735168192,0.051999990606500034,-0.009999977321817531,0.042999986147834145,0.0,0.0,0.0,0.029067828538403617,-0.021661394523913913,0.017400805055808988,-3.386335387878035e-07,7.834040911960122e-08,3.625608960151624e-07
1669909279274737876,12571,1669909278805873541,,-2.2360746722163536,-3.643721120464085,1.01091698124136,0.051999990606500034,-0.009999977321817531,0.042999986147834145,-2.530183410091397e-215,-5.0700696461771163e-216,3.489695990008011e-215,0.029720632811962133,-0.0194740049583082,0.017852711800395937,-3.384785736121312e-07,7.863630181976137e-08,3.6281053389307255e-07
1669909279274741497,12572,1669909278829370769,,-2.2348680476016334,-3.643964569366542,1.0119435303869124,0.051999990606500034,-0.009999977321817531,0.042999986147834145,-2.530183410091397e-215,-5.0700696461771163e-216,3.489695990008011e-215,0.029720624691663033,-0.019474003364731374,0.01785272037816199,-3.384785736121312e-07,7.863630181976137e-08,3.6281053389307255e-07
1669909279274756607,12573,1669909278845078395,,-2.2340614233366645,-3.644127314185358,1.0177956047638508,0.051999990606500034,-0.009999977321817531,0.042999986147834145,-2.530183410091397e-215,-5.0700696461771163e-216,3.489695990008011e-215,0.029720619263271075,-0.01947400229942886,0.01785272611236799,-3.384785736121312e-07,7.863630181976137e-08,3.6281053389307255e-07
1669909279274758962,12574,1669909278874511116,,-2.2170819131273616,-3.6450198930485174,1.0190951764939173,0.08699815606768613,-0.011999872599079696,0.042000038434486985,0.0,0.0,0.0,0.029852924064719843,-0.019248023090485233,0.017971981801316872,-3.3843716657667914e-07,7.877979515083598e-08,3.6283777993881106e-07
1669909279274764734,12575,1669909279017997545,,-2.1915600797001646,-3.651564983524898,1.0214286033085231,0.11999999035316429,-0.024999977717582993,0.0419999857742515,-1.4061586669615078e-297,-5.441848283150422e-295,-3.789016330847597e-295,0.03507529884560512,-0.011238990552715933,0.02301015207279633,-3.373698802302068e-07,8.004480148000994e-08,3.640080995034657e-07
1669909279297294747,12576,1669909279142180323,,-2.1659638138218447,-3.65503608489677,1.0314038965170151,0.14899751736390637,-0.026999807391757412,0.04299990029198717,0.0,0.0,0.0,0.03969257656122416,-0.00653258445172078,0.026162226786965448,-3.364564728210497e-07,8.089307541826548e-08,3.645039052245342e-07
1669909279773693064,12577,1669909279261587648,,-2.140660593871873,-3.65916997912803,1.037975186651084,0.17099999003679953,-0.03099997800098329,0.04299998530772278,0.0,0.0,0.0,0.04494362887416514,-0.001688065447819298,0.028991444407575173,-3.3554295126039e-07,8.175920858798091e-08,3.649285325434809e-07
1669909279815960671,12578,1669909279357250120,,-2.124223140712271,-3.6618436223619217,1.0397230133035171,0.17099999003679953,-0.03099997800098329,0.04299998530772278,-8.3963159263643235e-140,-3.8343738700930105e-138,-7.050570099055371e-138,0.05125106492729259,0.003469814939482063,0.03190484965895379,-3.3441065367288353e-07,8.265450186595734e-08,3.6541123366018284e-07
1669909279815963050,12579,1669909279404631629,,-2.116073410336728,-3.6631611559650885,1.0416739662185137,0.17099999003679953,-0.03099997800098329,0.04299998530772278,0.0,0.0,0.0,0.05519360741598689,0.006434573916832775,0.03359380772627496,-3.3369800315314095e-07,8.319542932848851e-08,3.6570004346065415e-07
1669909279817244353,12580,1669909279436083041,,-2.102647017106403,-3.6656395700316797,1.042994890275762,0.19299894171969126,-0.035999739875060756,0.04399993729738419,0.0,0.0,0.0,0.055175003683601176,0.006413470205721694,0.033578820030991,-3.338122537768574e-07,8.308206346784555e-08,3.656299628276524e-07
1669909279817251701,12581,1669909279591376293,,-2.072429886436926,-3.6705771542598744,1.0500765552076323,0.19299894171969126,-0.035999739875060756,0.04399993729738419,9.675503067195493e-142,7.839884028445421e-141,1.1968310519372986e-140,0.06687902009648639,0.014346786137270584,0.03842881713677748,-3.31920691685639e-07,8.440126805935105e-08,3.664334541049767e-07
1669909279817364173,12582,1669909279644785682,,-2.055686729735995,-3.6728972024886475,1.0521339168150887,0.20799799950648515,-0.037999712858983806,0.043999984399114,0.0,0.0,0.0,0.07040942104874581,0.016651148529501114,0.03995182806463227,-3.3147449189204314e-07,8.473309249060856e-08,3.6664318530003984e-07
1669909280291912248,12583,1669909279772514083,,-2.022797962337756,-3.67881642588974,1.0593200748739235,0.22299795448372986,-0.04299930025352653,0.043000119344927555,-2.881746572896862e-213,-4.083701947076608e-214,-7.490046157598737e-215,0.07766970085781288,0.021786102559870457,0.04328639575799187,-3.3059953119598474e-07,8.558040732252644e-08,3.6710755637163347e-07
1669909280299795882,12584,1669909279889390379,,-1.9964230124403701,-3.6830813358243235,1.059941630657482,0.22299795448372986,-0.04299930025352653,0.043000119344927555,-5.454687476434126e-63,-2.8027522219158637e-63,2.1371040548894286e-62,0.08283679320723003,0.026093157740604056,0.04590023808947841,-3.3000092244128566e-07,8.631546801037554e-08,3.674553510950041e-07
1669909280299806133,12585,1669909279927461691,,-1.9819248277737893,-3.6819709881850478,1.0612316859313407,0.2389961449565638,-0.03700141948752967,0.042999982808031384,-7.478364766294364e-78,4.128649104807849e-78,3.324741406511751e-77,0.08508517496182932,0.028758940725417403,0.04727688189432655,-3.300152063185412e-07,8.673890759748997e-08,3.675761051577512e-07
1669909280299809104,12586,1669909280047274020,,-1.9529636451852495,-3.6854675465878697,1.070652648522694,0.2389961449565638,-0.03700141948752967,0.042999982808031384,2.315809994924085e-295,8.625511054503869e-296,2.329082912382827e-294,0.0862331849129081,0.03286321318602248,0.048828762837507256,-3.304275502110984e-07,8.742437166646224e-08,3.6767150050425994e-07
