%time,field.header.seq,field.header.stamp,field.header.frame_id,field.position.x,field.position.y,field.position.z,field.velocity.x,field.velocity.y,field.velocity.z,field.acceleration.x,field.acceleration.y,field.acceleration.z,field.orientation.x,field.orientation.y,field.orientation.z,field.angular_velocity.x,field.angular_velocity.y,field.angular_velocity.z
1669910108891517230,20293,1669910108464546557,,-0.5799952990933864,-5.706554059650737,1.0493367768655009,-0.015000019149433065,0.0050000518031720655,-0.015000028238795303,8.280421605278095e-171,4.140210802639048e-171,-3.312168642111238e-170,0.025096973514427745,-0.0002666093180376805,0.6415620480682218,-6.782319014267494e-07,1.4327251013330693e-07,7.97547816906879e-07
1669910108898520263,20294,1669910108612596535,,-0.5819717525826413,-5.705441756365145,1.050024197676679,-0.012000018811356776,0.008000052592210044,-0.014000027740249624,-9.185776333615821e-65,6.838601701217959e-65,8.632708859329101e-63,0.022970049935032932,-0.006597511435087355,0.6420771116096198,-6.785839210442652e-07,1.4225183678151538e-07,7.975729245774762e-07
1669910108961025609,20295,1669910108764638007,,-0.5858360941158677,-5.706183481565038,1.0491968897170536,-0.016000018445268376,0.009000053406470383,-0.01600002720039576,0.0,0.0,0.0,0.02046795976604976,-0.014993756065880604,0.6416789780503791,-6.790284787455101e-07,1.4095274234892593e-07,7.975011350156617e-07
1669910109002448446,20296,1669910108885152380,,-0.5880259919041847,-5.706417890731264,1.0482168775650378,-0.016000018445268376,0.009000053406470383,-0.01600002720039576,0.0,0.0,0.0,0.018547966880916533,-0.021300610297592115,0.641093905209992,-6.794284701856438e-07,1.400684985156785e-07,7.974449816377901e-07
1669910109441443631,20297,1669910108933726618,,-0.5898111282646565,-5.708775836818175,1.0505237660802842,-0.021000017951965103,0.006000054375598845,-0.012000026472943931,4.763444401187053e-44,4.0124233831367346e-44,2.1848604192404552e-42,0.018166971935199783,-0.022285665897408435,0.6409746497294364,-6.795378656147176e-07,1.3990819906005757e-07,7.974276075348017e-07
1669910109447370067,20298,1669910109081837493,,-0.5920108091495507,-5.710361056017274,1.0495339302968925,-0.020000017597189664,0.004000055068954721,-0.005000025949772777,0.0,0.0,0.0,0.014205230739234409,-0.029710669068974127,0.6396074188683833,-6.801972748585025e-07,1.3914383258163766e-07,7.972700807898092e-07
1669910109447503823,20299,1669910109226048622,,-0.5947653647602776,-5.7122297989246125,1.0500446489194,-0.021000017251994435,0.003000055789995409,0.000999974559270882,-1.54468693534867e-221,-5.410540235939811e-223,-2.6944626775254023e-220,0.011331450737793958,-0.03406818387705535,0.6382884551081585,-6.808146237522916e-07,1.3846118621066747e-07,7.970226621643046e-07
1669910109594366466,20300,1669910109366532556,,-0.595193924573475,-5.713998982243431,1.0502297447971525,-0.01700001689674066,-0.0009999436005742992,0.002999975083147415,-1.0542197943230523e-81,-6.588873714519077e-83,-1.6867516709168837e-80,0.009627449054800508,-0.03739819776913045,0.635246330791503,-6.809940095583728e-07,1.381100449509643e-07,7.963279222473443e-07
1669910109944747756,20301,1669910109524308311,,-0.5978211827856023,-5.713632993647533,1.0503833232058766,-0.015000016499401716,0.004000056910948275,0.002999975669085027,0.0,0.0,0.0,0.00995484821838133,-0.037660661656477856,0.6305090019711503,-6.808218865638602e-07,1.3851674739578954e-07,7.953079352413519e-07
1669910109958062823,20302,1669910109659475609,,-0.5980047247856001,-5.7116651244445205,1.0504618503513428,-0.007000016204332389,0.007000057232444904,0.005999976104210301,1.1395041373417839e-66,1.2528984622538607e-66,3.6453202089126275e-65,0.011684123355285791,-0.03496227567850951,0.6236792334462642,-6.805083354706927e-07,1.3930611984716402e-07,7.940293577349556e-07
1669910110023881001,20303,1669910109832945999,,-0.5983763878516929,-5.708424046258713,1.049670447039219,-1.6071681970508587e-08,0.011000057355971593,0.008999976299823824,-4.7952304094910005e-219,-6.331228100568081e-219,-6.477387932677269e-220,0.013863251138523935,-0.029439418264075812,0.6149004880992788,-6.803209735717839e-07,1.4056465367344225e-07,7.924548584218018e-07
1669910110098497702,20304,1669910109957826151,,-0.5991843441538505,-5.707332771628771,1.0498755754667575,-1.60716819705086e-08,0.011000057355971593,0.008999976299823824,-5.594486867334279e-232,1.1535510891506402e-234,6.668291053805824e-234,0.014747079487097636,-0.024807349879756302,0.6091156116001066,-6.802924556418051e-07,1.413709364554932e-07,7.915929163570103e-07
1669910110393739057,20305,1669910110019118418,,-0.5986334638803503,-5.70463953384725,1.050625549310216,0.004999983763355801,0.014000057042555508,0.010999976056561549,2.3432762717119234e-243,-5.858190679279809e-244,-9.153422936374701e-246,0.015427796637226265,-0.020436149392688563,0.6039621301004843,-6.802546933514098e-07,1.4223256767954538e-07,7.906562639692554e-07
1669910110406545520,20306,1669910110153625367,,-0.5990914256883441,-5.700801272008687,1.0526441821931014,0.007999983485651717,0.018000056482128303,0.012999975647044007,9.363184552457236e-68,4.920803169902301e-67,1.8822385349917767e-66,0.016505103706245805,-0.011099738647866175,0.5936830085553026,-6.802150815689119e-07,1.4398872079131676e-07,7.888758574313198e-07
1669910110533860165,20307,1669910110300018153,,-0.5983033972937076,-5.697121132905003,1.0562156058006726,0.01199998319052841,0.018000055683323555,0.01299997521183913,2.1944852317823454e-224,1.0725556336645324e-223,1.1062650688583954e-222,0.017117725997984223,-0.0033475294671827527,0.5850175514885514,-6.802499041360026e-07,1.4516830590087252e-07,7.8755376580949e-07
1669910110589990703,20308,1669910110442247918,,-0.5982709497608544,-5.694071897986043,1.0595294286607195,0.01199998319052841,0.018000055683323555,0.01299997521183913,2.3078021466062967e-45,1.6333217843557704e-44,9.510786863632449e-43,0.01715394937649961,0.0029483109495007653,0.5787569073670085,-6.803731030472069e-07,1.4624411597314865e-07,7.867426981441847e-07
1669910110922679809,20309,1669910110520485111,,-0.5990121825587224,-5.692886077903734,1.0604637235713057,0.009999982923768398,0.018000054723541506,0.010999974818460309,-2.8629540855648143e-154,-1.4073731256621031e-154,2.069387130487884e-153,0.01677298473497757,0.00730119035072363,0.5755931925431277,-6.805275894699654e-07,1.46803413107746e-07,7.865526691365671e-07
1669910110962477308,20310,1669910110703060932,,-0.5997750381536038,-5.690099173142907,1.0615551932394767,0.007999982679889639,0.017000053700174142,0.010999974458823428,1.4048587685791771e-146,1.6657671535406091e-146,1.1880824305881232e-144,0.01565024422956185,0.01634067475496792,0.5706938348334116,-6.808307056482891e-07,1.482779900424315e-07,7.861090246543223e-07
1669910111120790022,20311,1669910110887797834,,-0.6000455987885506,-5.687832094484339,1.0602217925246384,0.0069999824930645355,0.015000052752402859,0.010999974183320974,0.0,0.0,0.0,0.01484900593792382,0.022284548750054256,0.5689901715337271,-6.809982687378457e-07,1.4908664918439512e-07,7.861173458826564e-07
1669910111457161680,20312,1669910111057806828,,-0.6006860999058248,-5.686357452960263,1.0599566513718537,0.004999982344830782,0.01300005157724776,0.00799997396472742,0.0,0.0,0.0,0.015294681912161323,0.02732861834331146,0.5691509012547584,-6.808222650881862e-07,1.4961225967790783e-07,7.864707080046889e-07
1669910111605991447,20313,1669910111313114459,,-0.6017918601279961,-5.687371560706952,1.0602241978587057,-1.77120590195459e-08,0.006000050394851268,0.0019999738808346257,-2.020387208367362e-157,2.368328392332424e-157,-1.5716958496651185e-158,0.018464071583579766,0.02904268319013248,0.5740309489925508,-6.802470326033028e-07,1.4951449592675486e-07,7.878016856868689e-07
1669910111981094349,20314,1669910111540619561,,-0.6034306569768118,-5.691678473481836,1.0591771112551922,-0.008000017872657627,-0.0029999500550634065,-0.005000026355992814,0.0,0.0,0.0,0.023466060880149797,0.025809976335066764,0.5827972074567782,-6.794603157917551e-07,1.487099155114823e-07,7.897037345348844e-07
1669910111993765933,20315,1669910111722976426,,-0.6047748146807058,-5.694723006871767,1.0586232272730502,-0.011000018039465499,-0.005999950006248337,-0.007000026601976772,0.0,0.0,0.0,0.0277370120634437,0.020288023510309117,0.5921723027942498,-6.789198321326964e-07,1.4762400297416752e-07,7.915391537729325e-07
1669910112107564444,20316,1669910111867725878,,-0.606863338836452,-5.69760996014831,1.0583277134389004,-0.015000018257767759,-0.006999949745695474,-0.010000026923897157,0.0,0.0,0.0,0.030304587954677942,0.014858107002979182,0.5997382339252866,-6.786725072050687e-07,1.4664027319700446e-07,7.929101320302313e-07
1669910112211374875,20317,1669910112019460417,,-0.6086400288458329,-5.700489415493468,1.0570318246017405,-0.017000018547973072,-0.007999949153639913,-0.01300002735184969,-1.6171287990849282e-299,1.239444658873868e-297,-1.9926810937498296e-297,0.03236771923790904,0.007343824336409455,0.6084656807621958,-6.785614778352187e-07,1.4535758608055443e-07,7.944090099840179e-07
1669910112481790624,20318,1669910112137550683,,-0.6097807884776716,-5.702378070494829,1.0506990959629567,-0.017000018547973072,-0.007999949153639913,-0.01300002735184969,-4.526492159278678e-281,-3.5555485662992086e-283,-2.8075624326164956e-280,0.0327768471679466,0.0031968657592766903,0.6126889097051844,-6.786453153040626e-07,1.446599285848005e-07,7.951361328602488e-07
1669910112514020511,20319,1669910112197215169,,-0.6103548690830841,-5.703332413224784,1.0499127758208109,-0.017000018547973072,-0.007999949153639913,-0.01300002735184969,0.0,0.0,0.0,0.03267747940350141,0.0009809601131198775,0.6145670740305711,-6.787310933639499e-07,1.4439485614227112e-07,7.953361422101718e-07
1669910112514042458,20320,1669910112229283185,,-0.6116727572993046,-5.703968955152652,1.0504941926453593,-0.01900001873001721,-0.006999948512783442,-0.015000027620301878,0.0,0.0,0.0,0.03237674511400712,-0.0033607965376862836,0.6182852611437255,-6.789558207126948e-07,1.4362843387441324e-07,7.959845771890554e-07
1669910112610996392,20321,1669910112391239779,,-0.614734624437387,-5.705732516832107,1.0487041578521823,-0.02000001883507972,-0.003999947778917035,-0.016000027775232763,0.0,0.0,0.0,0.03119402371987512,-0.00875489954986719,0.6223592917883529,-6.79268153551092e-07,1.4293542997674378e-07,7.965949857333313e-07
1669910113039391473,20322,1669910112533177879,,-0.6172518475054328,-5.7070451208368596,1.0505713918847142,-0.02000001884863295,-0.0019999470099746216,-0.016000027795219095,1.0056673907610963e-43,2.178459771967694e-43,7.38089617446419e-42,0.029394282751447065,-0.013932039528512519,0.6259093869751258,-6.79669265920359e-07,1.422404822901867e-07,7.969549627460344e-07
1669910113049035786,20323,1669910112775594349,,-0.620093859645182,-5.705455816490249,1.0492376732445559,-0.01400001853014256,0.005000054472716454,-0.015000027325555847,0.0,0.0,0.0,0.027200391656883482,-0.02146538846241519,0.6264564508178232,-6.799850746314491e-07,1.4121432082487965e-07,7.966484773072789e-07
1669910113130162336,20324,1669910112938738703,,-0.62199313065159,-5.705224612269889,1.0505346006999916,-0.012000018318502255,0.0060000549919727265,-0.016000027013459546,3.2421222532763425e-141,4.438112935620935e-140,5.769304341241621e-140,0.02656732248785687,-0.0264365988999522,0.6237827793417381,-6.801405797558674e-07,1.4037513768925263e-07,7.959432541847864e-07
1669910113223102724,20325,1669910113064328254,,-0.6236436403788256,-5.705416926949443,1.0456454462986442,-0.012000018318502255,0.0060000549919727265,-0.016000027013459546,4.069300172799972e-67,-1.4680508476814945e-67,6.262033292078541e-66,0.02654569591029521,-0.02926264513416399,0.6190744132566479,-6.802214287792061e-07,1.4014363393892933e-07,7.950519012586533e-07
1669910113572945517,20326,1669910113129452933,,-0.6242218074495602,-5.703826738380794,1.0440734177025766,-0.009000018044118065,0.00900005551746284,-0.0140000266088377,0.0,0.0,0.0,0.026516620383372214,-0.030374986305398366,0.6164504800454189,-6.802790402542688e-07,1.399950626597246e-07,7.943946908424923e-07
1669910113604728353,20327,1669910113280115041,,-0.6259546648378319,-5.700850844441181,1.04056968449457,-0.0050000178644772075,0.014000055889194545,-0.011000026343929522,7.84996977627567e-68,-5.14958600912763e-68,4.416083593808306e-66,0.02626398049335421,-0.031399292430537074,0.6082741113983268,-6.804610326845577e-07,1.4005011226343802e-07,7.92849573389029e-07
1669910113693288396,20328,1669910113450743416,,-0.6267417475389893,-5.69741350738392,1.0401956294292407,-1.778113777918801e-08,0.01600005610049474,-0.00800002622103267,0.0,0.0,0.0,0.025826458280810982,-0.03024698664858505,0.5972063341050475,-6.807674211612341e-07,1.4051823358187104e-07,7.909170136809829e-07
1669910114055193188,20329,1669910113622990641,,-0.6275593849900845,-5.692977866774082,1.039712163829819,0.003999982252200966,0.019000056081275685,-0.006000026171869544,-7.862730431637126e-236,6.142758149716505e-238,2.5160737381238802e-234,0.023852840663616703,-0.025444023476302036,0.5850879641093094,-6.813794085398289e-07,1.4157497071723112e-07,7.891918523380955e-07
1669910114099103996,20330,1669910113774330473,,-0.6270182013113619,-5.688642536604484,1.0400000760033168,0.008999982269570017,0.02000005586860126,-0.0020000261462561958,0.0,0.0,0.0,0.02118280190698485,-0.01960742140785854,0.575481228787007,-6.820134045823953e-07,1.427858898810778e-07,7.875946563121951e-07
1669910114164805565,20331,1669910113933851284,,-0.6272834744406375,-5.683925629977824,1.0400369999389134,0.010999982265350953,0.0220000554942682,-2.6152477855187914e-08,0.0,0.0,0.0,0.01786374553397785,-0.0113463138074259,0.5655034820083742,-6.826087931821877e-07,1.4420293334250694e-07,7.863341692358307e-07
1669910114282788349,20332,1669910114093902738,,-0.6266300294583815,-5.679918709180269,1.040033868068101,0.012999982303703876,0.02100005491694343,0.0019999739040794484,0.0,0.0,0.0,0.0149057393340577,-0.0012710157731419258,0.5569291344454292,-6.829970453334443e-07,1.4581132511223035e-07,7.854005351212438e-07
1669910114602724938,20333,1669910114215776805,,-0.6252992105177405,-5.677522170817258,1.0402764514641107,0.014999982434762934,0.0180000540589612,0.003999974097346265,0.0,0.0,0.0,0.013684876509131527,0.006164872928140497,0.5523734908706857,-6.830313062626718e-07,1.469098466935882e-07,7.850289874874733e-07
1669910114616915228,20334,1669910114333111932,,-0.6249001066226855,-5.67480452771197,1.04032118340324,0.014999982434762934,0.0180000540589612,0.003999974097346265,0.0,0.0,0.0,0.01346835082705411,0.013320095684584032,0.5491552611979209,-6.829633526615842e-07,1.4809436198265832e-07,7.847511353916016e-07
1669910114617018365,20335,1669910114379956750,,-0.623850657123351,-5.675146974330504,1.0400446494074775,0.014999982568891288,0.014000053175246064,0.00499997429513923,2.185962131538341e-143,3.045896367334545e-143,1.458445776493811e-140,0.01374397747871825,0.016791299285243255,0.548154195822601,-6.828361325652917e-07,1.4855912407065282e-07,7.847906911693951e-07
1669910114807605638,20336,1669910114533810412,,-0.6224666996017906,-5.673766482060846,1.040243374673566,0.013999982645841035,0.010000052387787568,0.003999974408613508,3.949765564302837e-155,6.918356683709076e-156,5.374300886053671e-138,0.01509929797029308,0.022871909880933572,0.5477318481011704,-6.824985282746952e-07,1.493785009437189e-07,7.851241240751949e-07
1669910114987459660,20337,1669910114704644809,,-0.6209810511703271,-5.675009044218994,1.0313038587874679,0.009999982625493823,0.002000051406401089,0.001999974378608401,0.0,0.0,0.0,0.02081888802936227,0.031780383304710114,0.553088938883123,-6.814749742429477e-07,1.5041077900777928e-07,7.866815422260855e-07
1669910115113973173,20338,1669910114877129258,,-0.6202362730099265,-5.677404788508368,1.0300897625622676,0.004999982465480012,-0.003999949437661603,-2.58573566646958e-08,0.0,0.0,0.0,0.025942699216047416,0.03447476323400522,0.5606145417579764,-6.807727387111384e-07,1.505173324271995e-07,7.882272465478736e-07
1669910115269355472,20339,1669910115036613455,,-0.6201402646128585,-5.679728472149726,1.0295403709425968,0.0009999821695345166,-0.006999950105614215,-0.0030000262937739846,-1.9213692447047876e-188,-6.637133744509511e-188,-2.2538654489372033e-186,0.029637824952883918,0.03458393389147574,0.5674162793542088,-6.803326275803378e-07,1.5031771107759168e-07,7.89508642944278e-07
1669910115635489131,20340,1669910115196952568,,-0.6205866163910047,-5.682433710526664,1.029867050410953,-0.003000018176793547,-0.00899995048502924,-0.0050000268044881795,1.084124366568026e-65,8.98067510391729e-67,-2.159618346955511e-64,0.03356459870980366,0.032302492818606865,0.5774554773152509,-6.800313578269386e-07,1.4966867730620734e-07,7.912510320437487e-07
1669910115658066500,20341,1669910115363951059,,-0.6216174120022857,-5.685367040054893,1.0302645791335152,-0.007000018731865931,-0.009999950694417328,-0.008000027623028101,-2.2705462716886133e-273,-1.450996122843182e-273,-1.018090492408601e-272,0.03618585549765463,0.027430097321506253,0.5883271503795324,-6.799210872317214e-07,1.487119468616225e-07,7.931643761837293e-07
1669910115775076958,20342,1669910115511874330,,-0.6232981034044012,-5.688181349772367,1.0290968960215783,-0.011000019127559331,-0.009999950555882663,-0.00900002820653911,0.0,0.0,0.0,0.036990471597126984,0.02062423876145303,0.5984429633645707,-6.800724511478961e-07,1.475720579962417e-07,7.945650850614448e-07
1669910116030324442,20343,1669910115697990060,,-0.6248720282691603,-5.6913887182220835,1.0297298052732309,-0.013000019392296199,-0.0099999501845894,-0.011000028596934485,-8.729269358376633e-65,-3.125905674460039e-64,4.410155548115258e-63,0.03640704370139147,0.01199019394802825,0.606963798321825,-6.804667388044634e-07,1.459454186361129e-07,7.96035039922511e-07
1669910116145111438,20344,1669910115887541196,,-0.6276130023216492,-5.692730822317807,1.029418539585936,-0.014000019533514893,-0.004999948916339118,-0.011000028805183252,-1.1218023888481867e-79,1.5325225970274037e-78,3.5059010277781925e-78,0.03402012586961156,0.001000520618703149,0.613842782644749,-6.810728762668908e-07,1.4410918705563453e-07,7.969487979296253e-07
1669910116317056771,20345,1669910116068477447,,-0.6297974264908612,-5.694759305340616,1.0301157069247195,-0.015000019393154106,-0.0039999480819396605,-0.012000028598199606,1.1028885995177503e-140,3.4898388070360783e-140,4.517144080435119e-142,0.03089512899906488,-0.011580962324199362,0.6189774678776381,-6.817272234374513e-07,1.420153296053782e-07,7.978264555897473e-07
1669910116435054785,20346,1669910116206721403,,-0.631952917624021,-5.697417778684486,1.029781925830378,-0.018000019148854695,-0.004999947230350509,-0.012000028237942403,5.22135069619627e-65,2.441005781816089e-65,4.0722593029191024e-63,0.029212310962119403,-0.01826811720252053,0.6209719603931187,-6.820219428061618e-07,1.4096480019035732e-07,7.980520290388798e-07
1669910116712458396,20347,1669910116361917548,,-0.6337683357014557,-5.699607697606226,1.0291713105905522,-0.018000019148854695,-0.004999947230350509,-0.012000028237942403,0.0,0.0,0.0,0.026842442554395163,-0.029035117773721808,0.6221564759228411,-6.824371346257143e-07,1.3929013910244085e-07,7.980614591654155e-07
1669910116775793976,20348,1669910116475656747,,-0.6361242723709348,-5.698922367620723,1.0303350900910966,-0.017000018705177502,5.393303336050169e-08,-0.011000027583671888,4.0303497689635705e-140,4.805448457058658e-140,8.393757819765118e-141,0.025888128917122444,-0.03515058060231624,0.6210273070796557,-6.825260705372779e-07,1.3860838129911904e-07,7.976428894542368e-07
1669910117083169794,20349,1669910116685623829,,-0.6387400834316982,-5.699371245969467,1.029553986676287,-0.015000018333994202,0.002000054870878367,-0.010000027036304817,-3.900578495198185e-68,-8.172214647241711e-68,5.9825949427248e-67,0.025688090667193464,-0.040843142669260146,0.6152333956202032,-6.824893762820309e-07,1.3872350360178307e-07,7.964396652537954e-07
1669910117248125153,20350,1669910116943321620,,-0.6350412167006516,-5.691631537966806,1.0306310373950316,0.009999982487632078,0.008000056982888762,0.007999974175309978,0.0,0.0,0.0,0.02883712588504217,-0.033065600138346696,0.6058099925552813,-6.821251059445478e-07,1.4096560741874328e-07,7.947607041083971e-07
1669910117392796131,20351,1669910117167962202,,-0.6336855765283594,-5.685972600631334,1.0307434520997687,0.014999772361182516,0.01299984700581953,0.010999848062781625,-2.2465391090943993e-261,-1.5569851092718973e-261,2.531239085881648e-259,0.028423114883223022,-0.019891504701842422,0.5951771473200438,-6.826089190645286e-07,1.4350046110764543e-07,7.928423291085173e-07
1669910117832492875,20352,1669910117317428508,,-0.6337777527243307,-5.6811341662158235,1.0300989735048771,0.01599998210643681,0.018000056557614438,0.011999973613178708,0.0,0.0,-1.799736488437522e-119,0.02670547337435636,-0.006388627642802902,0.5852708702442886,-6.831103769202112e-07,1.4589173320829359e-07,7.911166025612676e-07
1669910117856892668,20353,1669910117479945946,,-0.6329627221878413,-5.674729149499966,1.031049192102465,0.019999981813431218,0.023000055434220415,0.014999973181096726,4.6829758130341395e-153,4.699344922550306e-153,-8.918005892107498e-154,0.02424757115048415,0.008532134704575256,0.5739012630527291,-6.835862455541596e-07,1.4818745619308202e-07,7.892794446836249e-07
1669910117856968047,20354,1669910117629709032,,-0.631569878146831,-5.669794163817287,1.0331241109101001,0.021999981676907896,0.02300005431123435,0.014999972979772014,0.0,0.0,0.0,0.02240195521409305,0.01765651649951039,0.5666576093444213,-6.839810911716221e-07,1.4958075654490438e-07,7.88170697755043e-07
1669910117978620325,20355,1669910117752494524,,-0.6311940011300068,-5.66669926172178,1.0315778260357253,0.019999981596258567,0.022000052986304856,0.012999972860842124,-2.5275469252388735e-107,-8.097376325133588e-109,1.6338993684709248e-105,0.01957217646651266,0.029817878309582824,0.5576377997791191,-6.844510261813744e-07,1.5137139760647376e-07,7.869983209330201e-07
1669910118314736105,20356,1669910117903767977,,-0.6303075923404907,-5.662275463799202,1.032121817128345,0.019999981596258567,0.022000052986304856,0.012999972860842124,-3.745341083753759e-96,1.8726705418768793e-96,1.8726705418768793e-96,0.018197747176460055,0.03632909317847677,0.5532818235220134,-6.84614479572215e-07,1.5228055362195483e-07,7.864679608865709e-07
1669910118358500016,20357,1669910117953264647,,-0.6300675732552067,-5.662381142439937,1.0299667818745086,0.01799998156635791,0.019000051604559042,0.01199997281674899,-5.313756582740002e-231,1.8189689623142267e-229,2.173480857781951e-231,0.01785365882786749,0.039217548930571056,0.5513761502292347,-6.845739972134989e-07,1.5255853223952835e-07,7.863119180274676e-07
1669910118376670738,20358,1669910118119605120,,-0.6290943870074077,-5.6607255876994325,1.0309671051083882,0.01499998159219875,0.014000050307846018,0.008999972854855301,-1.3851275448255517e-156,4.143399019107906e-157,-7.619074015464822e-159,0.018214038483613137,0.04419586114193663,0.5479882083849663,-6.844145230717483e-07,1.5292065712460437e-07,7.861434103299511e-07
1669910118487232487,20359,1669910118266473909,,-0.6292645903458024,-5.660504442532786,1.0299708121805486,0.0099999816364442,0.010000049235287595,0.004999972920102044,-7.153217189930901e-299,-1.6646535205870763e-301,-3.6046590248301256e-298,0.019240065347359447,0.04562155866106643,0.5473501728667447,-6.842082788411568e-07,1.5281568320219259e-07,7.863969285383844e-07
1669910118860003058,20360,1669910118409675922,,-0.6299163324620067,-5.661779933627881,1.0301911641708803,0.0039999816497107215,0.005000048424651738,0.00199997293966558,-2.1163131943504259e-187,-6.669329435108697e-188,-4.3591377277576165e-187,0.021213470238231835,0.044386999233690716,0.549309383311293,-6.839944922083146e-07,1.5229045769328944e-07,7.870955912057888e-07
1669910118887246240,20361,1669910118542834768,,-0.6307954971728285,-5.663765617559434,1.030013695174839,-0.002000018444503319,4.787975563507593e-08,-2.7199267566527468e-08,6.332367969550097e-67,-2.6189667271239047e-68,6.566001424671735e-66,0.02304615784628794,0.04000013572001038,0.553785139270289,-6.837968752892123e-07,1.5129052854664373e-07,7.882095962753105e-07
1669910118887271931,20362,1669910118676115188,,-0.6310219278851742,-5.663905891104144,1.0300062856198382,-0.002000018444503319,4.787975563507593e-08,-2.719926756652753e-08,5.271098971615262e-82,-5.271098971615262e-82,-1.6867516709168837e-80,0.024241002053644323,0.03587395455619102,0.5577048408351768,-6.836910729341954e-07,1.5045659057100384e-07,7.890808817624634e-07
1669910118964421952,20363,1669910118739330216,,-0.632177815259621,-5.665602156697397,1.0300574883526068,-0.006000018551311224,-0.001999952148111871,-0.002000027356772313,-2.3437828993019443e-80,-2.344686902716453e-78,1.499411450318206e-78,0.02484759595873598,0.03312441723720916,0.5602449452630829,-6.836567735595906e-07,1.4994496570342626e-07,7.895760598646499e-07
1669910119364516929,20364,1669910118877211849,,-0.6337330307957817,-5.667859059665785,1.0299751782252828,-0.010000018640049813,-0.003999951877238654,-0.0030000274876310603,5.1742848472302265e-141,-1.1455547090216718e-139,-2.90063691903561e-138,0.025739042303227322,0.02600978387263808,0.5665144522773851,-6.836897515736497e-07,1.4879704824051643e-07,7.906760342174617e-07
1669910119440330433,20365,1669910118995672328,,-0.6350841611216073,-5.670153644385884,1.0296357316519062,-0.013000018682041538,-0.005999951352773019,-0.005000027549554341,-1.8738712479161552e-144,-1.1546351697579035e-144,-5.393759224041004e-145,0.02607571002872966,0.019403175532014316,0.5721817392822413,-6.837798923960187e-07,1.4755997378745793e-07,7.918367124680817e-07
1669910119440346889,20366,1669910119101417464,,-0.635909864529764,-5.671426078641001,1.0294707308543445,-0.013000018682041538,-0.005999951352773019,-0.005000027549554341,5.786095372915552e-233,4.922693244504645e-234,-2.2328160105667185e-233,0.02589834415534753,0.010133109192297596,0.5801976845568912,-6.839883858049846e-07,1.4597361488592286e-07,7.933666257004628e-07
1669910119440368749,20367,1669910119144622928,,-0.6373272943939349,-5.673096124740747,1.0398181957659067,-0.01700001869182735,-0.006999950626557668,-0.005000027563985033,3.542222968198963e-233,-7.814532594040825e-233,1.4267017596859857e-233,0.025896744878497913,0.010141710630730216,0.5801899706468845,-6.839869819377519e-07,1.460277320641526e-07,7.933137841136384e-07
1669910119524317815,20368,1669910119304831274,,-0.6394436975730359,-5.676277036254473,1.0393779209609706,-0.01900001863398648,-0.007999949778164085,-0.005000027478689738,0.0,0.0,0.0,0.024720759867285835,-0.0010429163811540576,0.5896457782027902,-6.843588366228202e-07,1.444484680633398e-07,7.947653190889508e-07
1669910119918260546,20369,1669910119446089333,,-0.6420027845222039,-5.67933811531997,1.0400857008598126,-0.022000018487964897,-0.007999948690040929,-0.005000027263358375,4.1467610540336125e-44,1.0166203217822088e-43,4.3887884316897566e-42,0.023031858606227473,-0.01008135738432614,0.597722165333618,-6.847549606691849e-07,1.428690050726725e-07,7.964446369123621e-07
1669910119999251452,20370,1669910119554500723,,-0.6434864395152964,-5.681384662750411,1.0398074498349028,-0.022000018487964897,-0.007999948690040929,-0.005000027263358375,0.0,0.0,0.0,0.02138837930175619,-0.018995366121691504,0.6059631845196574,-6.850368969958943e-07,1.4153543033060218e-07,7.977375171744829e-07
1669910119999273900,20371,1669910119598829691,,-0.644085451518894,-5.682224913549767,1.039560125664614,-0.022000018487964897,-0.007999948690040929,-0.005000027263358375,0.0,0.0,0.0,0.0211076410059583,-0.020435576684626255,0.6072587959382538,-6.850994720419353e-07,1.4131681731817138e-07,7.979523733842168e-07
1669910119999321669,20372,1669910119619047806,,-0.6443591424977908,-5.682607935635829,1.039447738186494,-0.022000018487964897,-0.007999948690040929,-0.005000027263358375,-4.345847379897e-311,-3.39519326554e-313,-3.4766779039175e-310,0.020548939479686723,-0.023162471049028355,0.6097528756753512,-6.851963857094666e-07,1.4096007542721747e-07,7.983508457071696e-07
1669910119999324748,20373,1669910119638912818,,-0.6439439463957737,-5.683996430796141,1.0400919055038111,-0.022000018212765246,-0.01099994731259695,-0.0030000268575340033,6.17777586398581e-44,5.558352130038235e-44,2.696875908633705e-42,0.02047726236241587,-0.02352029476833728,0.610088989321822,-6.852473998663697e-07,1.4070209962885198e-07,7.986220407085588e-07
1669910119999327347,20374,1669910119770074460,,-0.6454721091592376,-5.686821493342816,1.0398989280152287,-0.022000018212765246,-0.01099994731259695,-0.0030000268575340033,0.0,0.0,0.0,0.019127638114904144,-0.02969766165706389,0.616139881255803,-6.854581807133764e-07,1.3995322166556584e-07,7.994831216889805e-07
1669910120072540349,20375,1669910119822717883,,-0.6472643691286855,-5.688296198490414,1.0394590812344655,-0.025000017817803255,-0.009999945864389816,-0.00400002627510157,0.0,0.0,0.0,0.018369588579059126,-0.03391392642362945,0.6201767225416077,-6.855067167409454e-07,1.3938548410369024e-07,8.001031834615364e-07
1669910120391117188,20376,1669910119980571635,,-0.647292719946258,-5.689749571770767,1.0397798624026684,-0.018000017583880968,-0.008999945073788653,-0.0020000259301470457,0.0,0.0,0.0,0.018542787819971096,-0.038566090478152404,0.6246433689932083,-6.853437809139568e-07,1.3896053225482125e-07,8.005480945103262e-07
1669910120419887507,20377,1669910120145305926,,-0.6475343882309722,-5.690679019609421,1.0399777315525467,-0.01300001726701255,-0.006999944010061414,0.0019999745371243514,0.0,0.0,0.0,0.01978638466012228,-0.04102551609270044,0.6271461101025952,-6.851163102724509e-07,1.3903703785163578e-07,8.006905213068051e-07
1669910120626727370,20378,1669910120332324400,,-0.6476535054936432,-5.690624426021658,1.0404861849033284,-0.008000017026346298,-0.003999943200652436,0.005999974892023894,-1.0766301207423594e-145,1.2721995452013097e-144,-1.5008303595630198e-142,0.021105223555009545,-0.04020189400522867,0.627352054197079,-6.8495462667723e-07,1.3953104957610964e-07,8.004827457920587e-07
1669910120914876313,20379,1669910120524517617,,-0.6463403766198772,-5.686859756748429,1.040820082282188,0.002999982952118523,0.003000057635437819,0.011999974860266946,0.0,0.0,0.0,0.024021040867886256,-0.03320265801221112,0.6234148533892405,-6.846353136859658e-07,1.4128649309487828e-07,7.99434674319984e-07
1669910120964329773,20380,1669910120689086556,,-0.6455732612931391,-5.68358795550143,1.0408963217290401,0.008999982727786734,0.008000057514479006,0.01599997452945509,1.5721195624767627e-220,3.0163059293814063e-221,-1.666322034183051e-220,0.025214565590673033,-0.02426089369961737,0.6174069182067452,-6.846548424976614e-07,1.4312863174210412e-07,7.981852682539523e-07
1669910120964446567,20381,1669910120803528498,,-0.6452699978503904,-5.682308107934615,1.0407377435764267,0.008999982727786734,0.008000057514479006,0.01599997452945509,2.552371269428723e-65,1.2864104754804266e-64,-4.410449445561543e-64,0.025415678296706545,-0.020720343208157743,0.6149261815994613,-6.846836995244827e-07,1.438129624713529e-07,7.97689851932711e-07
1669910121056630438,20382,1669910120834717626,,-0.644659370100291,-5.680312113333147,1.048884614617547,0.012999982464194829,0.01100005708782705,0.01899997414074813,-5.893010957201117e-230,-5.313219189724625e-230,-2.1075398244543472e-231,0.02552871088561659,-0.016371414709666965,0.6118428616555782,-6.84741129144248e-07,1.4461478317631378e-07,7.970943306752053e-07
1669910121154605938,20383,1669910120978208671,,-0.6440281187827833,-5.67802956087772,1.050429198743792,0.012999982464194829,0.01100005708782705,0.01899997414074813,-2.6951383684841887e-143,7.352069323044781e-143,2.217752398731109e-142,0.02509752215843264,-0.005711244409138061,0.6035374778262792,-6.849784552494286e-07,1.461823587577822e-07,7.957989376702982e-07
1669910121461108019,20384,1669910121071245376,,-0.64306049941642,-5.675196884355647,1.0499259963611043,0.01599985502181488,0.012999971409226915,0.018999973620519292,1.9405746553160878e-78,-7.104838219881212e-79,8.565998197128457e-79,0.024686054708448424,-0.0004805202874180736,0.5991969725230639,-6.851352810923984e-07,1.471831026376447e-07,7.948457632983484e-07
1669910121496957957,20385,1669910121182161442,,-0.6426182898421255,-5.6712809461455365,1.0511596952533864,0.017999981933681825,0.01700005540766005,0.019999973358424808,0.0,0.0,0.0,0.023498652541011467,0.009896745045233857,0.5895520003657424,-6.854182453135791e-07,1.487633403696295e-07,7.932774502377774e-07
1669910121517844614,20386,1669910121305928247,,-0.6426089609751238,-5.667908927701068,1.0515018481804277,0.016999981736031806,0.019000054267869458,0.01899997306695934,0.0,0.0,0.0,0.022408859074534604,0.016716755088785007,0.5827522776813421,-6.856784457916282e-07,1.4980782703415461e-07,7.921363007628898e-07
1669910121561458981,20387,1669910121428938093,,-0.6420724929179875,-5.664825736994964,1.0523299682258185,0.016999981736031806,0.019000054267869458,0.01899997306695934,3.574238561522609e-220,1.053156563223541e-221,5.88873416001256e-219,0.02100884335054154,0.023227767789625986,0.5757151362950559,-6.859920724521773e-07,1.5079464090311528e-07,7.91013221388416e-07
1669910121931890238,20388,1669910121480115310,,-0.6422685672668037,-5.664225377848427,1.0510011778255721,0.014999981596080458,0.018000052734211278,0.01599997286057948,-5.047439379176977e-66,3.0958217831695417e-65,1.0746748296888851e-63,0.020132995822841337,0.026355390427937664,0.5721389335898603,-6.861744135824749e-07,1.5119141588023771e-07,7.905089900591545e-07
1669910121984450034,20389,1669910121627335083,,-0.642552308024307,-5.66035020331451,1.0516951645878194,0.01399998154957194,0.020000051839754507,0.012999972791995489,0.0,0.0,0.0,0.01744508403441003,0.033349533426756395,0.5627865274219825,-6.866534543312329e-07,1.5203861119880387e-07,7.891101171373827e-07
1669910121984598526,20390,1669910121764510250,,-0.6423155426276559,-5.656999195626674,1.0503856294956162,0.01399998154957194,0.020000051839754507,0.012999972791995489,0.0,0.0,0.0,0.015191592993058833,0.03703052900691617,0.5555818443060971,-6.870511567473839e-07,1.523343877093123e-07,7.881830202590892e-07
1669910122045376931,20391,1669910121825179090,,-0.6433380335945045,-5.657631013221319,1.050730345447915,0.008999981559333391,0.01700005046434961,0.007999972806390254,7.695078652875723e-155,8.167314123316685e-156,-1.38041548367007e-155,0.014413340220961857,0.037710981019911216,0.5533346603236744,-6.871423168475044e-07,1.5227668406026428e-07,7.88030720411587e-07
1669910122195830309,20392,1669910121964590477,,-0.644143549713348,-5.657666016436973,1.0503477309291995,0.003999981653005297,0.012000049565455381,0.00499997294452394,-3.0625383871604924e-68,-2.296189597738755e-68,-6.426778906383149e-66,0.013393343583844697,0.03771466414016622,0.5504920515286056,-6.872285348561576e-07,1.5199710927730946e-07,7.880122694941901e-07
1669910122479186481,20393,1669910122112797681,,-0.6457006192280604,-5.6592881429990385,1.0500696122178856,-0.003000018195617243,0.006000048925674055,0.000999973167753374,0.0,0.0,0.0,0.013483650521896706,0.035389654220987055,0.5502395593810867,-6.871312710457604e-07,1.513329081650485e-07,7.883941214633284e-07
1669910122547136117,20394,1669910122244361030,,-0.6472959927540775,-5.661078441855224,1.0500548149381077,-0.008000018034073493,0.002000048639525555,-0.002000026594025428,-6.556886846222203e-273,3.294012966613463e-272,-5.3276643840515496e-273,0.014328695774807443,0.03216530698571063,0.551561117406429,-6.869468408029992e-07,1.5065027540486513e-07,7.888746005859452e-07
1669910122567061048,20395,1669910122374214772,,-0.6483250633892943,-5.661402914523597,1.0499821491958234,-0.008000018034073493,0.002000048639525555,-0.002000026594025428,-2.2761049594727193e-159,2.2761049594727193e-159,7.283535870312702e-158,0.01660312734241387,0.025697193500446858,0.5555645760793961,-6.866156905502984e-07,1.4956260982180668e-07,7.898083246450352e-07
1669910122710775161,20396,1669910122474804459,,-0.6502358619267378,-5.663386531379472,1.0499554816361163,-0.012000017903157372,4.868360485403573e-08,-0.005000026400969397,9.739356159669766e-44,7.484849728353447e-44,4.255066194738068e-42,0.017764299069433775,0.022376475888721714,0.5579910707462279,-6.864042808078673e-07,1.4882396367069578e-07,7.904526185654425e-07
1669910123014515962,20397,1669910122633910897,,-0.6531341023032843,-5.666797013643867,1.049566963777226,-0.017000017852950036,-0.002999950990480082,-0.007000026326930927,-2.5744330350955953e-155,4.0612056984562083e-156,2.9549679778883486e-155,0.02049660666705222,0.013374638485961654,0.5658486595940335,-6.861151183160657e-07,1.4730024899799346e-07,7.92094887546791e-07
1669910123051473426,20398,1669910122766683960,,-0.6565013017880813,-5.669896834605756,1.0500783393331692,-0.02200001787316009,-0.003999950439375965,-0.008000026356733775,3.8754747429761593e-79,4.733265594353252e-78,-1.2505770218127137e-77,0.022162654756325395,0.005426853373855067,0.5738211161000617,-6.859954217645341e-07,1.460318241036137e-07,7.936011412737006e-07
1669910123060992285,20399,1669910122918336074,,-0.6589814107461661,-5.67220544484403,1.0493600597632724,-0.02200001787316009,-0.003999950439375965,-0.008000026356733775,0.0,0.0,0.0,0.02317659955256346,-0.002938217619888661,0.5830574224810743,-6.85973875699597e-07,1.4469939084063647e-07,7.953790478574398e-07
1669910123208352471,20400,1669910122960846085,,-0.6608515344218389,-5.6752027909833584,1.050154436960228,-0.02700001797300003,-0.0069999494722421726,-0.010000026503963179,0.0,0.0,0.0,0.02346358287657324,-0.007780874480536326,0.5892587443795492,-6.860229161344623e-07,1.439360502481023e-07,7.96705017360267e-07
1669910123531119913,20401,1669910123129332171,,-0.6658080882712679,-5.681464681942179,1.0492086398033433,-0.034000018035321856,-0.009999948360008386,-0.011000026595866323,0.0,0.0,0.0,0.022737023845028403,-0.01822085090709713,0.6067661857779107,-6.8641036583491e-07,1.4260226063365977e-07,7.998998280439505e-07
1669910123560315547,20402,1669910123326256999,,-0.6722598308661603,-5.68892370713038,1.049423214977523,-0.04000001801879754,-0.010999947206585358,-0.010000026571498668,7.239543822911887e-155,-2.2952024872648565e-156,-8.610718680259424e-155,0.020033952893083296,-0.026336710244423855,0.6264737600115851,-6.870202943533974e-07,1.414795440489592e-07,8.033371485181273e-07
1669910123779258515,20403,1669910123482787584,,-0.6783413061853784,-5.693253116289595,1.0501084201216389,-0.04300001780858075,-0.006999945101653215,-0.009000026261501565,0.0,0.0,0.0,0.01719426057537099,-0.032127222159040514,0.6414497838059425,-6.874429821159214e-07,1.4078957615156175e-07,8.054027822821517e-07
1669910124024291841,20404,1669910123697524411,,-0.6871798698287334,-5.701802316222941,1.0494408698403832,-0.050000017556166974,-0.006999943957097243,-0.009000025889278482,0.0,0.0,0.0,0.013065260312281168,-0.0389701948318848,0.6678173940844712,-6.87904216092085e-07,1.4044263046223124e-07,8.094843750859837e-07
1669910124075133351,20405,1669910123815555008,,-0.6913430332948314,-5.706699282244004,1.049562600253266,-0.05100001723532406,-0.00799994300783465,-0.006000025416146072,1.3197998297705918e-143,-4.394030638201188e-145,4.7710559916601604e-142,0.011666788093977587,-0.03973811741222022,0.6803006449327231,-6.880296307566681e-07,1.405012032612803e-07,8.116314045770464e-07
1669910124091655659,20406,1669910123929575103,,-0.6952530129492697,-5.711054394516153,1.0496694729954879,-0.05100001723532406,-0.00799994300783465,-0.006000025416146072,8.895091292892212e-218,1.0994004310353084e-217,1.581155686085057e-217,0.011184653796995292,-0.039152997282599244,0.691418688720379,-6.879590356072065e-07,1.4085622238209027e-07,8.13269351643431e-07
1669910124112788567,20407,1669910123968719438,,-0.6965854972817689,-5.712558526292542,1.0500946893519911,-0.05100001723532406,-0.00799994300783465,-0.006000025416146072,0.0,0.0,0.0,0.011277101616171237,-0.038297834617669224,0.6960486513990887,-6.87883369018827e-07,1.4114383789337195e-07,8.138277668674846e-07
1669910124539327487,20408,1669910124037636520,,-0.6999445012228097,-5.712628499202369,1.0497773818134037,-0.049000016824581424,-0.001999941798606762,-0.0020000248104426474,-5.288357710630725e-144,3.9703567538843854e-145,-3.43495114905937e-142,0.011391940863386907,-0.03770478129537125,0.6981500677347938,-6.878507251951724e-07,1.4130120043077093e-07,8.140392978086747e-07
1669910124633143405,20409,1669910124248429085,,-0.710476022120236,-5.716138680405273,1.040126262013985,-0.049000016607283335,0.007000058967330367,-2.449000307367304e-08,0.0,0.0,1.375495327127599e-272,0.014184119972153297,-0.0292294528500463,0.7081216894749787,-6.872878588025593e-07,1.431505433097845e-07,8.144574646371286e-07
1669910124764145057,20410,1669910124486075461,,-0.7263427362688762,-5.712090944716237,1.0402320601846253,-0.04400023799473525,0.029999483874150492,0.0029999312271462393,0.0,0.0,0.0,0.018679174173263036,-0.016395102119844296,0.7001445230846315,-6.866657476208281e-07,1.4548136644754914e-07,8.118440255333086e-07
1669910125284616306,20411,1669910124689326563,,-0.7402182092624431,-5.7079600013292575,1.0403479392920656,-0.04200010238453621,0.04199954610439244,0.004999889616590305,5.271098971615262e-82,-8.433758354584419e-81,-2.698802673467014e-79,0.022900225196973878,-0.0012905253654569293,0.6818959453042837,-6.861481671883464e-07,1.4815842251176102e-07,8.081421548577838e-07
1669910125294855429,20412,1669910124900377091,,-0.7576602617865268,-5.704939719699039,1.0399902847247569,-0.047000017206517954,0.05000005848923676,0.005999974626332971,-1.3238812685235824e-107,6.6952863572291365e-106,3.442627577734964e-103,0.02494396310744662,0.012413403255386868,0.6621631937012591,-6.860692958883742e-07,1.502883938953747e-07,8.045750715438729e-07
1669910125365848605,20413,1669910125074871549,,-0.7761189584331999,-5.698772419066497,1.0398350235472962,-0.053000018209169344,0.06500005576382842,0.001999973147768704,-1.3571904541362216e-44,-1.6048522466268456e-44,-6.4157956149683824e-43,0.02499185550814076,0.021783376629423756,0.6445690816406593,-6.862044469854642e-07,1.514499991651916e-07,8.017446048436696e-07
1669910125833135073,20414,1669910125273603006,,-0.7953701294915663,-5.694205634000484,1.0398720650678563,-0.05800001860232122,0.07000005431685763,-2.7431994425575847e-08,0.0,0.0,0.0,0.02415812309846821,0.03189108315880773,0.615537668684091,-6.86380343098484e-07,1.5224801537038898e-07,7.977085390144231e-07
1669910125833189733,20415,1669910125431186334,,-0.8130482511363759,-5.690326331207136,1.0401946504184225,-0.06500001881541777,0.0750000529374562,-0.0020000277462381808,0.0,0.0,0.0,0.023091922251191832,0.035530153596097236,0.5953211884456753,-6.864956231609489e-07,1.525685895978955e-07,7.939647962184275e-07
1669910125846876416,20416,1669910125577973826,,-0.8301386042951845,-5.686846268535666,1.0396359574701157,-0.07100001891533213,0.0780000516372381,-0.007000027893577329,3.0290822796877657e-221,-4.376498795518688e-220,-7.573426708160036e-219,0.02216205270574534,0.03584684479559286,0.5769592640151711,-6.866419592056403e-07,1.5215888956335743e-07,7.911587048189255e-07
1669910126335789965,20417,1669910125760965242,,-0.8536793342822516,-5.686687041451414,1.0299821643582943,-0.08500001893066216,0.07500005050283014,-0.011000027916183805,-4.704301546371045e-78,-3.373685475323506e-77,-1.1172635283278089e-78,0.019807373951032048,0.030992336333270032,0.5564525208344353,-6.87173684133281e-07,1.507987199661277e-07,7.886377800967156e-07
1669910126346854211,20418,1669910125944310272,,-0.8764369832370755,-5.689345939052888,1.0295283765387522,-0.09499958050758402,0.06700040030856956,-0.015999808614262815,1.108373334216664e-219,2.7739267006507278e-219,-3.7469010863276333e-218,0.015814250374049266,0.021369454623027195,0.5436351814275113,-6.880524991569786e-07,1.488506988224742e-07,7.873616887454919e-07
1669910126404990994,20419,1669910126163708658,,-0.9051331992782555,-5.695148183730729,1.0290126809601052,-0.10900001843978016,0.057000049153734696,-0.02100002719230254,2.638580189611966e-296,2.41665668833784e-295,1.2644373967710854e-293,0.009158536180988719,0.006098172349418007,0.5362206281288913,-6.893588525520933e-07,1.4619698900440667e-07,7.869123369094885e-07
1669910126862781227,20420,1669910126325730567,,-0.926460191450689,-5.69703133593606,1.020679653452416,-0.11300001793882769,0.05700004968197409,-0.023000026453570774,3.674449824910218e-223,1.8157443564609128e-222,1.3706191600899338e-220,0.003938316964905653,-0.006539394197226045,0.5349889682435531,-6.902009746103218e-07,1.4418358337944938e-07,7.871134168104599e-07
1669910126877691488,20421,1669910126458307871,,-0.9440610207416891,-5.700469497906902,1.0200591258456149,-0.11799979301366556,0.05300022992466401,-0.0249999359392036,4.202398223660615e-43,3.5371961124407337e-44,2.9283159333902307e-41,0.0009774040839012343,-0.015108075031889712,0.5361050998217038,-6.905692095838543e-07,1.429003330616152e-07,7.876916638697159e-07
1669910126877787685,20422,1669910126618069591,,-0.9645222715323825,-5.702817815481358,1.0174634044196917,-0.11799979301366556,0.05300022992466401,-0.0249999359392036,0.0,0.0,0.0,-0.0033748818822942894,-0.02465948901942916,0.5441597729327246,-6.917190165635879e-07,1.4189503337537128e-07,7.900298502126574e-07
1669910127178160552,20423,1669910126672211055,,-0.9712239653184339,-5.706673136353949,1.0183408359686892,-0.12100001683171845,0.047000051309115484,-0.024000024820967292,-6.968708861153159e-146,5.8829198872100655e-145,7.701867019674142e-142,-0.006306195559460548,-0.02697321206996861,0.5491396893714544,-6.923347638687786e-07,1.4167107783873596e-07,7.912389554129164e-07
1669910127196020940,20424,1669910126889425766,,-0.9956411917475522,-5.714179225135566,1.0100773279154962,-0.11800014470433567,0.04000035208241201,-0.016000366514450994,-1.9176146348819244e-93,3.835229269763849e-93,-5.992545734006014e-95,-0.01333607222558264,-0.031204588451817727,0.5759672637060369,-6.927119124122523e-07,1.4160524509330586e-07,7.968409555668657e-07
1669910127309804136,20425,1669910127079707079,,-1.0049590138205569,-5.7286350883400905,1.0090390830127896,-0.10400124815838072,0.010003342111099486,-0.0130002280036684,-4.2168791772922093e-81,-5.271098971615262e-82,6.747006683667535e-80,-0.011910984211496611,-0.029723349738226545,0.6028603138043707,-6.91800976658096e-07,1.4211044501233134e-07,8.01767720452768e-07
1669910127352834443,20426,1669910127230670482,,-1.0186121996027866,-5.736401506302029,1.0079870945111638,-0.10400124815838072,0.010003342111099486,-0.0130002280036684,0.0,0.0,0.0,-0.00691792219712184,-0.02692378398272055,0.6290271723635943,-6.905225622855549e-07,1.4275796450863012e-07,8.064891787072734e-07
1669910127695166253,20427,1669910127271724685,,-1.023214931647785,-5.740185868958996,1.0091275919701912,-0.10799979959360921,0.008000163405518278,-0.011000128941287437,-1.5666082251180638e-307,-2.6849547382625806e-307,-3.7120427526590316e-308,-0.005544280660995327,-0.026161308922384663,0.6344318015369304,-6.90195513877008e-07,1.4294283685016713e-07,8.073393790375264e-07
1669910127733044097,20428,1669910127399391577,,-1.0325534633987883,-5.748832138699703,1.0033509012878286,-0.10500026477868986,0.0020005571504977584,-0.009000188232530005,3.5314069438279e-219,-5.960655485554825e-224,-1.3395275681179491e-219,0.0030864125072032067,-0.020741943441013433,0.6633918457236483,-6.885644208790509e-07,1.4414220258424827e-07,8.121789379660681e-07
1669910127733046955,20429,1669910127514599715,,-1.042186667745788,-5.756114502586706,1.000702489294039,-0.10500026477868986,0.0020005571504977584,-0.009000188232530005,3.610388751729659e-276,9.025971879324148e-277,2.957630465416937e-272,0.008978732137771672,-0.01617582610360202,0.6826250227186748,-6.87652133751053e-07,1.4506465033646638e-07,8.152515509149979e-07
1669910127847218830,20430,1669910127598533989,,-1.0473701693878932,-5.759164232113092,1.0000920738733416,-0.09800001487670226,0.004000057212309876,-0.00600002193799412,2.337692016936632e-142,-1.3150690960926836e-145,-1.655367949663503e-141,0.012022803359769796,-0.013505485057253352,0.6918275406457557,-6.871804980161709e-07,1.4556712546700447e-07,8.163275197532087e-07
1669910127967880421,20431,1669910127755681168,,-1.0605623356485314,-5.764065594667829,0.9999121060179924,-0.09300044211577813,0.013999204584154231,-0.004000193581149074,2.5679383721172832e-216,1.400620403660303e-218,6.951876286038909e-215,0.02149486991175742,-0.005310722681421964,0.7103943212336432,-6.855905762562478e-07,1.4706812760362642e-07,8.180454808514685e-07
1669910128237133292,20432,1669910127880989722,,-1.0705329855714305,-5.770348078553061,0.9998385721506855,-0.09300044211577813,0.013999204584154231,-0.004000193581149074,2.1550528815265382e-66,-9.005700959188085e-65,-5.985786714381462e-63,0.027721987779084856,-0.00018983738345035306,0.7157559301538363,-6.845976522115659e-07,1.4792677675825575e-07,8.181913787355749e-07
1669910128271313833,20433,1669910127923966949,,-1.077586384792423,-5.765776631479433,0.9997258569024347,-0.0890000166706541,0.03300005788194137,-0.004000024583453061,0.0,0.0,0.0,0.02830450360354675,0.00028263754487589665,0.7160000742967352,-6.845472478095672e-07,1.479572358320655e-07,8.180394099830338e-07
1669910128271406786,20434,1669910128029518944,,-1.0869657323136508,-5.769312607430598,0.999719837819459,-0.0890000166706541,0.03300005788194137,-0.004000024583453061,-8.083439966369706e-295,-7.87712861493416e-294,-4.115742166219944e-294,0.03710307758763065,0.0068885570691108455,0.7151887031763913,-6.832300956364006e-07,1.4888098279446088e-07,8.169067505235108e-07
1669910128325352774,20435,1669910128105626815,,-1.0964735929455511,-5.7680947086859655,0.9997888570127283,-0.0880000177642817,0.04500005754160793,-0.0050000261961757825,0.0,0.0,0.0,0.040474503179424914,0.009156544597876959,0.7124629855244677,-6.828136280636097e-07,1.4906636707764973e-07,8.161164745527032e-07
1669910128435165608,20436,1669910128243130750,,-1.1137584847594089,-5.768864999385507,1.000040395709708,-0.09200001867517935,0.05700005689783871,-0.005000027539434973,0.0,0.0,0.0,0.046177765479798794,0.012307380965443926,0.7044134379951643,-6.821443259435774e-07,1.4927475706425058e-07,8.144303294952557e-07
1669910128738281941,20437,1669910128354684368,,-1.1257132866584547,-5.770630917763845,0.9999757912394182,-0.09200001867517935,0.05700005689783871,-0.005000027539434973,-1.9058618673390773e-77,-2.9163434477580646e-77,1.4815434655108858e-78,0.049480284359653126,0.013591069459156557,0.6961476874912798,-6.818367592090654e-07,1.4924988168692684e-07,8.129360336908268e-07
1669910128774878948,20438,1669910128422743299,,-1.1330150569733073,-5.771652840890245,0.9999142974003358,-0.09200001867517935,0.05700005689783871,-0.005000027539434973,0.0,0.0,0.0,0.051154341414465065,0.013936976957841907,0.6894815240188947,-6.817502113574619e-07,1.4911717163688493e-07,8.116816133694529e-07
1669910128777640326,20439,1669910128467686206,,-1.1434819623460615,-5.77119796724983,0.9999279390172534,-0.09999961211924542,0.06699954685010663,-0.005999977846957414,1.032388995990454e-146,-7.891137075908608e-147,-4.518108932847542e-143,0.05209687122242812,0.013869576668003702,0.683113178968803,-6.817495162749141e-07,1.4892091010128106e-07,8.103290619035368e-07
1669910128829806279,20440,1669910128594120629,,-1.1609402530509734,-5.770405222766678,0.993896441693151,-0.10099993618914167,0.07499938211451337,-0.007999861754539294,-7.112827998352248e-161,-1.4225655996704496e-160,9.104419837890877e-159,0.05239661542916352,0.01282602525908949,0.6699908601917475,-6.820238037116531e-07,1.4844988095325175e-07,8.079394861728591e-07
1669910128876541749,20441,1669910128744770770,,-1.1799199540984107,-5.770847195315211,0.9901110886417143,-0.10099993618914167,0.07499938211451337,-0.007999861754539294,9.929052539221955e-66,9.361521119048317e-65,4.3296743883097785e-64,0.051609215716492685,0.011354582379636824,0.659997105043514,-6.823615754652618e-07,1.4798087524070646e-07,8.062540987322761e-07
1669910129017172021,20442,1669910128795656322,,-1.190638175643979,-5.7707472236919015,0.9899848172948498,-0.10900002088813049,0.08200005434811568,-0.008000030802773063,2.748938439283473e-152,9.770164827798039e-150,1.7619225159146926e-151,0.0506393955051454,0.010096595401133612,0.6539752657044904,-6.826435784327319e-07,1.4764415563461302e-07,8.053140796222502e-07
1669910129296453042,20443,1669910128932084116,,-1.2133236981389701,-5.771719156998996,0.9901612287573928,-0.11899960215403912,0.08599988624514623,-0.008000031037691584,6.953339920215282e-77,5.269415211632965e-77,2.7244330121647102e-77,0.043611619645899324,0.002698497374641562,0.6275724406352783,-6.844538815673909e-07,1.4594538573861953e-07,8.012093032715341e-07
1669910129314915249,20444,1669910129072398918,,-1.2339470874431542,-5.771652258024767,0.9898418019875421,-0.11899960215403912,0.08599988624514623,-0.008000031037691584,7.001750710103722e-146,-5.237652607882176e-144,6.859906924972335e-142,0.035454957771289486,-0.004227050690516876,0.6120618276514094,-6.860148669849725e-07,1.4470006946213475e-07,7.992764247406986e-07
1669910129410051435,20445,1669910129129338318,,-1.2435262641904992,-5.771867567044377,0.9902978586538913,-0.12200002081049191,0.08700005340631674,-0.009000030688283004,-2.239346257621105e-221,2.960490948959093e-218,4.964950923119459e-220,0.03387738250064487,-0.005554717770476003,0.6094475417345855,-6.864798203812743e-07,1.4434098002520107e-07,7.987629635687463e-07
1669910129495437670,20446,1669910129306346342,,-1.2709955413658112,-5.775310223639,0.989638494614955,-0.12900002031510877,0.08100005335147448,-0.0060000299577640795,0.0,0.0,0.0,0.022535796748918813,-0.015011135658484775,0.5966700225995929,-6.879882091113977e-07,1.4320239251148435e-07,7.977154549129952e-07
1669910129550372295,20447,1669910129412535386,,-1.2871594180545032,-5.775837461826505,0.9895046155938058,-0.12900002031510877,0.08100005335147448,-0.0060000299577640795,-8.033821127379513e-156,8.085050856701696e-156,-7.102342986153927e-158,0.01602941362423138,-0.019802243254883223,0.5904020112734436,-6.889198711473092e-07,1.4273462179727666e-07,7.971185575027593e-07
1669910129824652500,20448,1669910129467874944,,-1.292734717090765,-5.779390132561194,0.9899501331760809,-0.12800007032229607,0.07100056139452443,-0.0020002319526692645,4.716832636726344e-154,-1.0120903032473055e-155,3.643026704382735e-154,0.013038025174468615,-0.02170887999997717,0.5880124052686782,-6.900049516090407e-07,1.4205929494370484e-07,7.964525678966568e-07
1669910129860519597,20449,1669910129599110267,,-1.3118764997804118,-5.780926251289406,0.9896945878361023,-0.12800007032229607,0.07100056139452443,-0.0020002319526692645,0.0,0.0,0.0,0.004292484660309626,-0.026231685354657586,0.5858846247458356,-6.915607583361422e-07,1.4143072449748505e-07,7.968779630894458e-07
1669910129880751646,20450,1669910129665763219,,-1.320030945296425,-5.78410028307538,0.9899876711613399,-0.12800001801094663,0.06400077051941375,0.0019995641885892455,4.074944304509061e-65,-6.135062378545217e-66,-2.1719471531948959e-63,0.0019528665647960963,-0.02726096241836551,0.5865220919594503,-6.917619944616001e-07,1.4141038749041807e-07,7.97239148061229e-07
1669910130038598423,20451,1669910129799621018,,-1.3350753621623037,-5.790379413354845,0.9901284142963837,-0.12500013871646942,0.05000062202477083,0.004999853114499769,0.0,0.0,0.0,-0.0025748724347085528,-0.028936769972283116,0.5907485596140454,-6.921581590500954e-07,1.4135972449474164e-07,7.984842821808012e-07
1669910130457621175,20452,1669910129951609836,,-1.3550882466878766,-5.794709774754374,0.9900198518738924,-0.12500013871646942,0.05000062202477083,0.004999853114499769,-5.628329347155864e-215,-2.670004846398123e-214,-1.0546911332451765e-213,-0.0040825517071176876,-0.0290694131351259,0.5995656792268811,-6.919030197817835e-07,1.4160641286612543e-07,8.004036734883181e-07
1669910130457663115,20453,1669910130034215188,,-1.3636227902452303,-5.801463538395718,0.989829863712764,-0.12599991471927607,0.03900117232120438,0.007999671401139165,-8.479538043880506e-144,-1.329797764730025e-140,-6.410849219363849e-143,-0.0033402652816860723,-0.028436248189565916,0.6043471785118655,-6.915609937218707e-07,1.418538966167931e-07,8.013591514237479e-07
1669910130469671897,20454,1669910130210301251,,-1.3830789324241566,-5.81007579131073,0.9906740820997598,-0.12300013687505068,0.033000298442354435,0.011999815279425813,-1.4468226859780643e-143,-3.508846778406929e-145,-3.404533067580572e-143,0.000578044402780975,-0.025455660009441772,0.616823621638364,-6.906869659069232e-07,1.4254127004822106e-07,8.032838081450805e-07
1669910130597347845,20455,1669910130368937605,,-1.3971271141621038,-5.81725650134408,0.9900450117129977,-0.11300193349991969,0.02600139922165771,0.012999785657894792,0.0,0.0,0.0,0.007043730493140998,-0.020167359278477903,0.6312374355122294,-6.894074816049442e-07,1.4375258774964392e-07,8.060944553218693e-07
1669910130889607230,20456,1669910130509596290,,-1.4106727734795383,-5.824314818487874,0.99071611948969,-0.111000182408506,0.02300030698415799,0.013999893852049014,0.0,0.0,0.0,0.01280883519471665,-0.01466224807117733,0.643276982964796,-6.88512392629962e-07,1.447846389226332e-07,8.080932655985008e-07
1669910130922133136,20457,1669910130635775051,,-1.4236045718688293,-5.830466392854854,0.989510520233796,-0.111000182408506,0.02300030698415799,0.013999893852049014,-2.272634873427761e-292,-1.524348505386797e-292,-2.292235554169015e-291,0.017463733222090383,-0.010202008710265886,0.65265769941686,-6.877039185016002e-07,1.4558467076824775e-07,8.097092058960223e-07
1669910130938377726,20458,1669910130698146290,,-1.4296699533893957,-5.8333258306625675,0.9903888171444594,-0.11000001612791512,0.023000056688298104,0.015999976216899362,0.0,0.0,0.0,0.019185742818581986,-0.008779729449083007,0.6557712624937881,-6.874851433499653e-07,1.4572735884522574e-07,8.100722270545818e-07
1669910130993331083,20459,1669910130853618097,,-1.4453308911377594,-5.841077250749879,0.9918569897718842,-0.11000001612791512,0.023000056688298104,0.015999976216899362,0.0,0.0,0.0,0.026482008340831698,-0.0035346228102000055,0.6684788361936285,-6.863848473485044e-07,1.4645945722549954e-07,8.120202489079036e-07
1669910131362451087,20460,1669910130907530972,,-1.449736831434045,-5.844311206590001,0.990677420787395,-0.10900001655319597,0.021000056597005514,0.014999975589757101,0.0,0.0,0.0,0.03121056320512139,-0.0008752130293512295,0.6764846300594449,-6.85465732715534e-07,1.46975361408147e-07,8.136698516369832e-07
1669910131386022388,20461,1669910131072748266,,-1.4663143085551265,-5.853922951323132,0.9999605238111443,-0.1110000173980952,0.020000056320687496,0.011999974343822738,0.0,0.0,0.0,0.03817134263751498,0.0022488535668845344,0.6908627366489473,-6.848065739838212e-07,1.474168750144086e-07,8.159735796689799e-07
1669910131505142580,20462,1669910131231010874,,-1.4841888840708197,-5.861930750758,1.0007154850917828,-0.11400001828785779,0.02500005606606796,0.012999973031730453,0.0,0.0,0.0,0.040488764103912445,0.004579667410908428,0.7053025078412141,-6.853102989802249e-07,1.478056949791598e-07,8.181170426715815e-07
1669910131658943916,20463,1669910131423043767,,-1.5031876782151066,-5.868891167649101,1.0007281755199753,-0.10800001902954759,0.030000055944095768,0.012999971937994338,0.0,0.0,0.0,0.035007350583864394,0.0057581490727578455,0.7160913143305407,-6.869278521752846e-07,1.4792509960083778e-07,8.194346029163641e-07
1669910131907275239,20464,1669910131564551893,,-1.5149154472052904,-5.8713826796498925,0.999648763373311,-0.09700001975010462,0.034000055914922826,0.014999970875421759,-1.3816370482546872e-44,-6.999889928197903e-44,-2.349872802594166e-42,0.029172691621887736,0.005861408405692714,0.7221052360716538,-6.880601258055247e-07,1.4785990360429347e-07,8.201971163792962e-07
1669910131907349105,20465,1669910131683846850,,-1.523879580553289,-5.8750540027738545,1.0003805045433518,-0.09100001992096036,0.03200005592405771,0.014999970623468577,0.0,0.0,0.0,0.020396932075842145,0.004935143960466348,0.7288332092986103,-6.893654329171728e-07,1.4763861460027014e-07,8.210348035425288e-07
