%time,field.header.seq,field.header.stamp,field.header.frame_id,field.position.x,field.position.y,field.position.z,field.velocity.x,field.velocity.y,field.velocity.z,field.acceleration.x,field.acceleration.y,field.acceleration.z,field.orientation.x,field.orientation.y,field.orientation.z,field.angular_velocity.x,field.angular_velocity.y,field.angular_velocity.z
1669909868918486131,18471,1669909868741211004,,-1.0126224224955152,-3.4330267345148866,1.0598935707803323,-0.0030000154205464297,-0.003999957541335121,-0.0020000227399763013,1.3865334467578738e-79,7.182803487662739e-81,-1.4033281831531624e-79,0.0030597374250991294,-0.020429462101393625,0.1768590644547281,-5.758016363353811e-07,1.3242618677711581e-07,6.486133924025404e-07
1669909869326749795,18472,1669909868914348303,,-1.0137731887048498,-3.4343706615541283,1.0599353563953469,-0.005000015145537192,-0.004999957085044711,-0.002000022334432725,-3.234539689561756e-173,-1.617269844780878e-173,-1.2938158758247024e-172,0.0017407721806819154,-0.020989983061911133,0.17730056427231666,-5.759225608936553e-07,1.3290086540034085e-07,6.48784967016124e-07
1669909869348399270,18473,1669909869084940875,,-1.0123862392458722,-3.435408269411405,1.0599962070893871,-1.4863403079504193e-08,-0.005999956726394715,0.0009999780816175785,0.0,0.0,0.0,0.002180123247633503,-0.018066152682578718,0.17742590507482348,-5.7585289036835e-07,1.3363152097058704e-07,6.488087299606103e-07
1669909869361640631,18474,1669909869238350099,,-1.0122340280790971,-3.436317206370468,1.0601943447283937,-1.4754301277572233e-08,-0.005999956559390206,0.0019999782425050286,0.0,0.0,0.0,0.002930198250266969,-0.013544497324744498,0.1771871296538876,-5.757770165284838e-07,1.3458938532978233e-07,6.487715622623709e-07
1669909869532133063,18475,1669909869357159149,,-1.0115061822055613,-3.436137612627285,1.0602748588498199,0.0019999852188399368,-0.003999956591058778,0.003999978202897603,3.5953361364555367e-259,3.258686623222457e-261,5.765055575308765e-257,0.003640895602558203,-0.009340242288704559,0.1768317117987266,-5.756952935853831e-07,1.3538467755981444e-07,6.487174857697299e-07
1669909869611174247,18476,1669909869494772323,,-1.0107827025837244,-3.4365709058261005,1.0600738926438447,0.002999985116906892,-0.0039999567821549795,0.004999978052581591,0.0,0.0,0.0,0.004566546711739505,-0.0027189527294257942,0.1762208477409608,-5.756720345944434e-07,1.3649338128764732e-07,6.486656975565082e-07
1669909869725673323,18477,1669909869603270566,,-1.010386628700367,-3.43694381163141,1.0600747671625472,0.002999985116906892,-0.0039999567821549795,0.004999978052581591,-1.3512501227703507e-145,-4.746794627250249e-145,-1.3280508012845443e-142,0.005098843763535754,0.001842128894010031,0.17566991082417616,-5.756389755844558e-07,1.371946301877146e-07,6.485794657190728e-07
1669909869798732266,18478,1669909869645770941,,-1.0102941626165873,-3.4367234619212765,1.0602290531222767,0.002999984947849671,-0.0029999571366847405,0.003999977803280621,-6.080949424270528e-145,-1.3717559750958944e-144,-1.2223657644106495e-141,0.005097269068798482,0.0018329088364676949,0.17567064519147024,-5.756430307451094e-07,1.3715203359555093e-07,6.48581276475604e-07
1669909869858079514,18479,1669909869794081853,,-1.009774977546399,-3.4370867714630595,1.0599703076464215,0.002999984947849671,-0.0029999571366847405,0.003999977803280621,-2.2783389184036186e-231,-8.131694034593403e-233,2.767420949706223e-233,0.005842821176274882,0.007916366040086942,0.17440753101866946,-5.755818420704747e-07,1.380400059099532e-07,6.483887798940339e-07
1669909869974116202,18480,1669909869847951645,,-1.0100307371777393,-3.4369070815100358,1.0601378102421741,0.0019999847022054386,-0.0019999577228054584,0.0029999774410402777,0.0,0.0,0.0,0.006285366233672818,0.009612079718078093,0.17388932055285444,-5.755228655520292e-07,1.3815374936512157e-07,6.48341008139833e-07
1669909870093939565,18481,1669909869963100367,,-1.0104647587806745,-3.437606837214284,1.0599987504285442,-1.54180399675706e-08,-0.0029999580818358064,-2.273628013638222e-08,1.6524608525277824e-302,8.539196478489148e-303,-3.716135538433849e-301,0.0070885284850401575,0.012216921535792125,0.17294590638246454,-5.754646726729558e-07,1.3845336645751307e-07,6.482364900388504e-07
1669909870139856410,18482,1669909870081245384,,-1.01040392702427,-3.43795597768987,1.0600005784487827,-1.54180399675706e-08,-0.0029999580818358064,-2.2736280136382207e-08,-3.440427617491884e-158,-2.3975085694061805e-157,-8.621920258390909e-159,0.007645275241911165,0.014050550255729988,0.1721413158460603,-5.754847997173413e-07,1.3864451206654112e-07,6.481668467879765e-07
1669909870399432217,18483,1669909870126383223,,-1.0116514216188957,-3.437201282419331,1.059940231381269,-0.003000015598217544,4.133977338704674e-08,-0.0030000230019797884,-2.0548989786543046e-80,7.04946514957602e-80,-2.463840592817543e-80,0.007695267791977045,0.014378093790401891,0.17191869997814457,-5.755206565311822e-07,1.386320008640898e-07,6.481507889792948e-07
1669909870399434716,18484,1669909870238805611,,-1.0119890074325495,-3.4372571729662362,1.0524917078724623,-0.003000015598217544,4.133977338704654e-08,-0.0030000230019797884,-4.445517498970155e-162,-2.2227587494850775e-162,8.89103499794031e-162,0.007506970875457597,0.01487305873533451,0.17119434379176468,-5.757129312837855e-07,1.3852233959845476e-07,6.481122264998308e-07
1669909870413441578,18485,1669909870286440076,,-1.0132405967279252,-3.4374678504705,1.0505146289259821,-0.006000015714523183,4.101798411322339e-08,-0.005000023173490407,-2.1687871920727288e-293,-1.2978104617992662e-295,-2.9058344439954086e-292,0.007209824555284072,0.014641245343888443,0.1708774872419827,-5.758528553568738e-07,1.3835002182074612e-07,6.481061203665832e-07
1669909870457608512,18486,1669909870396546582,,-1.0139000118351231,-3.4375776343249167,1.0500685669428036,-0.006000015714523183,4.101798411322339e-08,-0.005000023173490407,4.1620231029575534e-66,-1.8642961624092642e-66,-1.2853062757586145e-63,0.006490517379946326,0.013183713086565518,0.17052034026092855,-5.760709771114899e-07,1.3794017204481897e-07,6.480969590572589e-07
1669909870567484358,18487,1669909870448330229,,-1.0157371608679429,-3.4378848767915904,1.0496491248372875,-0.010000015816277576,4.0766976930430755e-08,-0.00800002332354297,0.0,0.0,0.0,0.00595202057604638,0.011820664605227904,0.17032540833720589,-5.762000333062636e-07,1.3761428480581206e-07,6.480933983868797e-07
1669909870659643939,18488,1669909870563458436,,-1.0168827676893546,-3.438076472266862,1.0495208460092111,-0.010000015816277576,4.076697693043076e-08,-0.00800002332354297,-1.1997431451035645e-78,4.634384677920881e-80,-1.841671220512269e-78,0.005170031098751693,0.009367448223983388,0.17013172596811899,-5.763795681232853e-07,1.3709817635593855e-07,6.481227732643532e-07
1669909870798481276,18489,1669909870618654240,,-1.0181815337652516,-3.4382903783490826,1.0498131735124037,-0.012000015810775047,4.063615086095454e-08,-0.011000023315428641,0.0,0.0,0.0,0.0043849691618707,0.00667777626224364,0.17005566954780882,-5.765811834654311e-07,1.3658587200657312e-07,6.481556997471105e-07
1669909870927180631,18490,1669909870759552425,,-1.02103030603117,-3.438769262204445,1.0493808187123774,-0.01500001572633889,4.069133052305204e-08,-0.013000023190914494,1.9456148259851101e-295,1.7484090373119987e-296,1.7188517784890578e-294,0.0028666181325913698,0.0016303045245855685,0.17005580302558343,-5.768949810875712e-07,1.357363741731187e-07,6.482274154723761e-07
1669909871044426445,18491,1669909870915789551,,-1.0245250344597123,-3.4393635372142013,1.0487035502159088,-0.018000015561460032,4.090607326251475e-08,-0.014000022947775163,1.461850070585075e-68,6.988395037966099e-69,1.2785736822270477e-65,0.0009793896376439903,-0.005008421013112496,0.17031056266747058,-5.772446418350942e-07,1.3471229031158175e-07,6.483526706276665e-07
1669909871118702534,18492,1669909871035646197,,-1.0266399415465166,-3.4397266576012,1.0488954802040598,-0.018000015561460032,4.090607326251475e-08,-0.014000022947775163,-5.271098971615262e-82,6.434446986835036e-86,-3.3735033418337674e-80,-0.00017737124808370197,-0.009883350668651758,0.17068797793071866,-5.774659904143312e-07,1.3388846099675747e-07,6.484730050496483e-07
1669909871441067675,18493,1669909871099020260,,-1.027756388513099,-3.4399199415836237,1.049757046980218,-0.018000015302176573,4.13440147096675e-08,-0.013000022565421671,1.3459433153400621e-65,2.383300821790254e-66,1.955024253063584e-63,-0.0009135759424729883,-0.013916721206816973,0.17105030954133582,-5.775774096975061e-07,1.332482187708495e-07,6.485782667249721e-07
1669909871454427520,18494,1669909871271205664,,-1.0311908713866995,-3.440516396797334,1.049172505909726,-0.019000015084005003,4.177542074143686e-08,-0.014000022243694015,0.0,0.0,0.0,-0.0013269955337094075,-0.019990022721941614,0.17173890896955157,-5.775565440058216e-07,1.3255868100697807e-07,6.487438581955619e-07
1669909871539380038,18495,1669909871394485473,,-1.0334135894779006,-3.441308339304845,1.041319607321372,-0.01900001483259283,-0.000999957703094637,-0.01100002187294795,0.0,0.0,0.0,-0.0003745930122214247,-0.022831955236762624,0.1724188248220706,-5.773515796345944e-07,1.324743442450113e-07,6.489153015061747e-07
1669909871656050507,18496,1669909871533315432,,-1.033494506859726,-3.4426436336645736,1.040222981686606,-0.013000014620534068,-0.003999957202026812,-0.007000021560234567,0.0,0.0,0.0,0.0009356137330378544,-0.023589009244210146,0.1729087173846544,-5.771341738509959e-07,1.3264152715104089e-07,6.489989536701132e-07
1669909871839761634,18497,1669909871644803470,,-1.0341550176323504,-3.443210954141513,1.040167756649486,-0.011000014528464398,-0.003999956778310757,-0.005000021424463628,2.908687280692428e-44,2.7546503317631475e-45,1.2669441858200721e-42,0.0023027618697426533,-0.022812127913113045,0.17319338775330095,-5.769747429746661e-07,1.3305676809533399e-07,6.490407569306019e-07
1669909871853519515,18498,1669909871760878502,,-1.0353198745012153,-3.4438845216840983,1.040051878305453,-0.011000014528464398,-0.003999956778310757,-0.005000021424463628,0.0,0.0,0.0,0.0030886801874050462,-0.020655501684750277,0.17331820747034854,-5.770569762337147e-07,1.3356823792673677e-07,6.490681492059249e-07
1669909871975863067,18499,1669909871811027258,,-1.034893469956765,-3.443272595539433,1.0399075445608088,-0.008000014581929673,-0.001999956551818679,-0.002000021503306431,-1.65629117730107e-216,1.0002454730362272e-218,1.1171798526618116e-215,0.0032417253176646454,-0.018966769880268686,0.1733456613246318,-5.771378003773038e-07,1.3401315185126432e-07,6.490848997263466e-07
1669909872039292143,18500,1669909871966051045,,-1.0360563007690506,-3.4437899153708793,1.039989403067936,-0.008000014581929673,-0.001999956551818679,-0.002000021503306431,0.0,0.0,-2.235729654883287e-120,0.0031570838856751493,-0.012740825367787423,0.1732064980093817,-5.771902233115213e-07,1.3524192982206056e-07,6.490841145587448e-07
1669909872191968913,18501,1669909872032128015,,-1.0363048290596206,-3.4430856693212704,1.0399190603254593,-0.007000014727013372,4.3508597935820036e-08,0.0019999782827452585,-8.150315406361599e-220,-1.2769713773422567e-219,-2.3169353948386583e-196,0.0032345050081890037,-0.011840527262329203,0.173162330753323,-5.771773165429809e-07,1.3537356910163123e-07,6.490756274424479e-07
1669909872501935470,18502,1669909872186709282,,-1.0359237529845733,-3.443917199293691,1.0400676877222759,-0.004000014930349531,-0.0019999566653910554,0.0029999779828947023,-1.4422485926628884e-220,-6.184631198999929e-219,4.4491394939544795e-217,0.004684960563020368,-0.0031973857902443115,0.17237820092798195,-5.769863116351148e-07,1.3656727544973315e-07,6.489741157428494e-07
1669909872525051861,18503,1669909872334620038,,-1.0365270093265302,-3.443919783511642,1.0398923271959937,-0.0040000150659428805,-0.0009999570877598978,0.003999977782941375,0.0,0.0,0.0,0.005975015442469811,0.0032998171799576426,0.17147697724843347,-5.768192098548225e-07,1.3782752970616406e-07,6.488227077137733e-07
1669909872658882271,18504,1669909872498513795,,-1.03761909752818,-3.443860038921366,1.040150039896559,-0.005000015215970211,4.248697635161543e-08,0.003999977561702913,0.0,0.0,0.0,0.007123413254481292,0.009406771102010936,0.1703746838781086,-5.767366338451851e-07,1.3877357028446042e-07,6.486873110365731e-07
1669909872865083001,18505,1669909872649379949,,-1.0379442497917715,-3.4439226788133968,1.0399377235445302,-0.004000015418367598,4.1986112490069466e-08,0.0049999772632367216,-4.487812392985516e-65,-1.3882858839648947e-65,-3.521513688792492e-64,0.007993239666793883,0.015125871606986863,0.1691062992820136,-5.767272442709543e-07,1.3953512582011992e-07,6.48505966231443e-07
1669909872899278051,18506,1669909872771496918,,-1.0388749524688352,-3.4436867626937206,1.040017901999769,-0.005000015615371361,0.0010000415089569514,0.001999976972724261,0.0,0.0,0.0,0.008393134604785857,0.018192181212107528,0.16807947333015782,-5.767206228257451e-07,1.3986418567895122e-07,6.483770026899692e-07
1669909872975783190,18507,1669909872892022198,,-1.0394842388438983,-3.4436697773768574,1.0400626248236995,-0.005000015615371361,0.0010000415089569514,0.001999976972724261,-6.93986312206864e-145,1.0180892390963279e-145,-3.5279610193358735e-142,0.008874346641237096,0.020317430206242548,0.16704990855228274,-5.766792225372952e-07,1.4002698782771792e-07,6.482476051899147e-07
1669909873116104041,18508,1669909872970431955,,-1.0403818278767452,-3.443302755018894,1.0400193337979575,-0.006000015809155622,0.0020000410051348684,0.001999976686959452,0.0,0.0,0.0,0.00933894871985963,0.02106028850116104,0.16604382748721136,-5.7668116521125e-07,1.39895891310108e-07,6.481406255015278e-07
1669909873232656542,18509,1669909873104587967,,-1.0424090888685464,-3.4437878358406966,1.039966400041206,-0.00900001594234903,0.00100004057506456,-0.0010000235094547896,0.0,0.0,0.0,0.009720039746195397,0.020278131728503013,0.1651019283408921,-5.7670349792634e-07,1.395334795613165e-07,6.480819492699397e-07
1669909873543041134,18510,1669909873223477554,,-1.0445865063458526,-3.4444157399466837,1.0398302526757142,-0.012000016033123399,4.023676988471061e-08,-0.00300002364331561,1.3583423054197394e-79,3.133010098133149e-79,1.9351796675131798e-79,0.009702389722013649,0.01819750864733649,0.16452723301036265,-5.768625468893423e-07,1.3898694313427466e-07,6.480738224735003e-07
1669909873570166193,18511,1669909873356001939,,-1.0461624120975401,-3.444673278903587,1.0400236726317764,-0.012000016033123399,4.023676988471063e-08,-0.00300002364331561,1.0149277929837894e-217,1.0682212521461985e-217,5.706291350005347e-219,0.008980797934308171,0.014052539141049536,0.16410276482993602,-5.771331155233591e-07,1.3808612451488916e-07,6.480981058191536e-07
1669909873570173867,18512,1669909873405325887,,-1.047647680889746,-3.444135107946861,1.0397626674789904,-0.014000016083876736,0.002000040051451043,-0.006000023718159242,0.0,0.0,0.0,0.008704122096332867,0.012638967447976768,0.16404712785453768,-5.77217640766891e-07,1.3784797598475992e-07,6.481225221590132e-07
1669909873620551695,18513,1669909873552103307,,-1.049732556531055,-3.4441752833028936,1.0400766488412703,-0.014000016083876736,0.002000040051451043,-0.006000023718159242,2.07731090520367e-65,3.629468739694576e-65,6.216939492815694e-63,0.007054539731189635,0.004788613014230947,0.16390738440069796,-5.776156054273206e-07,1.3641088176480818e-07,6.481816184342468e-07
1669909873748986630,18514,1669909873614579951,,-1.052357840143301,-3.444476823196114,1.0396580638896822,-0.01800001606136474,0.002000040126147711,-0.007000023684961828,0.0,0.0,0.0,0.006442346369347263,0.001916535391586649,0.16392100038914847,-5.777390339103384e-07,1.359275039555546e-07,6.482171916168582e-07
1669909873928127227,18515,1669909873736802682,,-1.0549783952600609,-3.4446542818054384,1.0402705493414395,-0.019000015934211873,0.0020000403776275605,-0.008000023497455298,0.0,0.0,0.0,0.00499131723825208,-0.005496277064317212,0.16408884143631397,-5.780318333868301e-07,1.3471249526394258e-07,6.483064586276818e-07
1669909874051754900,18516,1669909873893409927,,-1.0586448283589547,-3.4457830151729962,1.0397423289509633,-0.021000015719437288,4.0816926016179504e-08,-0.009000023180737013,0.0,0.0,0.0,0.003694959370514894,-0.013497311002907963,0.16436332999834846,-5.782088886824343e-07,1.3364129721758888e-07,6.484195531811349e-07
1669909874186088671,18517,1669909874035770632,,-1.0602315484206852,-3.44687831279371,1.0402526744631089,-0.018000015467473707,-0.0019999586380237107,-0.007000022809177811,-3.76519212570215e-309,1.1529239465358e-310,-8.02317412765e-312,0.002970740516735404,-0.020317836411372525,0.16475668207758964,-5.783475567158325e-07,1.3264629612700287e-07,6.485441517550046e-07
1669909874590034917,18518,1669909874175254948,,-1.0625879490957821,-3.4479582885451125,1.0399324606132418,-0.018000015196248453,-0.002999958014509261,-0.0050000224092143055,0.0,0.0,1.1753164379869556e-122,0.003277670376158781,-0.025038648842777178,0.16523586253978806,-5.782460032969848e-07,1.32181980523914e-07,6.48665916043484e-07
1669909874657333580,18519,1669909874370546962,,-1.0644976409036928,-3.44977519738088,1.0399793850773154,-0.015000014990394822,-0.0049999574513324,-0.0020000221056513524,1.9453625515369138e-144,5.503544786535771e-145,1.0671507365890463e-144,0.004734514451799399,-0.028176607979547796,0.16630535581898265,-5.780425630323489e-07,1.3227501309019067e-07,6.489434496502721e-07
1669909874690840609,18520,1669909874520224543,,-1.0654294522867296,-3.4506981801972985,1.040152623894799,-0.012000014817206426,-0.004999956820817695,0.0029999781497416756,0.0,0.0,0.0,0.005405538081337369,-0.026458154997978767,0.16713989809330876,-5.781789602036542e-07,1.3294824830947514e-07,6.491051435047272e-07
1669909874732789361,18521,1669909874647914593,,-1.0668426520866805,-3.451586283538338,1.0399342109070584,-0.012000014817206426,-0.004999956820817695,0.0029999781497416756,-9.410980111688148e-145,-2.9114697736252872e-142,-1.1564081142246708e-144,0.005191296726367867,-0.023290058610648146,0.16774035579029167,-5.782559394844521e-07,1.3370500449010526e-07,6.492296442561379e-07
1669909874972049293,18522,1669909874723616639,,-1.0660052617029216,-3.4513776172703685,1.040399796359623,-0.00800001482361262,-0.0039999564743540515,0.007999978140294753,0.0,0.0,0.0,0.005577723291462888,-0.0203154803127763,0.16815043820020392,-5.781226745782355e-07,1.3425713410044637e-07,6.492954386214187e-07
1669909875052860334,18523,1669909874896314503,,-1.0657098334274238,-3.453019138101678,1.0403313729253885,-0.005000014931689651,-0.005999956366685473,0.009999977980918487,-4.522008439099383e-156,3.078273212860009e-157,1.6683534423878456e-157,0.008206846446512372,-0.011303113172939305,0.1691067774777686,-5.775496995291063e-07,1.3596154111325867e-07,6.494646387560713e-07
1669909875178368278,18524,1669909875026851625,,-1.0643419711917625,-3.454064665957909,1.040711228171165,-0.0010000150527898896,-0.006999956517362088,0.010999977802337491,-2.1822349742487183e-79,-4.2653732878310697e-78,0.0,0.009865699504558734,-0.00760045930130282,0.16933017685414242,-5.772366900571079e-07,1.3655315352954217e-07,6.494794549900733e-07
1669909875380219610,18525,1669909875169979368,,-1.0637083570398107,-3.455911444166648,1.0400534400872243,-1.516340231199141e-08,-0.008999956811755366,0.009999977639222397,-2.7685362241071753e-79,-1.5840879104920726e-79,-4.980963255151666e-81,0.015085286580671209,0.00522519708446012,0.1699370621185743,-5.766212454546795e-07,1.386666072238525e-07,6.496446180894733e-07
1669909875657049883,18526,1669909875353626495,,-1.0634905914727018,-3.457097880400356,1.0398689158888248,-1.542210025977683e-08,-0.007999957255933297,0.011999977257732336,7.774277685659294e-67,5.820453838170778e-66,1.184169496491113e-64,0.017768246876869398,0.014481852789272054,0.1709503983690972,-5.764385516079057e-07,1.4003007881984479e-07,6.498669705697742e-07
1669909875709542110,18527,1669909875519701589,,-1.0638128889567555,-3.4580183833387523,1.0406261052448988,-0.0010000158088438208,-0.006999957822956561,0.01099997668741925,0.0,0.0,2.0424459026647034e-274,0.018984795010924316,0.022799208445539065,0.17215595939918416,-5.765552752674463e-07,1.4118143528366658e-07,6.500806262190572e-07
1669909875867831466,18528,1669909875703240167,,-1.0649147585188163,-3.4584996261123067,1.0502290414185782,-0.0030000162954270794,-0.004999958589591797,0.00899997596987712,-9.74313903185653e-231,1.8417681315481718e-231,-4.313105052798858e-233,0.018687867850246676,0.02772861158933182,0.17273221935945848,-5.767931213539452e-07,1.4179651140442245e-07,6.501383666075769e-07
1669909876030329809,18529,1669909875861634974,,-1.0658107527827294,-3.4581305276812477,1.0499723174371312,-0.004000016849383463,-0.0019999597680283787,0.006999975152982911,0.0,0.0,0.0,0.016795316925936277,0.03271843823915965,0.1728504006029823,-5.773505501866332e-07,1.4222516513273158e-07,6.501410496592057e-07
1669909876050689299,18530,1669909876003695308,,-1.0662863121352335,-3.45851820646898,1.0508011566018758,-0.004000016849383463,-0.0019999597680283787,0.006999975152982911,-1.3892242184281734e-163,4.341325682588042e-165,-2.2227587494850775e-162,0.014467112690459416,0.03331932028643436,0.17302099335598164,-5.779268500297208e-07,1.4200695076042082e-07,6.502648539365506e-07
1669909876159054970,18531,1669909876044911042,,-1.0672516023960683,-3.458753820705631,1.0506400835563798,-0.006000016947738133,-0.0019999602534646966,0.0039999750079437665,4.69330847473321e-156,-1.0816030747813347e-155,-1.0005474947196246e-155,0.013869737207125254,0.033102180326814334,0.17308682103888273,-5.780605425379326e-07,1.418752184234215e-07,6.502914854863815e-07
1669909876207495186,18532,1669909876154087411,,-1.0678439466281555,-3.4590848230956146,1.049982683111111,-0.006000016947738133,-0.0019999602534646966,0.0039999750079437665,7.213387817052363e-79,1.47016331962986e-79,6.491081797771511e-79,0.011568655660520122,0.03133333546922579,0.17348521175339293,-5.785384212236045e-07,1.4133130321732073e-07,6.504412758776188e-07
1669909876320215960,18533,1669909876200553977,,-1.0696852783446826,-3.4587513702724215,1.0500988987678714,-0.01000001691982201,3.930955484862307e-08,0.001999975049110396,-7.512072126372375e-217,-7.176806699942229e-219,9.922086220278881e-217,0.010470898448920352,0.029872173152927672,0.1738001223299186,-5.787199370270612e-07,1.4099010996602336e-07,6.505361037393864e-07
1669909876664849269,18534,1669909876314423327,,-1.0719269181464337,-3.459132803853959,1.0499592857542241,-0.013000016819272868,3.920860410530816e-08,-0.0010000248026143664,0.0,0.0,0.0,0.008176806139418957,0.02578911617674251,0.17458925975160966,-5.791415851283456e-07,1.401119131226963e-07,6.507261489656028e-07
1669909876714523549,18535,1669909876427952278,,-1.0733827670877707,-3.45938903051541,1.049954183494503,-0.013000016819272868,3.920860410530816e-08,-0.0010000248026143664,0.0,0.0,0.0,0.00588717720370191,0.02059925651886907,0.17544853194215726,-5.795870329320305e-07,1.3908148035560613e-07,6.509125474603963e-07
1669909876714595570,18536,1669909876469467642,,-1.073914982417712,-3.459483070789627,1.0499936018026177,-0.013000016819272868,3.920860410530816e-08,-0.0010000248026143664,0.0,0.0,0.0,0.004901590611400053,0.018013412206702384,0.17583146226457735,-5.797700946248907e-07,1.385899110457785e-07,6.509960179105639e-07
1669909876727877500,18537,1669909876506495954,,-1.075091489713879,-3.4605143626670016,1.0498238120356043,-0.015000016575749044,-0.0019999607367438763,-0.004000024443500894,2.599361973371766e-143,1.4082782299259125e-144,8.18886865704699e-141,0.004694969821288808,0.017426209554219696,0.17591463950798314,-5.797812520371447e-07,1.3850866604200534e-07,6.510051669794862e-07
1669909876822936649,18538,1669909876685212932,,-1.0784202959562927,-3.4618689835637997,1.049884906866292,-0.016999805621905752,-0.0029998550518445695,-0.00699970802280934,7.324228542045629e-145,-1.8358582059244068e-143,7.707358198515174e-141,0.0012253419713079694,0.005470605114110683,0.17735137456932648,-5.80396434107595e-07,1.3653148409738507e-07,6.512827449421028e-07
1669909877064701778,18539,1669909876819162846,,-1.0806616844682395,-3.4622883020866944,1.0496768485754808,-0.017000015813652493,-0.0019999597997640266,-0.007000023319671876,0.0,0.0,0.0,-0.0007368872794906167,-0.0030749748374301333,0.17834937165673814,-5.806701008628718e-07,1.351334844739611e-07,6.514955407266993e-07
1669909877101569415,18540,1669909876983423165,,-1.0839182806108838,-3.4644253524653545,1.0494210902594385,-0.019000015429259866,-0.004999959124028157,-0.009000022752825607,-2.365799201656443e-145,9.745393416309916e-146,-2.9869207647255814e-142,-0.0017339826123592417,-0.014041984535822394,0.1796927145392555,-5.807062851792936e-07,1.3354362743743282e-07,6.517436572655732e-07
1669909877140794278,18541,1669909877099272571,,-1.0859642946307366,-3.4653877664367885,1.0490245300708896,-0.019000015429259866,-0.004999959124028157,-0.009000022752825607,0.0,0.0,0.0,-0.0010662765375855088,-0.019667505599031188,0.18044906015683537,-5.804864798237279e-07,1.3276203851497024e-07,6.518992886460613e-07
1669909877259452996,18542,1669909877133540436,,-1.0872815434460175,-3.4662060951805973,1.0487001720622817,-0.02100001509892554,-0.0059999584344341775,-0.009000022265696652,-6.49220888288358e-79,-2.2978294506310983e-79,-1.3035706337738661e-78,-0.0008545835818978276,-0.020610916076629238,0.1805719909774801,-5.8042616697388e-07,1.3268735370986894e-07,6.519099855040443e-07
1669909877359252690,18543,1669909877253097019,,-1.0873071810126806,-3.4676889560087707,1.050261963352982,-0.015000014791267727,-0.00799995771869902,-0.00700002181200771,-2.9615184368247186e-79,1.1896671038574011e-79,4.328705355479975e-78,0.0004513270356767407,-0.025308515175243684,0.18115126103548462,-5.802336966575604e-07,1.3200565604849986e-07,6.520316149216394e-07
1669909877411452562,18544,1669909877353900875,,-1.0886308475390465,-3.46875063864086,1.0502854261977221,-0.015000014791267727,-0.00799995771869902,-0.00700002181200771,2.553570259060554e-44,1.0300014028283599e-45,9.32932755928261e-43,0.001242078928811452,-0.027745403612721375,0.18146638156586192,-5.801608509469523e-07,1.3184784224619477e-07,6.520765289294135e-07
1669909877915407682,18545,1669909877396490592,,-1.0888800581706881,-3.4691423793877876,1.0499697799547734,-0.014000014580389027,-0.007999956823215104,-0.0060000215010345085,0.0,0.0,0.0,0.00162913015515187,-0.028804433627623638,0.18160295433587237,-5.801424158411736e-07,1.3171554249840085e-07,6.520997254289719e-07
1669909877986827466,18546,1669909877506674492,,-1.0902182073692117,-3.4702827148627446,1.0498284514623912,-0.014000014580389027,-0.007999956823215104,-0.0060000215010345085,-1.4418278230313534e-143,8.145671663283882e-144,3.3886621380628274e-144,0.002666759123203022,-0.03075426222709865,0.18179955255571834,-5.801422487175676e-07,1.3177521043621302e-07,6.520917822913898e-07
1669909877986870328,18547,1669909877562716565,,-1.0892873473984963,-3.469417988141786,1.050062261782247,-0.009000014572697793,-0.004999956441633619,-0.002000021489692595,1.4113724304194403e-232,3.173466222376108e-232,-3.73947972635231e-235,0.003185779126317456,-0.031225751282459413,0.18174229934093944,-5.800905868778107e-07,1.318961163162452e-07,6.520838308145053e-07
1669909877986964601,18548,1669909877671516530,,-1.0901451422645858,-3.4701276402104986,1.0500556592602972,-0.009000014572697793,-0.004999956441633619,-0.002000021489692595,0.0,0.0,0.0,0.003587984162018998,-0.03056746130998178,0.18145521330869308,-5.800592010765485e-07,1.321901122085968e-07,6.520312599077352e-07
1669909878464353928,18549,1669909877721357649,,-1.0893280780302008,-3.4695269017861463,1.0500223047862787,-0.005000014642819289,-0.002999955942060745,0.000999978406902431,0.0,0.0,0.0,0.0037993865096570545,-0.0298088658299811,0.18124248022582812,-5.800492869343402e-07,1.324530206546381e-07,6.519798277209532e-07
1669909878464394412,18550,1669909877814896630,,-1.0897399892988786,-3.4698877917716886,1.0500753878129523,-0.005000014642819289,-0.002999955942060745,0.000999978406902431,0.0,0.0,0.0,0.004411449226058295,-0.02525126192585425,0.18010666085557148,-5.800884889704585e-07,1.3359419032593206e-07,6.517388992495818e-07
1669909878465003322,18551,1669909877855110206,,-1.088074145319431,-3.4693755479837463,1.0497474394790172,0.0009999852719257572,-0.001999955818459462,0.005999978281180839,-1.2047541644434605e-283,-4.871336635503215e-287,-1.6440915033520136e-281,0.004477313691348073,-0.0242229459774137,0.17985500572629753,-5.801286890335871e-07,1.3390219022352173e-07,6.516852928009068e-07
1669909878503439158,18552,1669909877972600583,,-1.0879321374125284,-3.4695916909059665,1.049873895600689,0.0009999852719257572,-0.001999955818459462,0.005999978281180839,0.0,0.0,0.0,0.004152700663389908,-0.0177832987276485,0.17827046742566743,-5.803184231330553e-07,1.350179565220524e-07,6.514337032007193e-07
1669909878503639171,18553,1669909878066031077,,-1.0861265636450979,-3.4682688865041307,1.0497490422298832,0.00599998515509833,0.0010000441030437743,0.008999978108900764,0.0,0.0,0.0,0.003615576246811969,-0.0103435122120068,0.17638264005999282,-5.804949361302829e-07,1.3662893563272043e-07,6.510355950301311e-07
1669909878503775375,18554,1669909878202893246,,-1.0853508532035625,-3.4679965261875925,1.0501727261315783,0.00599998515509833,0.0010000441030437743,0.008999978108900764,1.419171765920783e-107,1.0747558246847775e-106,3.424774298867186e-104,0.003282229206195808,-6.699244045194064e-05,0.17359185918376596,-5.805464882177156e-07,1.383728379369019e-07,6.506001907788208e-07
1669909879029986979,18555,1669909878271534387,,-1.083692532978733,-3.468050212322475,1.0498968526945947,0.008999984921663179,4.3599586393473704e-08,0.010999977764664593,-3.90254102624714e-66,-7.275962728262064e-66,4.873211550603708e-64,0.003320329299505431,0.0064310497328481375,0.1717679184101737,-5.805404514301101e-07,1.3967203427691243e-07,6.502435782585981e-07
1669909879066035728,18556,1669909878439790017,,-1.0813460011168705,-3.46717760812527,1.0505698190754056,0.010999984799687,0.0010000431201256886,0.01099997758479189,0.0,0.0,0.0,0.003670293607402897,0.015159296714198689,0.1691491704568815,-5.804898393603267e-07,1.4104367809771388e-07,6.498176983229548e-07
1669909879066038687,18557,1669909878604569905,,-1.0791545530185516,-3.466161785779618,1.0500201302976366,0.011999984646489338,0.002000042326220795,0.010999977358878284,-7.061094202962268e-308,1.14191527432854e-309,-1.83786420180951e-309,0.004809794963289704,0.02708926492519481,0.16460461222570189,-5.802800880001253e-07,1.4264376432817395e-07,6.490926643415083e-07
1669909879066111319,18558,1669909878763170855,,-1.0782721874367431,-3.4652466922370344,1.0504278340579136,0.009999984382068141,0.0030000411834997316,0.006999976968948409,1.228551629943301e-237,1.5356895374291261e-238,7.862730431637126e-236,0.006160223097445794,0.03572464960076083,0.1603029290412099,-5.801581070055941e-07,1.4361317535680043e-07,6.485635297962154e-07
1669909879532461452,18559,1669909878896750474,,-1.077281985607173,-3.4655646970255196,1.0501987247005435,0.008999984141709598,0.001000040213515414,0.00599997661450263,0.0,0.0,0.0,0.0068792798134005295,0.04211441610647526,0.15657078915430667,-5.802142414727235e-07,1.442628419405793e-07,6.481762081580391e-07
1669909879532465103,18560,1669909879038797229,,-1.0768075095344263,-3.4657786192020446,1.0502388470380077,0.006999983945153715,3.947091105674886e-08,0.003999976324650639,9.264937698749914e-143,1.0337743990956534e-144,6.032227332174764e-142,0.006973446484817458,0.04403643107656485,0.1548428068790937,-5.802575697423205e-07,1.442620049694844e-07,6.479958785386421e-07
1669909879532518888,18561,1669909879230727084,,-1.0773664032255095,-3.4658620157569873,1.0499959298923527,0.002999983740565134,3.872676237995627e-08,-2.397704680721337e-08,-3.9216976348817546e-79,2.7262123881194133e-78,6.747006683667535e-80,0.007128718295700054,0.04277803096435662,0.15189842659333763,-5.803326608815054e-07,1.4354711678404123e-07,6.475874495382896e-07
1669909879942662451,18562,1669909879422507781,,-1.0783670686525164,-3.466006991681563,1.0499455616991382,-1.637657034156744e-08,3.820094480348474e-08,-0.003000024149781149,-8.4124840655267735e-81,-5.31876057698329e-81,-7.388950394020384e-82,0.006382974888177628,0.036115147516865065,0.14887767080663217,-5.806533777268608e-07,1.4204612268540624e-07,6.471974898232991e-07
1669909879967887199,18563,1669909879587451449,,-1.078589205570102,-3.465032239924075,1.0501783363957906,-1.6388151048865062e-08,0.0020000379267867932,-0.00600002416685869,3.9336104717747685e-300,4.582482532443386e-300,4.2359228107480315e-299,0.005146977303166267,0.028485452850873116,0.14713886641715135,-5.809788979698316e-07,1.405950988825057e-07,6.47060245467214e-07
1669909879967982768,18564,1669909879732224982,,-1.0810638031521964,-3.4645701392573387,1.0494738282402125,-0.005000016220760913,0.0030000381952470416,-0.011000023920016092,2.950102187436877e-218,1.0643619217521537e-219,-1.8918094590274517e-218,0.0031624709582871446,0.014941300919174338,0.14571093555060344,-5.812957886272348e-07,1.3848755018294323e-07,6.470121191378404e-07
1669909879979928125,18565,1669909879899321452,,-1.0819854723380624,-3.4641932782821376,1.049980552958503,-0.005000016220760913,0.0030000381952470416,-0.011000023920016092,2.2881192176226235e-294,1.9563631906074524e-292,1.2197822684604014e-292,0.0023098279389870413,0.0036102442870760143,0.14534961122162926,-5.814295849989933e-07,1.3663617352094498e-07,6.470994929572469e-07
1669909880364327067,18566,1669909879981477607,,-1.083929396990336,-3.466595078960181,1.0491614929500674,-0.009000015996018896,-0.0019999613327259065,-0.010000023588599293,0.0,0.0,0.0,0.002146198055005044,-0.002617102788040171,0.14547515464713356,-5.814829278889558e-07,1.3527948913434486e-07,6.471982570292355e-07
1669909880378866633,18567,1669909880167236969,,-1.0853787841703708,-3.468134663752213,1.049405482771792,-0.009000015643574848,-0.003999866768554116,-0.010000023068866134,0.0,0.0,0.0,0.003065971213800367,-0.01398060621905195,0.14636168964504037,-5.811593936611065e-07,1.3374786763052967e-07,6.474719465070452e-07
1669909880562949184,18568,1669909880336200496,,-1.0885517542964336,-3.4702712134332097,1.0497697067530558,-0.013000015343168917,-0.0059999596919977465,-0.011000022625871212,0.0,0.0,0.0,0.0051996953213908625,-0.023771894301548357,0.1479566444828464,-5.809764460292665e-07,1.324762045130097e-07,6.478567618821082e-07
1669909880921564740,18569,1669909880558261287,,-1.0870257671738859,-3.4723764455576327,1.050103734295545,-0.005000014980713934,-0.007999958009828723,-0.007000022091375387,-5.1247904871554e-310,-5.2508747987314e-311,-2.6630087642499e-310,0.007007960398469848,-0.03256384904407028,0.15097510006616588,-5.806997959073752e-07,1.3183613812493774e-07,6.484737041458613e-07
1669909880952838612,18570,1669909880724521906,,-1.087929758922266,-3.4747240894470477,1.0496919643832054,-0.0060000149902022775,-0.009999957360779773,-0.005000022105367414,-2.427818337422079e-78,-1.562525631436174e-78,-1.0003851995919241e-78,0.013215345870808193,-0.03206637172490012,0.15362324738298838,-5.791526484577192e-07,1.3264584739482266e-07,6.489736772002683e-07
1669909881026330283,18571,1669909880851691884,,-1.0856447923649615,-3.479406168576682,1.0499271735390836,-1.4996475039205774e-08,-0.01899995684499678,0.0069999778853824315,0.0,0.0,0.0,0.02117173479305201,-0.02715046416722977,0.15585764976729166,-5.776996642425953e-07,1.340273579686414e-07,6.49327206735562e-07
1669909881142031200,18572,1669909881001191228,,-1.0816605893909463,-3.4817264568336133,1.0511046782735238,0.008999984928473042,-0.018999956457108537,0.01299997777470679,0.0,0.0,0.0,0.029456438319927614,-0.018446510944659877,0.15805129250542116,-5.767953626205025e-07,1.3578775438274412e-07,6.496186307925061e-07
1669909881406262894,18573,1669909881139869886,,-1.0800307339610151,-3.4841904547386733,1.0497172463329973,0.008999984928473042,-0.018999956457108537,0.01299997777470679,0.0,0.0,0.0,0.03359948216949604,-0.007009644879218513,0.1603197899222195,-5.768249545579615e-07,1.3785705710864456e-07,6.499822224923274e-07
1669909881423667504,18574,1669909881217510600,,-1.0786676294383912,-3.4828808277675027,1.0507478981844642,0.010999984253711102,-0.012999956446261335,0.013999976779666141,7.005834603421255e-295,-5.856520270026179e-297,2.4194214850237317e-294,0.03367111646586274,-0.0031379206316923813,0.16106363300482052,-5.771185870885503e-07,1.3841254864463512e-07,6.500628097462152e-07
1669909881610289974,18575,1669909881430606050,,-1.0762819184370105,-3.482882046482371,1.0509162285795879,0.010999983412152331,-0.007999956942438506,0.013999975538657816,0.0,0.0,0.0,0.029095264246590702,0.01056608980720597,0.16324218907005417,-5.785941291746197e-07,1.4043237362016756e-07,6.502900234919869e-07
1669909881936845814,18576,1669909881607540784,,-1.0764117240188305,-3.479116328601175,1.0503609464016268,0.006999982375727973,0.0030000415249404715,0.0089999740102901,0.0,0.0,0.0,0.02004272806923524,0.021507097899565508,0.16363020008063955,-5.803194664386402e-07,1.4174886602821358e-07,6.501484110285277e-07
1669909881949613261,18577,1669909881759570513,,-1.0754004807554312,-3.4785123459056178,1.0498616505977603,0.006999982375727973,0.0030000415249404715,0.0089999740102901,-5.87566543300081e-293,-3.4521186778020843e-293,1.0587498564822154e-271,0.01454682695877274,0.026178621298463156,0.16298994007307321,-5.812452929369924e-07,1.4235372187396918e-07,6.500046161147052e-07
1669909881962532572,18578,1669909881810152525,,-1.0747309820101976,-3.477804879649116,1.0502512060625928,0.007999982367958446,0.004000040779851813,0.006999973998832731,0.0,0.0,0.0,0.011775421765916505,0.028215117776404952,0.16249142969295605,-5.815678396619466e-07,1.4251316259101717e-07,6.499199171082618e-07
1669909882133137781,18579,1669909881958514599,,-1.0745512908074817,-3.47674217820807,1.0499782599374456,0.005999982653068059,0.005000040092047598,0.00499997441927087,4.030091252025512e-65,1.7783992650178665e-66,-7.191861128831363e-64,0.005393005409331408,0.03213938729280841,0.16089285438751588,-5.823402421931797e-07,1.4278087020734942e-07,6.496732396760819e-07
1669909882442763367,18580,1669909882129282296,,-1.0751630630958544,-3.477776929748469,1.050128669453581,0.001999983045069818,0.001000039575961671,0.0019999749973379794,0.0,0.0,0.0,0.0029346893107273786,0.03231468912465907,0.15895029815444062,-5.822880585485245e-07,1.4237914767702394e-07,6.494194388778927e-07
1669909882473072479,18581,1669909882314200877,,-1.0759645510696947,-3.4790487667382965,1.0498986155468069,-0.0010000163777647304,-0.001999960919054255,-0.0020000241515424604,-4.184035696358704e-223,4.11033414991266e-221,4.390727585529508e-221,0.003965549821625558,0.028377295363348765,0.15704161042654619,-5.819616840780114e-07,1.413700743624643e-07,6.491904834536111e-07
1669909882642400120,18582,1669909882479158550,,-1.077328914875184,-3.480513194875292,1.0498241635644332,-0.004000016044033779,-0.003999961083434289,-0.005000023659404652,-1.0552167849589208e-65,-1.4221611600520271e-67,-5.7556067560968235e-65,0.006046042333769819,0.021635379223528872,0.15554255080463264,-5.816844211419622e-07,1.3999320142903806e-07,6.490616456547562e-07
1669909883108962908,18583,1669909882631027853,,-1.079224675390033,-3.4814166580549593,1.0502872487632018,-0.0070000158978146,-0.003999961035677629,-0.0070000234437818986,1.9300376355091438e-217,8.281355156215716e-218,9.353640101795533e-219,0.007524854866883146,0.012383541931740183,0.15466506434403549,-5.816388936726304e-07,1.3823757061605593e-07,6.490639051980434e-07
1669909883138856406,18584,1669909882770571699,,-1.081522306574518,-3.4818768460791367,1.0499436962350395,-0.010000015869777423,-0.00299996083284534,-0.009000023402436753,4.046404057897789e-144,3.217169436985734e-144,-6.792377235176787e-142,0.007665191959977946,0.002826365049818591,0.15439345812017713,-5.818161587129374e-07,1.368584841624032e-07,6.491201706246581e-07
1669909883658022263,18585,1669909882956195591,,-1.0842984619457756,-3.482369132789562,1.050069323992658,-0.012000015879201586,-0.001999960399639884,-0.010000023416334136,0.0,0.0,0.0,0.006906039617600612,-0.011939989310882027,0.15411824098144677,-5.821187458027353e-07,1.3439912776783407e-07,6.491933680198365e-07
1669909883668838969,18586,1669909883126200018,,-1.0866552387197224,-3.4835716362293248,1.0492915145427506,-0.012999971713656314,-0.0029999157147664996,-0.010999979223362035,0.0,0.0,0.0,0.006776395226360421,-0.020339868920251192,0.15423850786679338,-5.821090661367828e-07,1.3323621588016083e-07,6.493030818034865e-07
1669909883668891117,18587,1669909883295102411,,-1.0875232446619796,-3.485269878278344,1.0497041789984067,-0.011000015655887865,-0.004999959099147323,-0.009000023087023582,0.0,0.0,0.0,0.006600881906006606,-0.030341595919491482,0.15496576382131622,-5.824538570654463e-07,1.3237070628811416e-07,6.495329887122363e-07
1669909883726860605,18588,1669909883512234067,,-1.0881804554838048,-3.4859239156943502,1.0497896862185587,-0.008000015351004836,-0.003999958077607145,-0.004000022637426484,8.487983164e-314,-2.121995791e-314,-1.086461844974e-311,0.004229714439095034,-0.032511241638093935,0.155777268861911,-5.828838073443102e-07,1.3261450892957704e-07,6.497256563287594e-07
1669909884022131562,18589,1669909883727328318,,-1.086867099234864,-3.4850602490887757,1.0502265291137551,-0.002000015127175763,-0.001999956797797659,0.0019999776926440363,1.127567423032315e-79,6.68685505792609e-81,8.24490871988426e-80,0.0035537501623750245,-0.03134798131756433,0.15643100551496758,-5.82936635907716e-07,1.3311580636163002e-07,6.49871911692619e-07
1669909884114265369,18590,1669909883960854127,,-1.0864863924413195,-3.4856290119547477,1.0499620159269967,-1.4931404009478057e-08,-0.00199995645683008,0.003999977981339709,-8.527140212231427e-79,-2.8238716652297783e-79,-2.496717309105014e-80,0.0032412757848057083,-0.02655110649941861,0.15662941340812964,-5.830820756747764e-07,1.342864820426199e-07,6.499012029114286e-07
1669909884202661115,18591,1669909884118865301,,-1.0864519540869666,-3.4859454550483195,1.0501849322183632,-1.4931404009478106e-08,-0.00199995645683008,0.003999977981339709,3.5880948611853445e-155,5.464454967066724e-158,-2.4826973989134017e-157,0.003057689840385791,-0.01812630715648922,0.15651146527107151,-5.83197497605467e-07,1.35927315494267e-07,6.499258252166206e-07
1669909884536941185,18592,1669909884193769247,,-1.0855115589714863,-3.485952779354041,1.0501704003134726,0.001999985082115341,-0.001999956481167943,0.0059999780012760795,-3.368807169182925e-218,-1.542814683955561e-219,-2.199255559478497e-218,0.003038588677764409,-0.017526797414983974,0.15650074911454226,-5.832200438947323e-07,1.360940706441565e-07,6.499268312619278e-07
1669909884553256356,18593,1669909884332256335,,-1.083496443210533,-3.485921749496511,1.0496274159335348,0.005999985012825152,-0.0019999566865936463,0.008999977899096998,-9.786834696590692e-299,-1.3661450075267048e-297,-7.571261182999632e-295,0.0028332320630664043,-0.00829642650239748,0.15629811277410433,-5.833123037190627e-07,1.3765552957293193e-07,6.499329530991773e-07
1669909884751253552,18594,1669909884499496184,,-1.0806633173685574,-3.4858180958013505,1.050317598377429,0.009999984905773942,-0.0019999570359853242,0.008999977741233465,-5.443093325935867e-80,7.995063314884906e-81,-8.682558134203501e-80,0.002782657292948798,-6.307360800583695e-05,0.15608718549246348,-5.83380810005828e-07,1.3864477298627707e-07,6.499520980224427e-07
1669909885073114939,18595,1669909884753505574,,-1.0798401146712489,-3.4853776522627,1.0498581616461216,0.006999984633753517,4.188708346061081e-08,0.006999977340097351,-5.965925306049191e-218,-2.372336058724018e-218,-4.118754504214378e-220,0.0018241983622093727,0.012157175950218146,0.1557310001440495,-5.837558872146361e-07,1.4068743269843274e-07,6.499831689991328e-07
1669909885084873706,18596,1669909884917515517,,-1.0782717265859227,-3.485133201239811,1.0506208665888137,0.007999984513054946,4.1335246303239335e-08,0.006999977162108675,0.0,0.0,0.0,0.0006828322016581012,0.020637556507487886,0.15542746868944235,-5.839913728681858e-07,1.4174195378589574e-07,6.500026763431163e-07
1669909885228354716,18597,1669909885078995487,,-1.077044897477394,-3.4845013583043847,1.0499867275023238,0.007999984412146978,0.00100004078446782,0.0059999770133043,-2.62950262991745e-44,-3.91452786851271e-46,-1.1420188750540285e-42,0.0003025565045806644,0.023310030585872,0.1553514000631253,-5.840979327486643e-07,1.4215732699001154e-07,6.500377974023226e-07
1669909885452573881,18598,1669909885227655865,,-1.07668697338934,-3.4847323594860287,1.0501981594105934,0.00599998436080448,4.0289588643625807e-08,0.00299997693759186,0.0,0.0,0.0,-6.219172251142879e-05,0.0263534329645303,0.1555384333550105,-5.84188015231376e-07,1.4227066666356278e-07,6.501969214263367e-07
1669909885548755694,18599,1669909885413185758,,-1.077303603385278,-3.484828622022808,1.0499979328586684,0.001999984318438572,3.971050767650604e-08,-2.3124883211448116e-08,-3.02546243347603e-123,2.3636425261531484e-125,6.05092486695206e-123,9.148638515377172e-05,0.025545659683992028,0.1563682124955328,-5.842112716583469e-07,1.4177129068741665e-07,6.504595324377257e-07
1669909885688994243,18600,1669909885555628990,,-1.0787282906190572,-3.485052497796301,1.05008123675297,-0.0020000156872707776,3.944128543123664e-08,-0.00400002313330253,-1.0118048851813894e-155,1.9681877233956552e-156,-9.953853453323766e-156,0.0006968298262641781,0.0208804066239896,0.15783139580196703,-5.841802942051458e-07,1.406932478653748e-07,6.508138450312306e-07
1669909885827819966,18601,1669909885690325407,,-1.080170770243786,-3.4856908832502835,1.0499177693898862,-0.0050000156704545435,-0.0009999606316469865,-0.007000023108504397,0.0,0.0,0.0,0.0012253133435216057,0.01592148989298714,0.15909290593846848,-5.841509940610436e-07,1.3972321325061107e-07,6.510943375264891e-07
1669909886198223104,18602,1669909885827627799,,-1.0819545480614734,-3.486511228760805,1.0489864204941486,-0.008000015626418793,-0.001999960495639912,-0.009000023043566884,0.0,0.0,0.0,0.001751526635999312,0.009359440039999,0.1606379501687467,-5.841414186960409e-07,1.3852727459053416e-07,6.51396931292426e-07
1669909886226728953,18603,1669909885971261549,,-1.083047739234697,-3.486978100424393,1.0497782150883572,-0.008000015626418793,-0.001999960495639912,-0.009000023043566884,0.0,0.0,0.0,0.0021143832136374385,-0.0028027153500627122,0.16308871766008437,-5.842288858801574e-07,1.3628932127937556e-07,6.518758992497313e-07
1669909886226804686,18604,1669909886056927771,,-1.0850992959437042,-3.487482853960031,1.0503390624441156,-0.011000015562915902,-0.0019999601433783633,-0.011000022949922068,-1.0483843272296405e-232,6.2354553439727664e-232,8.0439532092094615e-233,0.0021604780138169133,-0.008549544094437422,0.16407638609419095,-5.842540938911392e-07,1.3530075118333634e-07,6.520585735766176e-07
1669909886375504595,18605,1669909886234657434,,-1.088013744232439,-3.4878144094207233,1.049354647425418,-0.013000015469943399,-0.0009999596001043637,-0.011000022812819756,-1.8586192513897282e-78,8.822350117220964e-79,8.261752574850335e-79,0.0024207513897316346,-0.021138739268211637,0.1659983416076063,-5.84289432376983e-07,1.3368079513112304e-07,6.523635919248184e-07
1669909886708836382,18606,1669909886374852145,,-1.0901533905479526,-3.488807984688605,1.0500757049969907,-0.014000015327835215,-0.00199995887350016,-0.011000022603259302,2.143333123658554e-63,-6.176172510925389e-65,1.0452589715136448e-62,0.002871602344223234,-0.02924643386322856,0.1672245036158735,-5.842382857788488e-07,1.323664684770438e-07,6.526083203796405e-07
1669909886727894722,18607,1669909886517506456,,-1.0900134628074805,-3.488174660983007,1.0497381906726195,-0.009000015085079568,4.214398040096326e-08,-0.008000022245278626,4.558720634704502e-158,1.3080383207066828e-159,-1.0996963374259677e-156,0.0031672993390206017,-0.036309208953060335,0.16813265954009005,-5.843148419892724e-07,1.315172320361063e-07,6.527533344056952e-07
1669909886819892069,18608,1669909886658978954,,-1.0913117211135235,-3.4879521901526758,1.0502603869309872,-0.009000014933669446,0.0010000429035658025,-0.007000022022001025,0.0,0.0,0.0,0.003153454457555327,-0.041342921555695966,0.16861317169211176,-5.844348096916691e-07,1.310653948264552e-07,6.528193237722551e-07
1669909887424063661,18609,1669909886823877954,,-1.09197649634493,-3.487442336607872,1.049709541490548,-0.007000014823361847,0.0020000435718496566,-0.005000021859335443,-6.761986454681146e-81,4.8807603332629486e-82,-2.145338720706861e-81,0.0031808767032490692,-0.042841999383766094,0.16877066593265155,-5.844558695703392e-07,1.3161486661459217e-07,6.528314164888041e-07
1669909887424066551,18610,1669909886968286681,,-1.0913321141554195,-3.4870448580277498,1.0500029596780622,-0.0030000147453154618,0.0020000440924672863,-2.1744243998248734e-08,0.0,0.0,0.0,0.003125068705173817,-0.03908116995894062,0.16839071417058094,-5.846630661953029e-07,1.3282651423228556e-07,6.527527750783692e-07
1669909887733693916,18611,1669909887154165957,,-1.089284082548896,-3.4858410781186033,1.050340906556878,0.0029999853129841483,0.003000044482091785,0.004999978341727777,0.0,0.0,0.0,0.0025971623696126045,-0.03290213084432203,0.16746427816480036,-5.847957228225383e-07,1.3418687315549468e-07,6.525615793373438e-07
1669909887773629235,18612,1669909887333739059,,-1.0861585249554357,-3.483226077364069,1.050307633531333,0.00899998528017613,0.006000044634058701,0.007999978293347289,7.367019000441862e-80,-1.0387520988690059e-80,2.216546818959249e-80,0.002537790190812572,-0.0156056776488942,0.16451692579944144,-5.848288419810869e-07,1.3742412171314763e-07,6.520763192431678e-07
1669909887773631697,18613,1669909887534337626,,-1.0822787764828543,-3.4809921166150124,1.0511046543531102,0.012999984978647221,0.007000043673001688,0.009999977848696362,-5.667748107205395e-223,-2.0497087299444787e-223,2.63689693794681e-221,0.0032638867703322916,0.0034834150213818305,0.16122951992144152,-5.846951328531335e-07,1.4060956637880123e-07,6.516072393392387e-07
1669909887829159016,18614,1669909887711901741,,-1.0793333948264419,-3.479666060813906,1.0504906509440117,0.014999984751088477,0.006000042873563447,0.010999977513125864,0.0,0.0,0.0,0.004564777198563519,0.020086047018391895,0.15841343679243103,-5.845306157800203e-07,1.4351839355782638e-07,6.511540701112406e-07
1669909887882167628,18615,1669909887835928037,,-1.0775796752746865,-3.4786406991511165,1.050570970505558,0.014999984751088477,0.006000042873563447,0.010999977513125864,0.0,0.0,0.0,0.00526986575238908,0.02988480191383225,0.15660098291747637,-5.844737116492292e-07,1.451385706443132e-07,6.508464150833765e-07
1669909888269715497,18616,1669909887879654819,,-1.075510191326147,-3.47678735247857,1.0496717189557054,0.018999984498007477,0.009000041892138703,0.011999977139918861,0.0,0.0,0.0,0.005644637896811133,0.035853723882954824,0.15537863983988665,-5.844556999696887e-07,1.4601171801561236e-07,6.506533985351365e-07
1669909888279771550,18617,1669909888036511690,,-1.072370126709086,-3.4744523368105464,1.0503889508787942,0.019999984160381505,0.01000004078439655,0.010999976642037243,1.9769980163717405e-219,1.399346960316354e-219,-9.489549202529696e-221,0.006354954839888904,0.04968648171212031,0.15188255530562245,-5.844165619096898e-07,1.4769851075211155e-07,6.501713013016497e-07
1669909888392537949,18618,1669909888216015409,,-1.0698664288229294,-3.472724360798875,1.0500817165582363,0.01799998379647309,0.00900003961072013,0.0079999761053981,0.0,0.0,0.0,0.0072951206753550935,0.05984913941278869,0.1487648785507023,-5.842951185113686e-07,1.4894554049933528e-07,6.497921853527516e-07
1669909888803357762,18619,1669909888394258398,,-1.0692269386045923,-3.4719759968733803,1.040021203218317,0.012999983477721936,0.0070000384247907044,0.0019999756353503203,-3.9665454391132896e-219,-8.96252915275119e-217,-3.883848505649543e-220,0.00792465760669181,0.06418221505254706,0.1469562100580326,-5.843524262695806e-07,1.490062093714697e-07,6.497275433766903e-07
1669909888847974482,18620,1669909888536639507,,-1.069929880718071,-3.4715390614659576,1.0399164276312327,0.007999983239852328,0.006000037378650342,-0.0030000247154251414,-4.874816838575111e-232,-7.58681708426734e-233,-1.6903005783472607e-231,0.007825076953622556,0.06382396270651114,0.1465509543869441,-5.844727935859073e-07,1.4859265458572757e-07,6.497974440032343e-07
1669909888926234920,18621,1669909888759525576,,-1.0710822676152694,-3.4703400881300226,1.0396531144585954,0.002999983067897725,0.006000036577983092,-0.007000024968998747,-5.318492863666754e-159,-1.5554946501239095e-156,5.13218190081284e-156,0.006536839952087092,0.05461030773277997,0.1474410296191344,-5.849032471133217e-07,1.4629833299757467e-07,6.502772811839787e-07
1669909889253470156,18622,1669909888926557338,,-1.0745345059875302,-3.4712692819026953,1.0398707162309673,-0.005000016913734344,0.0030000362567531554,-0.014000024941912397,7.360085367376672e-108,1.9862635527814413e-108,1.6505214644044846e-106,0.005885403247804177,0.04480692668673747,0.1493408562941383,-5.850477010771983e-07,1.44444154326219e-07,6.507696107024419e-07
1669909889264654978,18623,1669909889075350447,,-1.0754211673294594,-3.4709403032133377,1.039146891826537,-0.005000016913734344,0.0030000362567531554,-0.014000024941912397,-4.725983837629433e-78,3.881131863412609e-79,2.585536974575593e-78,0.00574851555581013,0.03152654238111374,0.1523534086294429,-5.850748492341359e-07,1.4214492980197713e-07,6.514124967906319e-07
1669909889345244819,18624,1669909889178765531,,-1.0777851097092177,-3.472434463532165,1.039618989224675,-0.009000016749642861,3.6604365846130356e-08,-0.017000024699934172,-8.110563061762579e-66,-4.4116973915737164e-66,-8.090546475946235e-65,0.005954438790217509,0.024475686122874762,0.1541778899392625,-5.85131651984795e-07,1.412538178200762e-07,6.51740264565723e-07
1669909889502035556,18625,1669909889346651184,,-1.0812589506863133,-3.4734628773639393,1.0404218313107947,-0.013000016527249724,-0.0009999627357679822,-0.01800002437198116,3.8517974673799022e-295,2.8526618832219698e-294,4.583977189801778e-295,0.002597879501905709,0.011444848632987004,0.15803483553105302,-5.863850012063125e-07,1.3933236691495305e-07,6.52454997317599e-07
1669909889809532897,18626,1669909889501831781,,-1.0815834611087793,-3.471120004592387,1.0395118124405578,-0.009000016280545796,0.004000038164474045,-0.013000024008178132,0.0,0.0,0.0,-0.002089631680391335,0.001721284587496541,0.16128863024651174,-5.869863065311256e-07,1.3796059142186942e-07,6.529716337410442e-07
1669909889843785516,18627,1669909889682925297,,-1.0829245010147486,-3.4695287620008513,1.0398035042198694,-0.008000016085054802,0.006000039137043369,-0.010000023719896481,-2.846693353777589e-144,-1.0615023939460533e-144,7.5252381725110835e-143,-0.004928356052147365,-0.011318986502399042,0.16557605303884415,-5.871298499944332e-07,1.3608554357748488e-07,6.536714100813949e-07
1669909889997410089,18628,1669909889846676586,,-1.0843543819876618,-3.471906549990938,1.0402322342549406,-0.009000015689257203,4.0315778602681575e-08,-0.013000023136231822,0.0,0.0,0.0,-0.0031417935742670267,-0.02315580885516333,0.1689300154898472,-5.864714643462933e-07,1.3418201213338217e-07,6.541875673229616e-07
1669909890298926588,18629,1669909889974410276,,-1.0852094498070353,-3.4737403619326375,1.039861403550842,-0.010000014770346483,-0.00399995794114771,-0.013000021781156102,4.601153255463727e-65,-1.884608056942165e-65,4.41373950422969e-63,-0.0005540127307313014,-0.03000949497818617,0.17053494775715805,-5.859488760688902e-07,1.3318931136395704e-07,6.544179461815383e-07
1669909890309055309,18630,1669909890100643383,,-1.0863123760640163,-3.4744416381254983,1.0395043059255968,-0.010000014770346483,-0.00399995794114771,-0.013000021781156102,9.006175109399561e-219,-1.1943713802020881e-220,-9.191210616514275e-218,0.0043799969423847784,-0.0401657184392441,0.1726558740336106,-5.851221871331983e-07,1.3177935505898224e-07,6.547716327660654e-07
1669909890309058561,18631,1669909890182909988,,-1.0878206167663032,-3.4750315579229376,1.0397612482854457,-0.012000014598284463,-0.0039999571048612275,-0.012000021527424092,0.0,0.0,0.0,0.00717078748449218,-0.04455512010207485,0.17359098417280805,-5.846349481599143e-07,1.31274268068746e-07,6.549256654884031e-07
1669909890446877624,18632,1669909890299953911,,-1.0889765436207213,-3.476443183515696,1.03965196442082,-0.012000014609790919,-0.005999956379775623,-0.00900002154439214,0.0,0.0,0.0,0.011268301164140127,-0.04897997618892802,0.17460751067699043,-5.840495908943179e-07,1.3103592847792456e-07,6.55053837315267e-07
1669909890499705261,18633,1669909890423202115,,-1.0902492283678626,-3.477403414187747,1.0394215245765008,-0.012000014609790919,-0.005999956379775623,-0.00900002154439214,0.0,0.0,0.0,0.016220487458966204,-0.052531480535753516,0.17559539016296632,-5.834791875963186e-07,1.308737484622945e-07,6.551997716404597e-07
1669909890826823818,18634,1669909890498128356,,-1.0884101752871829,-3.4767083797239606,1.0395359492314682,-0.005000305563145921,-0.004000038707706703,-0.004000229495539232,4.351275224564444e-68,-2.690011806760347e-68,-4.1495561238345223e-67,0.017716955965850545,-0.053155762213849655,0.17583946851200416,-5.834178689298087e-07,1.3097896788973255e-07,6.552124126405785e-07
1669909890854207753,18635,1669909890657058432,,-1.0881793999230527,-3.475613663450367,1.0400004978879949,-0.0020000150583133793,4.50147972915968e-08,-2.220580774814286e-08,0.0,0.0,0.0,0.020815535074403257,-0.050666279890675625,0.17575504843715706,-5.834171030759803e-07,1.3220497687543277e-07,6.550991276433218e-07
1669909891000246828,18636,1669909890860342100,,-1.0867864582078592,-3.4730024151543573,1.0399785457828314,0.0029999845741681052,0.0050000453751966505,0.005999977252229464,2.4209600216104535e-64,1.8649777538448417e-65,8.436285919553316e-64,0.02064809191473671,-0.042328760782524455,0.17427258323542816,-5.8384984158692e-07,1.341244836235707e-07,6.547312717053185e-07
1669909891345738713,18637,1669909891002503799,,-1.0838861861254918,-3.4705279948173473,1.0406049036288594,0.009999984134134068,0.008000045449598892,0.010999976603331343,0.0,0.0,0.0,0.018161463541215284,-0.031482558780837167,0.1719962806248585,-5.845753948899613e-07,1.362433887301558e-07,6.54281277188393e-07
1669909891359608239,18638,1669909891159670624,,-1.0811492185230696,-3.467507866666939,1.0412035291507193,0.013999817326209477,0.010999920253153958,0.013999851336383044,0.0,0.0,0.0,0.014311452593466,-0.01698308816398253,0.16849647151117253,-5.853279535420605e-07,1.3885057212662074e-07,6.536222600513278e-07
1669909891563195481,18639,1669909891363424869,,-1.0775491480454154,-3.463190326971763,1.0400148059498706,0.01699998373856364,0.01400004457658951,0.015999976020001683,0.0,0.0,0.0,0.009830219689295205,0.0024238732491994597,0.16320969053853673,-5.861308504927907e-07,1.4222169069870483e-07,6.527001033770221e-07
1669909891878931033,18640,1669909891542461835,,-1.0733032971705965,-3.460515764533208,1.039430680583494,0.019999983681871277,0.013000043720207553,0.01799997593640004,0.0,0.0,0.0,0.006116299502542333,0.021324528370303852,0.15773083198228122,-5.866788283794823e-07,1.4509108451768343e-07,6.519104839080939e-07
1669909891899469219,18641,1669909891731782979,,-1.0699700273687514,-3.4577757944399345,1.0392911267091458,0.019999983645488696,0.012000041539645566,0.01699997588274831,-4.240503030131829e-126,-1.9483411979048008e-127,-2.0204459517970387e-126,0.004528376644577392,0.03340249369563075,0.1542097899481476,-5.867779307620564e-07,1.4653716214017232e-07,6.515217082588005e-07
1669909892020229178,18642,1669909891904041718,,-1.0667637924830695,-3.4552067514416533,1.0406368281851055,0.019999983645488696,0.012000041539645566,0.01699997588274831,0.0,0.0,0.0,0.004252462266336465,0.04938205343032109,0.1491305839559942,-5.865959277230826e-07,1.4822191164994748e-07,6.509916372683745e-07
