%time,field.header.seq,field.header.stamp,field.header.frame_id,field.position.x,field.position.y,field.position.z,field.velocity.x,field.velocity.y,field.velocity.z,field.acceleration.x,field.acceleration.y,field.acceleration.z,field.orientation.x,field.orientation.y,field.orientation.z,field.angular_velocity.x,field.angular_velocity.y,field.angular_velocity.z
1669909208877428140,11387,1669909203330211715,,-4.25685563704788,-4.245930572036986,0.5301471255926178,-0.002000008553102746,0.00400003097659016,-0.005000012612870409,-3.331824369905734e-156,-4.238875235481827e-156,-3.8529983368353294e-157,0.011848180840532407,-0.0008703374353551396,0.4171634462210747,-3.0633190707895665e-07,7.316105631694962e-08,3.988968507340373e-07
1669909208877451040,11388,1669909203449668236,,-4.257270049935698,-4.245583809629663,0.5299628888165941,-0.002000008553102746,0.00400003097659016,-0.005000012612870409,1.0483039790537606e-155,1.849003688668798e-156,1.3796790169053313e-157,0.012079938801264234,-0.0006837918117170716,0.4167032098763759,-3.063431772351596e-07,7.321538411699277e-08,3.988651515554604e-07
1669909208877456885,11389,1669909203489394604,,-4.257407867667684,-4.245468455623575,0.5297661109718705,-0.002000008553102746,0.00400003097659016,-0.005000012612870409,-1.4230854073292991e-221,3.3970249864309897e-221,1.1122828099237123e-220,0.012226885731962511,-0.0005583430495068598,0.4163736581573332,-3.0634026898956424e-07,7.324998450425092e-08,3.9883257421602453e-07
1669909208877474042,11390,1669909203528157419,,-4.257542336075051,-4.2453557951881224,0.5295741634336519,-0.002000008553102746,0.00400003097659016,-0.005000012612870409,-1.4230854073292991e-221,3.3970249864309897e-221,1.1122828099237123e-220,0.01222687384870369,-0.0005583403993654201,0.4163736736507673,-3.0634026898956424e-07,7.324998450425092e-08,3.9883257421602453e-07
1669909208877506341,11391,1669909203553874673,,-4.257039219162819,-4.244576709122085,0.5300123925258429,-8.564379330288499e-09,0.005000030987478954,-0.003000012629499473,6.434446986835036e-86,-4.118046071574423e-84,-2.635549485807631e-82,0.012359062877532523,-0.00047214232449555027,0.41608342047043756,-3.0633365731023116e-07,7.326264286548996e-08,3.987915138636176e-07
1669909208877563020,11392,1669909203676617737,,-4.257288855445699,-4.244011061302211,0.5299500707661938,-8.564379330288499e-09,0.005000030987478954,-0.003000012629499473,9.232978617785736e-128,-7.386382894228589e-127,5.909106315382871e-126,0.01260166151626585,-0.00035986753110073266,0.41521658622591673,-3.063696964984519e-07,7.328157266808757e-08,3.986977203235411e-07
1669909208877591230,11393,1669909203720579032,,-4.257230873133491,-4.244142102310212,0.529881059107471,-8.58244987987754e-09,0.004000030970920004,-0.002000012656147288,0.0,0.0,0.0,0.012659605287248965,-0.0003246258789406653,0.4146451593905738,-3.064148968992567e-07,7.329087730779234e-08,3.986313043481218e-07
1669909208877596729,11394,1669909203835238335,,-4.257416693095241,-4.243719624293694,0.5300548112204568,-8.58244987987754e-09,0.004000030970920004,-0.002000012656147288,-4.623610984776654e-70,-2.897050617645548e-68,-6.126911521838715e-67,0.012705311520548435,-0.00033236366855149413,0.41359297926969063,-3.0645615627831167e-07,7.329706613103024e-08,3.985490965654157e-07
1669909208877599047,11395,1669909203890597808,,-4.257506253600759,-4.24351557057038,0.529946911765158,-8.58244987987754e-09,0.004000030970920004,-0.002000012656147288,2.9145346277802883e-159,6.57007465547117e-160,2.035526849728241e-160,0.012731431119492598,-0.00035828777548374546,0.41308370943161954,-3.0648422256701353e-07,7.329702173713199e-08,3.985066448695634e-07
1669909208877631899,11396,1669909203920380480,,-4.257509803949098,-4.24248946062331,0.529890333895624,0.0009999913964207688,0.0060000309449135016,-0.0020000126873057785,3.022027960595007e-156,2.548655324394964e-158,1.8485631953256113e-158,0.012730854084928467,-0.0003587722549696082,0.41308503552901144,-3.064900193116911e-07,7.329296829921355e-08,3.985116998633868e-07
1669909208877648656,11397,1669909204049691061,,-4.257703701863094,-4.241723805126409,0.5300187527005901,0.0009999913964207688,0.0060000309449135016,-0.0020000126873057785,9.858985106170853e-71,-8.049984943331604e-69,3.8785015507364427e-66,0.012666950176729586,-0.0005096365460115493,0.41166547921102925,-3.06596578587994e-07,7.328112938877831e-08,3.983769368466748e-07
1669909208877679831,11398,1669909204089159148,,-4.257762652973656,-4.241490055860461,0.5299428423150553,0.0009999913964207688,0.0060000309449135016,-0.0020000126873057785,-3.160036880675905e-148,1.1896629935998944e-147,1.951505997551719e-144,0.012644456611868193,-0.0005367894331644862,0.41145988921365095,-3.066186404820822e-07,7.327491257778997e-08,3.9836344157400026e-07
1669909208877841941,11399,1669909204120902398,,-4.257810081743953,-4.2413020602889295,0.5298817983307534,0.0009999913964207688,0.0060000309449135016,-0.0020000126873057785,0.0,0.0,0.0,0.012524940890408232,-0.000625802562785438,0.41084448368416737,-3.06697291064522e-07,7.328276951793828e-08,3.9830022404994967e-07
1669909208877883029,11400,1669909204164984080,,-4.257873824070472,-4.241045975493984,0.5299960468095976,0.0009999913666961181,0.006000030890477504,-0.001000012731139365,-8.312637964880376e-157,-2.407749372450147e-155,-9.712588327767068e-158,0.012349716212108675,-0.0007107331019557961,0.4103907307058492,-3.0676940569963275e-07,7.326376517098604e-08,3.9827211936613337e-07
1669909208877906988,11401,1669909204294977277,,-4.257855387239601,-4.23974916744668,0.530003060074774,0.0019999913631720714,0.00700003086677463,-1.2736336116184547e-08,0.0,0.0,0.0,0.011624591308992294,-0.0009820574664569648,0.40934721814747377,-3.069855874724545e-07,7.324302383271028e-08,3.9824094358606673e-07
1669909208877909292,11402,1669909204425279059,,-4.257979154356067,-4.238808666591169,0.5300053347354104,0.0019999913631720714,0.00700003086677463,-1.273633611618456e-08,2.839696679905923e-157,4.327388739941109e-157,2.8628739278734907e-157,0.010685788182270173,-0.0011668640580246858,0.4086645775911606,-3.072590407672901e-07,7.324145174687343e-08,3.9824701860854737e-07
1669909208877932113,11403,1669909204478568478,,-4.258029645742975,-4.238424014807517,0.5300014124969947,0.0019999913679663857,0.0070000308309089996,-1.272926615917755e-08,-2.7789413331584684e-146,4.3629672516489626e-147,-1.9307248360313747e-144,0.01006778173178624,-0.0012635806033340913,0.40843293551985127,-3.073924844453249e-07,7.324285321407345e-08,3.983002261117944e-07
1669909208877947261,11404,1669909204597411793,,-4.258141851645938,-4.237566131583506,0.5300026019051447,0.0019999913679663857,0.0070000308309089996,-1.2729266159177598e-08,1.748703700525235e-81,1.8633517398306056e-81,4.596689782889519e-81,0.008756074981814521,-0.0014343523187800855,0.4082635879911738,-3.0770709041336814e-07,7.322692703195197e-08,3.9839400013077354e-07
1669909208877961594,11405,1669909204638511487,,-4.258180625991098,-4.237269446104878,0.5299981895312039,0.0019999913679663857,0.0070000308309089996,-1.2729266159177603e-08,-1.3431472842811917e-298,-5.304324905470549e-299,-4.126696474361582e-298,0.008060849514446744,-0.0014856937303822093,0.40827248944697736,-3.078446383579932e-07,7.323881819502415e-08,3.9846566129945265e-07
1669909208877985419,11406,1669909204666661815,,-4.258207187831174,-4.237066237729622,0.5299998588045587,0.0019999913679663857,0.0070000308309089996,-1.2729266159177603e-08,8.020882128769757e-68,-6.642314003085208e-67,-1.6170055134097453e-64,0.008153823854161857,-0.0014799030172998329,0.4082645680372359,-3.07830968152465e-07,7.323756107659129e-08,3.984577680326753e-07
1669909208877987813,11407,1669909204679440935,,-4.258219230951088,-4.236973986521968,0.5300007238984482,0.0019999913679663857,0.0070000308309089996,-1.2729266159177603e-08,4.914206519773204e-237,6.290184345309701e-235,1.2580368690619401e-234,0.007455747241246868,-0.0015149848431121882,0.4083498385566955,-3.079379995974704e-07,7.324721616952182e-08,3.98525622604642e-07
1669909208878038804,11408,1669909204699400426,,-4.258424105086857,-4.23730573930318,0.5300416543611987,0.0009999914166593843,0.006000030800296365,0.0009999873425391842,5.346048138805163e-224,-1.876029865320557e-223,-1.4566853350117741e-220,0.007368559898328186,-0.0015203603580964398,0.40835916248207127,-3.0794130117441255e-07,7.324835150328407e-08,3.985378417058282e-07
1669909208878058061,11409,1669909204810385876,,-4.258586563496554,-4.236651304978812,0.5300499356349571,0.0009999914166593843,0.006000030800296365,0.0009999873425391842,-3.8392238435728152e-239,-1.228551629943301e-237,7.862730431637126e-236,0.006357271875371495,-0.001485267869950846,0.4086034640185794,-3.0807804734251297e-07,7.329855898617076e-08,3.986749308295133e-07
1669909208878060217,11410,1669909204850348987,,-4.25864509819103,-4.236415643523618,0.529988313892829,0.0009999914166593843,0.006000030800296365,0.0009999873425391842,3.6798859695589045e-80,-1.2035401448783409e-79,-2.1084395886461046e-81,0.006059947508449071,-0.0014322183541697342,0.4087969704543024,-3.080953524286745e-07,7.332753954157123e-08,3.9876534782870927e-07
1669909208878064617,11411,1669909204882943562,,-4.258692893893115,-4.236223433597489,0.5300221393388603,0.0009999914166593843,0.006000030800296365,0.0009999873425391842,3.6798859695589045e-80,-1.2035401448783409e-79,-2.1084395886461046e-81,0.006059937447544073,-0.001432216042889678,0.4087969834661891,-3.080953524286745e-07,7.332753954157123e-08,3.9876534782870927e-07
1669909208878066872,11412,1669909204899805700,,-4.258767420517498,-4.237041834544866,0.5300772433904095,-8.526146267739261e-09,0.004000030794563277,0.00199998742688108,-7.151111669042735e-248,2.2347223965758547e-249,1.7458768723248864e-251,0.0059906764402093415,-0.0013613436783010968,0.40907237021784226,-3.080338276313579e-07,7.334738808127846e-08,3.988568232600847e-07
1669909208878094527,11413,1669909205020750142,,-4.258959592381605,-4.236599441990307,0.5301231775325475,-8.526146267739261e-09,0.004000030794563277,0.00199998742688108,4.05321675926189e-301,7.058807455014858e-300,2.305115841784118e-297,0.006223203975144642,-0.001268945863285964,0.4095831275076218,-3.0798804896428847e-07,7.33780875795424e-08,3.990356597361695e-07
1669909208878122641,11414,1669909205080325276,,-4.258612263184343,-4.237403136039089,0.530031957019167,-8.408985290356682e-09,0.0010000308148919524,0.002999987599653028,1.6648043065945813e-222,-2.0506371468491527e-224,2.009117525757947e-223,0.006490218333665254,-0.0012124620193372238,0.40996474418501094,-3.079480136551394e-07,7.33977483870554e-08,3.991347525398175e-07
1669909208878145706,11415,1669909205180007462,,-4.258651551244808,-4.237313635088169,0.5300525799526234,-8.408985290356682e-09,0.0010000308148919524,0.002999987599653028,0.0,0.0,0.0,0.006974232499761257,-0.0011075833257034873,0.4108233107594046,-3.07928691085703e-07,7.343635866158375e-08,3.993881049383672e-07
1669909208878191370,11416,1669909205242623755,,-4.258676226068927,-4.237257503038723,0.5299474661179555,-8.408985290356682e-09,0.0010000308148919524,0.002999987599653028,1.0977313777303825e-69,-2.724448526006307e-69,-4.3447072687957827e-67,0.007156122950593868,-0.001061930530315891,0.4112332072043543,-3.07935707378061e-07,7.345724753617597e-08,3.9949376085253323e-07
1669909208878219971,11417,1669909205281556048,,-4.258523679769992,-4.237609191903991,0.5300643892476427,-8.356155719576863e-09,3.08422641870365e-08,0.002999987677558386,2.164211234777989e-148,2.6263179959529774e-147,6.7937426446034755e-146,0.007226251112017579,-0.0010404564631354418,0.41142812435262854,-3.079361855759646e-07,7.345909324801898e-08,3.9953142991258295e-07
1669909208878222259,11418,1669909205405472461,,-4.258522938878497,-4.237611831265506,0.53013728700992,-8.356155719576863e-09,3.084226418703649e-08,0.002999987677558386,0.0,0.0,0.0,0.007558260424069374,-0.0009490842703723246,0.4129192460323239,-3.0798854186732325e-07,7.349520037165782e-08,3.9991029539733315e-07
1669909208878241462,11419,1669909205453802991,,-4.258667318812994,-4.23728198680054,0.5299748173679599,-8.365504210699384e-09,0.0010000308987871446,0.003999987663772592,1.7365302730352168e-164,5.556896873712694e-163,2.778448436856347e-163,0.0076215558018954965,-0.0009401219802498417,0.4134920966849105,-3.080178343808564e-07,7.349516032553824e-08,4.00027390512761e-07
1669909208878259250,11420,1669909205579439687,,-4.258716700697548,-4.237170643743944,0.5300612438278691,-8.365504210699384e-09,0.0010000308987871446,0.003999987663772592,0.0,0.0,0.0,0.007663407176682568,-0.0009925275020599145,0.41453875159312226,-3.080881384832799e-07,7.349646168419703e-08,4.0026153136759595e-07
1669909208878276578,11421,1669909205626321144,,-4.258735151044988,-4.2371291228088115,0.5302491251668193,-8.365504210699384e-09,0.0010000308987871446,0.003999987663772592,0.0,0.0,0.0,0.007588308348761785,-0.001034805893093349,0.41509997799988163,-3.0815315449188275e-07,7.349013591850915e-08,4.003921033638451e-07
1669909208878344065,11422,1669909205655217161,,-4.257819213991894,-4.23715072186625,0.5297283853872702,0.0019999915994709043,3.093897620433728e-08,0.003999987612122992,0.0,0.0,0.0,0.007587440539955637,-0.0010349978502759427,0.4150982228470994,-3.0815225254740863e-07,7.348330470774402e-08,4.003691536361074e-07
1669909208878387451,11423,1669909205803028047,,-4.257547532384258,-4.237035738888532,0.5303103423767743,0.0019999915994709043,3.0938976204337264e-08,0.003999987612122992,0.0,0.0,0.0,0.007170139201029713,-0.0012842425957444448,0.4163941366829853,-3.08344272014889e-07,7.346898863437113e-08,4.007003547135457e-07
1669909208878389810,11424,1669909205863814582,,-4.25743591418142,-4.236988304013079,0.5303825481631297,0.0019999915994709043,3.093897620433723e-08,0.003999987612122992,0.0,0.0,0.0,0.006970929335091469,-0.0013776746311151555,0.416677578348958,-3.0841961894372805e-07,7.344978858027125e-08,4.007645097324115e-07
1669909208878405213,11425,1669909205913502758,,-4.257758793186137,-4.237135662812231,0.5309388066375715,0.000999991567048871,3.1000687316146925e-08,0.004999987564311699,0.0,0.0,0.0,0.006693023522215569,-0.0015038543659748882,0.41690663499140257,-3.0850306509897897e-07,7.343535229759774e-08,4.00773886919941e-07
1669909208878446712,11426,1669909206047555513,,-4.257924569711566,-4.236431762731773,0.5298891878633063,0.0009999915644646076,0.002000031062570464,0.004999987560500804,0.0,0.0,0.0,0.0061802809778566115,-0.001752529638583411,0.41711791111888097,-3.0859210947006306e-07,7.342710216517214e-08,4.008433594176781e-07
1669909208878482004,11427,1669909206152379760,,-4.257913248182884,-4.2362009236672495,0.5299452998616081,0.0009999915644646076,0.002000031062570464,0.004999987560500804,0.0,0.0,0.0,0.005844169984905889,-0.002009041851570359,0.4174349606816694,-3.0864211334492614e-07,7.341336300535356e-08,4.009838791946878e-07
1669909208878494013,11428,1669909206189877188,,-4.257909249492386,-4.236118320056439,0.530133296476899,0.0009999915644646076,0.002000031062570464,0.004999987560500804,7.475801093383841e-301,2.9416375126685217e-300,-2.6106637507909262e-297,0.005800834128100618,-0.0021047390262296517,0.4176056792185818,-3.0865722029710855e-07,7.341238896914785e-08,4.010517823941078e-07
1669909208878557662,11429,1669909206218122879,,-4.257253868599185,-4.236596872485541,0.5303364093684204,0.0019999915806642754,3.110338352195824e-08,0.005999987584389715,-7.204969337695662e-302,1.3824831532338417e-298,-1.6233934489840133e-297,0.005790718018316099,-0.002109774098316919,0.41760903006907313,-3.086561924718179e-07,7.340839451202696e-08,4.010479875432067e-07
1669909208878634018,11430,1669909206335290839,,-4.257039407345437,-4.236506152068332,0.5397123462170145,0.0019999915806642754,3.1103383521958316e-08,0.005999987584389715,4.453176996862293e-217,1.0631845246142e-216,2.9337030234136093e-217,0.005938542414899217,-0.002253808079657915,0.4179623924224689,-3.086452519739254e-07,7.342323376344401e-08,4.011849609495735e-07
1669909208878636367,11431,1669909206385585339,,-4.25694737303819,-4.236467228970965,0.5400143317810401,0.0019999915806642754,3.1103383521958316e-08,0.005999987584389715,0.0,0.0,0.0,0.006049205384989875,-0.002283218529688824,0.41806194861370294,-3.0864366214249385e-07,7.343461654978175e-08,4.01227860940788e-07
1669909208878642338,11432,1669909206409621831,,-4.256903387958932,-4.236448637066479,0.5401586560817683,0.0019999915806642754,3.1103383521958316e-08,0.005999987584389715,3.212155148417822e-231,8.176528719242322e-230,-1.3657907477554674e-231,0.006109230889208561,-0.0022988186501766705,0.41812479652043777,-3.086473614603096e-07,7.343404710602798e-08,4.0125985356522125e-07
1669909208878644717,11433,1669909206429707534,,-4.2568664110714485,-4.236435444119301,0.5397398242957441,0.0019999916308522906,3.114104309669028e-08,0.006999987658399691,0.0,0.0,0.0,0.006243667766344885,-0.002336425075743165,0.41826388697609573,-3.086345197289653e-07,7.342610301010563e-08,4.013152459635613e-07
1669909208878650401,11434,1669909206546268178,,-4.25665305777067,-4.236346207867708,0.5398170577780323,0.0019999916308522906,3.114104309669027e-08,0.006999987658399691,-1.4449968053016764e-300,3.158907542010941e-299,-2.3076538211964892e-297,0.0064409752790659525,-0.0023635820424079412,0.4185236480601997,-3.086475804277064e-07,7.344677913476854e-08,4.0142742041508344e-07
1669909208878675949,11435,1669909206583237684,,-4.2565853840542935,-4.2363179255092875,0.540076011870733,0.0019999916308522906,3.114104309669027e-08,0.006999987658399691,0.0,0.0,0.0,0.006481818273719853,-0.0023593183201242596,0.4185832726909666,-3.086524865242634e-07,7.345423788662858e-08,4.014405364553809e-07
1669909208878714957,11436,1669909206626352453,,-4.25616202414231,-4.2361344603494615,0.5405226804775206,0.002999991651652316,3.119091518544513e-08,0.00799998768907254,-2.363033777625736e-302,-1.8752388648374327e-300,2.3195430038431286e-299,0.006635980392971419,-0.002336913108582195,0.4188383010300498,-3.0866420839977195e-07,7.348215938936455e-08,4.0152943758847137e-07
1669909208878738058,11437,1669909206731843283,,-4.255872409615055,-4.236011678189898,0.5396763304001219,0.002999991651652316,3.1190915185445126e-08,0.00799998768907254,-6.919546644734287e-156,-2.6494744831474585e-156,-4.095827735735018e-157,0.006862678184218041,-0.002239797241061936,0.41908554478754034,-3.0866988428701836e-07,7.353254118703038e-08,4.0161105297304965e-07
1669909208878757802,11438,1669909206776612796,,-4.255749476298607,-4.235959577858131,0.5400347814043782,0.002999991651652316,3.1190915185445126e-08,0.00799998768907254,1.5890306466455966e-219,-8.482209610843734e-220,-1.3025743818890107e-216,0.006996588630723721,-0.0021875668324398134,0.4191035097769582,-3.0866060626587294e-07,7.354554284583072e-08,4.0162479291175604e-07
1669909208878808578,11439,1669909206825075586,,-4.255264208930115,-4.235746524312918,0.5405170578056154,0.00399999163545088,3.123159272221158e-08,0.00799998766518102,0.0,0.0,0.0,0.007106296116552002,-0.0021378311125808125,0.4191161515377484,-3.086787082796865e-07,7.356744640919022e-08,4.016320682371397e-07
1669909208878860924,11440,1669909206947092606,,-4.254817370895283,-4.235555153852261,0.5404179150800558,0.00399999163545088,3.123159272221152e-08,0.00799998766518102,-1.3998705732329658e-79,-7.689329833565246e-80,-1.3857176467447938e-80,0.00732693500102144,-0.0018090861685777782,0.418940320299944,-3.087605428305923e-07,7.366768460091781e-08,4.0167111769627125e-07
1669909208878866603,11441,1669909206997389346,,-4.25463306354188,-4.235476303916286,0.5408206484094147,0.00399999163545088,3.123159272221152e-08,0.00799998766518102,7.182783974465911e-227,4.4143290796932925e-227,-4.2555003383817e-223,0.00730680986742982,-0.0016660612236947259,0.41881526166147154,-3.0881455078993293e-07,7.369919848065712e-08,4.0167879314388993e-07
1669909208878879970,11442,1669909207031229466,,-4.254508658091792,-4.235425959501087,0.5412278281672481,0.0039999916051047186,3.12680840180673e-08,0.008999987620430923,1.130108018586828e-224,2.533261221722012e-227,2.541089770989562e-223,0.007306109813590922,-0.0016663521550182026,0.4188140010080943,-3.088081603227327e-07,7.369228640140829e-08,4.0166624601816495e-07
1669909208878919366,11443,1669909207147342125,,-4.254082726901956,-4.235244704382817,0.5403900159569898,0.0039999916051047186,3.126808401806724e-08,0.008999987620430923,-2.1076743882147168e-141,-2.7416864800011402e-140,-1.12812650140893e-140,0.006893273322035043,-0.0012310264922916758,0.41839823354554184,-3.090229611002432e-07,7.380458397907435e-08,4.0170512448268295e-07
1669909208878938863,11444,1669909207214549452,,-4.253836076611286,-4.235139640055645,0.5409952068117428,0.0039999916051047186,3.126808401806724e-08,0.008999987620430923,0.0,0.0,0.0,0.0063932887859561305,-0.0010133320376102262,0.41813384483094573,-3.091835324752028e-07,7.385311595489056e-08,4.017190385248797e-07
1669909208878975807,11445,1669909207247908692,,-4.25389184158673,-4.234687007833454,0.5397132781393778,0.003999991583135055,0.001000031269143655,0.008999987588033262,0.0,0.0,0.0,0.006392676837167599,-0.001013553742414075,0.41813381852129794,-3.0918679884847e-07,7.385145976755794e-08,4.017125178785132e-07
1669909208879077186,11446,1669909207369487456,,-4.253494953981462,-4.234385101599338,0.5398577652402267,0.003999991583135055,0.001000031269143655,0.008999987588033262,-1.5798326054448974e-143,-1.0242693867091383e-140,-1.7922477597926867e-143,0.005716025917218204,-0.0007704694229584419,0.4177906924768422,-3.093429649973032e-07,7.390364146075233e-08,4.017228122231384e-07
1669909208879079464,11447,1669909207405926223,,-4.253375994962347,-4.234294499016932,0.5401860365905413,0.003999991583135055,0.001000031269143655,0.008999987588033262,1.1571981851145552e-223,1.7765245688589087e-223,2.93126508717589e-221,0.005370369498645999,-0.0006215107241231976,0.4176317841095223,-3.0940831147313654e-07,7.392953458757427e-08,4.017284642411979e-07
1669909208879081736,11448,1669909207427577707,,-4.25346285739677,-4.233885985498476,0.5412679555821295,0.0039999915535791864,0.0020000312362369,0.00899998754444857,0.0,0.0,0.0,0.00508139077426506,-0.0005060155008980161,0.4174978067432171,-3.095073301189099e-07,7.396137464368869e-08,4.0174284074224304e-07
1669909208879130462,11449,1669909207561493272,,-4.253079865085513,-4.233429539765342,0.549767796276474,0.0039999915535791864,0.0020000312362369,0.00899998754444857,0.0,0.0,0.0,0.0040105589713306244,-0.00011739837461632874,0.4171585872112793,-3.0976430377246e-07,7.406360635133478e-08,4.018331270098624e-07
1669909208879170570,11450,1669909207606936888,,-4.253162056408161,-4.23382523991471,0.5501770274794819,0.0029999915596164565,0.0010000312064462782,0.008999987553351458,-1.1141454795588442e-300,-4.571255604536318e-299,1.1665352143157339e-295,0.003605816967718667,5.6636250118202724e-05,0.41711940095749966,-3.0983303950717276e-07,7.410067249295681e-08,4.01881032880981e-07
1669909208879490219,11451,1669909207748336578,,-4.252829603410676,-4.233527963560123,0.5496841511595438,0.0029999915596164565,0.0010000312064462782,0.008999987553351458,0.0,0.0,0.0,0.0027833304244246904,0.00040904376654182784,0.41725563603248617,-3.1001052127659865e-07,7.418605632962764e-08,4.020387721289602e-07
1669909208879531581,11452,1669909207787228708,,-4.252585748254647,-4.233789822147359,0.5500303543650298,0.0029999916092100848,3.11619020617986e-08,0.007999987626484918,-2.8054310046271236e-218,-5.451377210647473e-219,-4.7118672529096076e-216,0.002577032772208554,0.0005433611689227291,0.4173912920636731,-3.100248327260794e-07,7.419925027478946e-08,4.0208597749561866e-07
1669909208879558204,11453,1669909207903398681,,-4.25226572354227,-4.233650345217052,0.5507648619248762,0.0029999916092100848,3.1161902061798584e-08,0.007999987626484918,-1.9929667616569367e-148,7.470297298982018e-151,-2.645736814940023e-145,0.001993940757168744,0.0008868971592157493,0.417819232531798,-3.1018036736435614e-07,7.427064111045949e-08,4.022487392950704e-07
1669909208879593654,11454,1669909207938393688,,-4.2521693158943945,-4.233608197785221,0.5510447324349692,0.0029999916092100848,3.1161902061798584e-08,0.007999987626484918,-5.609613576128475e-301,-2.0545309583943486e-303,3.4485346149521816e-299,0.001716433472896739,0.0010466681985530357,0.4180593027398878,-3.1024462290845484e-07,7.429729319899076e-08,4.0233343947531064e-07
1669909208879617803,11455,1669909207961571879,,-4.252105462552476,-4.233580192279064,0.5499207774213937,0.0029999916092100848,3.1161902061798584e-08,0.007999987626484918,8.355412731287728e-68,-1.937650381738668e-67,2.273417549270831e-64,0.0016575317608591433,0.0010770608650236824,0.4181149382303726,-3.1026093575888316e-07,7.430580091703937e-08,4.023526328717785e-07
1669909208879645178,11456,1669909207988208395,,-4.252423907421697,-4.233721839055168,0.5501398433317077,0.0019999916442679753,3.114066397625721e-08,0.00799998767818319,3.2757160780663876e-224,3.4407261806718106e-226,7.940897979807165e-221,0.0013799795034472595,0.00124159477155672,0.418409452812039,-3.102934503437251e-07,7.433288523402286e-08,4.0245482193529576e-07
1669909208879665376,11457,1669909208119568513,,-4.252182067482975,-4.233615792612732,0.5509368398281507,0.0019999916442679753,3.11406639762572e-08,0.00799998767818319,-8.731253421309882e-80,-1.40427220145687e-79,-1.913522713016007e-80,0.0008768684153963591,0.0015351984138405328,0.4191411743381863,-3.1042042067290784e-07,7.438508547060461e-08,4.0268492364993804e-07
1669909208879732183,11458,1669909208159411427,,-4.252108719189499,-4.233583447488504,0.5501610418945256,0.0019999916442679753,3.114066397625719e-08,0.00799998767818319,-1.093532502991192e-155,2.473138403546448e-155,1.1803440957646567e-156,0.0007844457742010036,0.001596373764288117,0.41933962172334205,-3.1044370976887343e-07,7.43935162649273e-08,4.027576993731555e-07
1669909208879777876,11459,1669909208194827791,,-4.252043518609956,-4.23355464393001,0.5504442602481235,0.0019999916442679753,3.114066397625719e-08,0.00799998767818319,2.1237963738457407e-146,6.352044524588973e-147,2.06454206054868e-145,0.0006958811899107076,0.0016400647586287675,0.4195247602981276,-3.1047805886759494e-07,7.440526617932636e-08,4.028061352551468e-07
1669909208879828560,11460,1669909208224030986,,-4.252387522340979,-4.233706918876657,0.5505934095303516,0.0009999917044775316,3.1134375841475666e-08,0.006999987766971475,0.0,0.0,0.0,0.0005931831420262768,0.0016859180465012003,0.4197397007930519,-3.105140231478248e-07,7.441870282428747e-08,4.0287764445823254e-07
1669909208879940139,11461,1669909208348274479,,-4.25227253022489,-4.2336560197699225,0.550720361197431,0.0009999917044775316,3.1134375841475666e-08,0.006999987766971475,0.0,0.0,0.0,-6.170694834395363e-05,0.0018537764559454217,0.4207221927845346,-3.107321339559535e-07,7.445707676681988e-08,4.03154569592301e-07
1669909208879942490,11462,1669909208409475618,,-4.252398606834234,-4.234105934590984,0.5501435848363228,-8.255282000959494e-09,-0.0009999688547332357,0.0059999878263122565,8.953292719822618e-228,4.386176477977538e-229,9.884221498343797e-225,-0.0003712985561570292,0.001900296645894528,0.42116462704532154,-3.1080676308588906e-07,7.447085306184962e-08,4.03257588339731e-07
1669909208879981436,11463,1669909208511540986,,-4.252355916335933,-4.234198328326675,0.5501766570393717,-8.255282000959495e-09,-0.0009999688547332357,0.0059999878263122565,2.0096289602197905e-226,1.953331207255152e-225,-1.0925816472561403e-222,-0.0009795535985475112,0.001992338742002886,0.42203244723680555,-3.1095980475491367e-07,7.44969905110847e-08,4.034729398652441e-07
1669909208880025960,11464,1669909208546057480,,-4.252341484298329,-4.234229468487256,0.5503837882215812,-8.255282000959495e-09,-0.0009999688547332357,0.0059999878263122565,-2.0473442372108102e-80,-5.883982077787859e-80,-1.7332111942560817e-82,-0.001104481494367704,0.002001740080284975,0.4222152740039107,-3.10994602889617e-07,7.449852102825646e-08,4.0351504480343994e-07
1669909208880688523,11465,1669909208606391358,,-4.2524994968170455,-4.233876333322068,0.5501222181042154,-8.239791003931941e-09,3.115867107579029e-08,0.004999987849156123,-8.431397824186472e-196,-1.5525179345487554e-196,1.4030309018051574e-200,-0.0016090157623551704,0.0019929560412208502,0.422968052988697,-3.110893924101509e-07,7.44971385064114e-08,4.036846767288579e-07
1669909208880694900,11466,1669909208752891508,,-4.252498697624245,-4.233874589419477,0.5503435445217463,-8.239791003931943e-09,3.115867107579029e-08,0.004999987849156123,2.3798148773674133e-157,2.298760012506515e-157,3.6966530923874585e-159,-0.0019672651177984335,0.0019046533041429115,0.42411839238628346,-3.1115062599350153e-07,7.450267911050558e-08,4.0397469555588747e-07
1669909209090163074,11467,1669909208821608933,,-4.252321761270369,-4.234268612799236,0.5501295532577666,-8.204152846556709e-09,-0.0009999688023977955,0.0039999879017100885,-9.854150394205194e-228,-5.587739799577251e-227,1.0449864919794679e-224,-0.0019607084635708816,0.001875127820085254,0.42464023821327856,-3.1113162802065197e-07,7.450434967946782e-08,4.040890713268441e-07
1669909209129135410,11468,1669909208952625039,,-4.251928040562123,-4.235140762258108,0.5501788813426349,-8.17095760594658e-09,-0.002999968773700187,0.002999987950661595,0.0,0.0,0.0,-0.0014421156329458285,0.0017394219068531669,0.42641819693124816,-3.11033938740683e-07,7.449920235228471e-08,4.044901799115755e-07
1669909209179543436,11469,1669909209072566946,,-4.251778827598775,-4.235467628265657,0.5500223889071877,-8.170957605946584e-09,-0.002999968773700187,0.002999987950661595,3.217223493417518e-86,1.608611746708759e-86,4.118046071574423e-84,-0.0007011186995384833,0.0016232668315385723,0.42771938250036357,-3.109468111954048e-07,7.449578798504802e-08,4.0475811845289706e-07
1669909209198933421,11470,1669909209122547706,,-4.251716482279304,-4.235603854450786,0.5501724554409189,-8.170957605946584e-09,-0.002999968773700187,0.002999987950661595,0.0,0.0,0.0,-0.00040130622341827404,0.0015680879637365308,0.4280865245239962,-3.109148976826649e-07,7.44929546353152e-08,4.0482548227724815e-07
1669909209310505284,11471,1669909209149440870,,-4.251683306139585,-4.235678016309383,0.550168917228804,-8.126827487612843e-09,-0.0029999687063408946,0.0019999880157382673,-1.2010127050931484e-234,-6.844752484016749e-234,2.1134121453403195e-236,-0.00032547735552590495,0.0015553023897236784,0.4281680915228083,-3.109008779610421e-07,7.44936074474164e-08,4.0482502743484175e-07
1669909209389810168,11472,1669909209265170634,,-4.251538773305234,-4.235993664330587,0.5499279790189164,-8.126827487612845e-09,-0.0029999687063408946,0.0019999880157382673,-1.1524141303146343e-156,-8.516833125746218e-156,-1.6201560616456716e-158,0.0006972610031539261,0.0013788950576767434,0.4289449397787859,-3.1076827788803487e-07,7.447691961596994e-08,4.049956848439017e-07
1669909209426328206,11473,1669909209336031684,,-4.251450137187419,-4.236186996858145,0.5500695480159333,-8.126827487612845e-09,-0.0029999687063408946,0.0019999880157382673,-5.1625386245117175e-155,-1.8611767957003294e-155,5.667708150510377e-158,0.001002499557028358,0.0013070852821854828,0.4291530906933225,-3.107418500598257e-07,7.446647678242338e-08,4.050529521457462e-07
1669909209455796309,11474,1669909209371342252,,-4.251405950539888,-4.236283345407158,0.5499627319721941,-8.126827487612845e-09,-0.0029999687063408946,0.0019999880157382673,-3.346888762046915e-145,-5.340203797466803e-145,-7.390256807351285e-148,0.0015306417642229064,0.0011962459586900565,0.42952313428192035,-3.1069756933742507e-07,7.446550706277583e-08,4.051495157796359e-07
1669909209753380875,11475,1669909209398865134,,-4.251541950809538,-4.235986435796116,0.550010040584253,-8.142968186540936e-09,-0.001999968607207994,0.0009999879919363147,-6.434446986835036e-86,-3.217223493417518e-86,-6.588873714519077e-83,0.0016906911204586095,0.0011641264935402518,0.42961823774545316,-3.1069278379752506e-07,7.446138618052705e-08,4.0516107039090483e-07
1669909209774670711,11476,1669909209516580853,,-4.2514436453753985,-4.23620061416916,0.5500236857185061,-8.142968186540936e-09,-0.001999968607207994,0.0009999879919363147,1.399427875166752e-80,4.9688086521737516e-80,5.35345989304675e-83,0.002525921231637085,0.0010101584241652972,0.42995283307732457,-3.105751646650653e-07,7.445982872607076e-08,4.0524029165547136e-07
1669909209774887486,11477,1669909209561567973,,-4.2517247619148595,-4.235587367135898,0.5500000025158568,-8.196739049709745e-09,3.146563730621957e-08,-1.2087357123894181e-08,-1.0178857940910853e-49,-3.3445929869441845e-49,-1.0972671869931253e-46,0.003147856004911631,0.0009127887700159931,0.43007221708186094,-3.105177646688279e-07,7.445374770663695e-08,4.0527509111949207e-07
1669909209791363894,11478,1669909209681766560,,-4.251724764390537,-4.235587364105249,0.5500000003584049,-8.196739049709745e-09,3.146563730621957e-08,-1.2087357123894181e-08,-8.066936476210474e-164,-2.3192555755519127e-163,-4.800343880082344e-162,0.00374399887193988,0.0007977989362828453,0.4302183078157089,-3.105218990049046e-07,7.445613120192138e-08,4.053426384539476e-07
1669909209821011743,11479,1669909209737086860,,-4.251724765530154,-4.23558736271025,0.5499999996965791,-8.196739049709745e-09,3.146563730621957e-08,-1.2087357123894181e-08,0.0,0.0,0.0,0.003958574961764327,0.0007514385058549067,0.43025272990315955,-3.1051503053408903e-07,7.445560918027926e-08,4.053555193582802e-07
1669909209942477590,11480,1669909209763819699,,-4.251357236528712,-4.2354188322672695,0.5500000278367184,0.0009999917409424012,3.151837857950204e-08,-1.21792554452827e-08,1.5550928331509289e-49,9.630204562446291e-49,2.2353374498015187e-46,0.004346442774556536,0.0006867181244167853,0.43030126617685127,-3.105375017964895e-07,7.446811004973503e-08,4.0541476785492413e-07
1669909210000157721,11481,1669909209890061243,,-4.251242505128472,-4.235366169776653,0.5499999694487159,0.0009999917409424012,3.151837857950204e-08,-1.21792554452827e-08,-6.74040641006e-312,2.8655435616035e-310,-6.2971749272875e-311,0.004581894652684326,0.0005811506140673828,0.430127937833241,-3.106093661867225e-07,7.447633012277955e-08,4.0540791922800046e-07
1669909210161695962,11482,1669909209951062791,,-4.251154013746101,-4.234354049374031,0.5500008255671438,0.0019999916863503663,0.002000031553741268,-1.2259759828483493e-08,0.0,0.0,0.0,0.004621104856521896,0.0005437253225437644,0.42992164559823465,-3.106390370688163e-07,7.44815326684316e-08,4.0537460278301277e-07
1669909210193842803,11483,1669909210084528033,,-4.251022539910631,-4.23400018388302,0.5500000627526503,0.0019999916863503663,0.002000031553741268,-1.2259759828483501e-08,0.0,0.0,0.0,0.004757552997904924,0.0004324426983952634,0.42870037868608435,-3.1069587837871343e-07,7.44868514477754e-08,4.052195325058271e-07
1669909210336964686,11484,1669909210141726060,,-4.251499311689676,-4.23365057311017,0.5500008902171353,0.0009999916101826065,0.003000031585021622,-1.237208094894053e-08,2.3250662226054202e-300,1.3670392255738454e-295,1.615692551918996e-295,0.004847239279541782,0.0003747812647514337,0.4281375841593906,-3.107089602738401e-07,7.448534011941576e-08,4.051595629539849e-07
1669909210402619083,11485,1669909210296940645,,-4.251551298401041,-4.233162498253804,0.5500000112485621,0.0009999916101826065,0.003000031585021622,-1.2372080948940537e-08,1.7957073048168978e-69,8.824859307423328e-68,2.289577782439622e-65,0.004970549115984824,0.00020872619941236792,0.42702420348308223,-3.1075225085646176e-07,7.44842903687449e-08,4.05076543995679e-07
1669909210530463771,11486,1669909210354362488,,-4.252186284337531,-4.232752413840032,0.5500011590530585,-8.410962865643482e-09,0.004000031582187641,-1.2403263212095822e-08,0.0,0.0,0.0,0.005003065960774933,0.0001532449971453076,0.42661181916495217,-3.1077736562012585e-07,7.448277183574358e-08,4.05066935524824e-07
1669909210797964987,11487,1669909210480965418,,-4.252395726470869,-4.232291339437287,0.550001561923042,-8.410962865643482e-09,0.004000031582187641,-1.2403263212095826e-08,0.0,0.0,0.0,0.005042535471442733,8.877402477835972e-05,0.42562832199384104,-3.108711369428778e-07,7.451327711908039e-08,4.050634883724689e-07
1669909210838019056,11488,1669909210535765860,,-4.2517105638976345,-4.231738624845863,0.5500001223340183,0.00199999157814587,0.004000031549684743,-1.2419324062857128e-08,0.0,0.0,0.0,0.005020483139571041,7.035804322264028e-05,0.42541352003365773,-3.109037722203436e-07,7.451427059544403e-08,4.0508654048024823e-07
1669909210838026480,11489,1669909210655997472,,-4.251689973182809,-4.231201323943192,0.550000907472199,0.00199999157814587,0.004000031549684743,-1.2419324062857135e-08,5.871552512300994e-157,3.892164464836514e-157,-1.2491508718382241e-157,0.0049313670789175035,8.739479080510648e-05,0.42509103886335,-3.1099167620095375e-07,7.455809136248202e-08,4.051280036279027e-07
1669909210876593167,11490,1669909210714959879,,-4.252518538783157,-4.230906088810366,0.5500002558437732,-8.432356324045848e-09,0.005000031524501082,-1.2434811169042677e-08,-3.636062704531776e-149,-1.8416764789141155e-147,-1.1225351954486059e-146,0.004793866052004603,0.000154306769902135,0.42492607414150463,-3.1105582254768665e-07,7.459224085631262e-08,4.051410251003598e-07
1669909210922375646,11491,1669909210827429980,,-4.252750342204091,-4.230393733151154,0.5500011231804598,-8.432356324045848e-09,0.005000031524501082,-1.2434811169042687e-08,0.0,0.0,0.0,0.004359421229306548,0.0003413342061744373,0.42455638306063825,-3.1121831098287354e-07,7.465450916584958e-08,4.051475097085525e-07
1669909210950705909,11492,1669909210867660298,,-4.252833212873017,-4.23021044458126,0.5500020165075831,-8.432356324045848e-09,0.005000031524501082,-1.2434811169042687e-08,0.0,0.0,0.0,0.004171719920703865,0.00042070804954974506,0.4243960606175605,-3.1127687372867037e-07,7.467242144301687e-08,4.0513869597433513e-07
1669909211079517772,11493,1669909210899363865,,-4.252899427105168,-4.230064247880119,0.5499963235404561,-8.437514139010747e-09,0.005000031517976312,-0.0010000124424171634,0.0,0.0,0.0,0.004071530986292871,0.00045237368142814205,0.4243134611512218,-3.112996190249356e-07,7.466447106445091e-08,4.0513550761688477e-07
1669909211218127079,11494,1669909211028282905,,-4.253164962712717,-4.229476337556037,0.5499692395986943,-8.437514139010747e-09,0.005000031517976312,-0.0010000124424171634,-1.7351654064678983e-71,3.270764292306707e-70,1.6671205587395782e-67,0.0034702184278305737,0.0006291648824472418,0.42382726577522334,-3.1146170290184005e-07,7.472079062241531e-08,4.051242789529041e-07
1669909211254349481,11495,1669909211076323022,,-4.253263829838561,-4.2292572464041625,0.54992201735779,-8.437514139010747e-09,0.005000031517976312,-0.0010000124424171634,-1.84259686466312e-157,-4.712151955059825e-156,1.210824268371869e-158,0.003153322033391248,0.0007375381878045317,0.42356109578838996,-3.1154000591361335e-07,7.474850637858591e-08,4.0513041141650594e-07
1669909211293878008,11496,1669909211119206166,,-4.253520716084546,-4.228688362273544,0.5499054219421772,-8.437247360455899e-09,0.006000031512357484,-0.0010000124420237574,-6.6463313153468305e-84,4.7685837426785707e-82,1.689042334044197e-84,0.0028690837678357894,0.000857684439944606,0.42331405624307195,-3.115987567315269e-07,7.478718956864823e-08,4.051319506612836e-07
1669909211336210360,11497,1669909211239479857,,-4.2538173223871585,-4.228030124502232,0.5499647196888316,-8.437247360455897e-09,0.006000031512357484,-0.0010000124420237574,0.0,0.0,0.0,0.0025297575507146064,0.001059693198470768,0.4229347718068954,-3.116779681883079e-07,7.482786058976327e-08,4.051669233529455e-07
1669909211457744158,11498,1669909211278603194,,-4.253570058145107,-4.228578796729426,0.5498510656198652,-8.424348107313954e-09,0.00400003148836662,-0.0020000124230018174,0.0,0.0,0.0,0.0024304216380812704,0.0011421212895506017,0.42276691266058464,-3.116852476899524e-07,7.483449063912286e-08,4.051819747991184e-07
1669909211521351743,11499,1669909211403795324,,-4.253776010038462,-4.228121669931012,0.5498179979492145,-8.424348107313954e-09,0.00400003148836662,-0.0020000124230018174,0.0,0.0,0.0,0.0024212032447152865,0.0012332739058837916,0.4224796518677163,-3.117350579499078e-07,7.485850855297601e-08,4.052143239280708e-07
1669909211854992595,11500,1669909211466316378,,-4.2538795928118205,-4.227892613404813,0.549967770224677,-8.382131734492575e-09,0.004000031447112399,-0.0030000123607472583,-1.0015328038578847e-70,2.5278124498496322e-70,2.2775060861611095e-67,0.002400255395279771,0.001267189163005611,0.4223793857990952,-3.117567184451435e-07,7.487166163397705e-08,4.0524020226737996e-07
1669909211879683925,11501,1669909211579940181,,-4.254066619562556,-4.227477490403226,0.5499382202061027,-8.382131734492575e-09,0.004000031447112399,-0.0030000123607472583,6.22265459325316e-151,-3.6556663673094716e-149,-1.286130928260412e-146,0.0023488313615267487,0.0013651381052515177,0.4222681729515596,-3.1182165334314343e-07,7.489988026901588e-08,4.053432873775742e-07
1669909211879691778,11502,1669909211619539438,,-4.254131795937491,-4.227332815111452,0.5498197949670819,-8.382131734492575e-09,0.004000031447112399,-0.0030000123607472583,0.0,0.0,0.0,0.0023264044158377573,0.0013891331916369154,0.42230624269321737,-3.1185576562692554e-07,7.491492609458682e-08,4.0540022954763253e-07
1669909211879697740,11503,1669909211651425090,,-4.254184278852199,-4.227216324591892,0.5500252872073393,-8.382131734492575e-09,0.004000031447112399,-0.0030000123607472583,0.0,0.0,0.0,0.0023067596893966424,0.001411564686792488,0.4223507036162246,-3.1187662092812495e-07,7.49261284040978e-08,4.0543759285886087e-07
1669909211879882358,11504,1669909211683634209,,-4.254237303225021,-4.227098658969913,0.5499289578339017,-8.382131734492575e-09,0.004000031447112399,-0.0030000123607472583,6.946121092140867e-164,-1.7365302730352168e-164,-8.89103499794031e-162,0.0022955456280087105,0.0014141112910976972,0.4223830439380425,-3.1188915950126053e-07,7.491969884695468e-08,4.054589014795098e-07
1669909211897084084,11505,1669909211724894546,,-4.254513667262595,-4.22749671552233,0.5498054966721497,-0.0010000083585501973,0.0030000314286724376,-0.003000012325972641,-1.258516337118356e-80,-6.869509108104484e-81,-3.445641533841635e-82,0.0022874579885048263,0.0014077075333300826,0.422422462166244,-3.118943608717319e-07,7.491597919088364e-08,4.054833483973016e-07
1669909211938508394,11506,1669909211841678968,,-4.254764625881764,-4.227224539282588,0.5500817636827899,-0.0010000083585501973,0.0030000314286724376,-0.003000012325972641,1.966786547970977e-45,3.2853970282657414e-45,1.463698859477349e-42,0.002239009500842215,0.0013372994891156509,0.4228723974630437,-3.119788341859959e-07,7.49249391270069e-08,4.05702874447607e-07
1669909212090590222,11507,1669909211890123387,,-4.25526232904889,-4.227287460820708,0.5499157528960398,-0.002000008360052936,0.0030000314233600044,-0.004000012328188661,0.0,0.0,0.0,0.0021677322373463426,0.0012799267085430444,0.423264115163537,-3.120241558157809e-07,7.491734602859465e-08,4.0581078397742466e-07
1669909212128808072,11508,1669909212035720717,,-4.255708448928915,-4.227008039870138,0.5501418550085649,-0.002000008360052936,0.0030000314233600044,-0.004000012328188661,0.0,0.0,0.0,0.0019682545121728623,0.0010623706907946229,0.42398131755861,-3.121273799039741e-07,7.488135891656283e-08,4.0601295818730795e-07
1669909212625126941,11509,1669909212076793975,,-4.2560284282855285,-4.227441324020258,0.5499776262891677,-0.0030000083618328876,0.002000031435527378,-0.0040000123308134745,0.0,0.0,0.0,0.0019074468408835088,0.0010030520991097802,0.42416679234409393,-3.121492182656529e-07,7.487344295632992e-08,4.0606926430604355e-07
1669909212669522476,11510,1669909212199872240,,-4.256467054912574,-4.227368408769495,0.5498518004425843,-0.0030000083618328876,0.002000031435527378,-0.0040000123308134745,-1.2545722247294093e-199,5.887049385405102e-197,4.235795902805048e-198,0.0016539446831735916,0.000656308356806079,0.4250013700359787,-3.1225472707150615e-07,7.481313792358093e-08,4.062809999370324e-07
1669909212669525793,11511,1669909212251154931,,-4.257025777879739,-4.227506912552115,0.5500765113315819,-0.004000008359677776,0.0020000314625158123,-0.00500001232763543,1.3623054174581e-156,1.3875955262622465e-155,-1.2376072326216132e-156,0.001498414328430897,0.0004610608319364218,0.42538003591450746,-3.123266143554453e-07,7.47869727902968e-08,4.0636703327787444e-07
1669909212669531654,11512,1669909212361623619,,-4.257519951907024,-4.227487476580031,0.5499977342925085,-0.004000008359677776,0.0020000314625158123,-0.00500001232763543,0.0,0.0,0.0,0.0010617001532100545,5.647404311304172e-06,0.4262490387731148,-3.124590777248056e-07,7.473407234783116e-08,4.0660149784492207e-07
1669909212669787264,11513,1669909212415986797,,-4.257763029478656,-4.2274781138929525,0.5497260397734756,-0.004000008359677776,0.0020000314625158123,-0.00500001232763543,0.0,0.0,0.0,0.0008715659050047009,-0.00022479726090729457,0.42668918393227706,-3.125017290126859e-07,7.469598377996138e-08,4.0671026933368015e-07
1669909213083882852,11514,1669909212468493657,,-4.257997755517859,-4.227469145066072,0.5499674201892911,-0.00400000834361345,0.002000031516158307,-0.0050000123039461025,-6.344102618027607e-145,-8.962296806093874e-147,-8.872535087825538e-143,0.0007086935293383334,-0.0004586780018183134,0.4271861290289376,-3.1253618032319244e-07,7.468035576930394e-08,4.0682169949736034e-07
1669909213084049496,11515,1669909212581203028,,-4.258501346995866,-4.227450424404554,0.5499181142743179,-0.00400000834361345,0.002000031516158307,-0.0050000123039461025,0.0,0.0,0.0,0.0005163014714764103,-0.0007921788949758479,0.42816710215283926,-3.125928523098491e-07,7.466540920279858e-08,4.07069087955051e-07
1669909213084056340,11516,1669909212633960200,,-4.258350509722989,-4.227266151111433,0.5501466162577152,-0.0030000083247873053,0.0020000315611298876,-0.005000012276184044,2.383299192411255e-218,3.4771293949660594e-220,6.124798749782504e-222,0.0004488149751527004,-0.0009789317005104436,0.4289507268211814,-3.1263048802051623e-07,7.46659728981413e-08,4.0724231338670443e-07
1669909213084059809,11517,1669909212751196317,,-4.25876745457355,-4.22719880339539,0.550072600209638,-0.0030000083247873053,0.0020000315611298876,-0.005000012276184044,5.165061073164457e-68,4.495876199622046e-68,4.964422006457638e-65,0.00045734350473480845,-0.0012062690077971894,0.4300563402688997,-3.1264673312454285e-07,7.464667702109667e-08,4.074798018471597e-07
1669909213084062800,11518,1669909212799219377,,-4.258938231881841,-4.227171320379396,0.5498323579219826,-0.0030000083247873053,0.0020000315611298876,-0.005000012276184044,0.0,0.0,0.0,0.0005373421647352217,-0.0013314255308394252,0.43071171704863076,-3.126584585112764e-07,7.465278207435848e-08,4.0761355997527683e-07
1669909213084065790,11519,1669909212831312236,,-4.259052358208349,-4.2271530265288515,0.549671799946754,-0.0030000083247873053,0.0020000315611298876,-0.005000012276184044,0.0,0.0,0.0,0.0005373321132289277,-0.001331423142051591,0.4307117301313923,-3.126584585112764e-07,7.465278207435848e-08,4.0761355997527683e-07
1669909213084068660,11520,1669909212861724718,,-4.259160508194688,-4.227135684479948,0.5500234179555742,-0.0030000083247873053,0.0020000315611298876,-0.005000012276184044,0.0,0.0,0.0,0.0006023207484666671,-0.001400897214438146,0.4311287241946484,-3.126631089819909e-07,7.465498605213026e-08,4.076918745386309e-07
1669909213108516225,11521,1669909212903195302,,-4.258886299347149,-4.22691920338819,0.5498159864237053,-0.002000008276638478,0.002000031655480288,-0.005000012205181165,0.0,0.0,0.0,0.0007120326501635077,-0.0014516014527394816,0.43166810823787927,-3.1267362727012636e-07,7.468719992908161e-08,4.0778109036785725e-07
1669909213630735722,11522,1669909213059240438,,-4.2592996057173576,-4.226765360465344,0.540620584813071,-0.0020000082528168926,0.0020000317631982695,-0.0050000121700525604,-1.5067369797782645e-156,-1.0549858305205593e-156,-1.1877724057321031e-157,0.0009095233746023723,-0.0013845644097596477,0.4324050558356589,-3.126825468836656e-07,7.473579290558388e-08,4.079095964631935e-07
1669909213647772225,11523,1669909213176174911,,-4.259609525604032,-4.226650259064728,0.5400066133463116,-0.0020000082528168926,0.0020000317631982695,-0.0050000121700525604,0.0,0.0,0.0,0.0011262516377126275,-0.0011571668065553098,0.4332009893886113,-3.126983676173464e-07,7.481663763052595e-08,4.08112248341544e-07
1669909213650976231,11524,1669909213229360034,,-4.258812647640223,-4.226627659974584,0.5398398928306509,-8.251804161415342e-09,0.0010000318248067652,-0.005000012168559132,0.0,0.0,0.0,0.001257003836229842,-0.00104110913325961,0.433531842017004,-3.126880400008135e-07,7.485086638925848e-08,4.0819866313920466e-07
1669909213651115827,11525,1669909213359847412,,-4.258867360970984,-4.226508180726672,0.5400078602136184,-8.25180416141534e-09,0.0010000318248067652,-0.005000012168559132,-3.383807186676581e-148,-5.368485931046774e-149,-5.176894818059371e-147,0.001806330834924097,-0.0005077988344766027,0.43484049314778517,-3.1267895253766076e-07,7.49823526920808e-08,4.08515570196769e-07
1669909213651149622,11526,1669909213400623251,,-4.258884561788468,-4.226470830158011,0.5398040508814756,-8.275135760745888e-09,0.0010000318831129935,-0.0050000122029651775,-1.0515859906413243e-79,-3.1795109634904293e-79,-6.696221505059139e-82,0.0019220214112998235,-0.0003901149235971957,0.4350618835235718,-3.1267262480872704e-07,7.499975208996113e-08,4.0855192901054307e-07
1669909213651225045,11527,1669909213512787419,,-4.258932183336209,-4.226368022802627,0.5397435477708569,-8.275135760745888e-09,0.0010000318831129935,-0.0050000122029651775,-3.738500208005639e-79,-1.3960611615294588e-79,-7.176240056945419e-82,0.0022896276625612444,-3.326360075028845e-05,0.4356167634817574,-3.1263988217233803e-07,7.50891611794771e-08,4.086708217474293e-07
1669909213662123383,11528,1669909213554692321,,-4.258950071826461,-4.226329589978696,0.5400988389623589,-8.275135760745888e-09,0.0010000318831129935,-0.0050000122029651775,1.7363699686294204e-145,1.3765838935812023e-145,3.177565416302566e-147,0.0023391479564303097,1.3194833469398759e-05,0.4356752186261801,-3.126387896477159e-07,7.509641806000904e-08,4.0868428008948066e-07
1669909213899728582,11529,1669909213583439851,,-4.25841388980012,-4.225614657267612,0.5399463312577212,0.001999991703434791,0.0020000319060621725,-0.005000012234566207,0.0,0.0,0.0,0.002752787793028233,0.00039842426165570544,0.43598228639115,-3.1261003861931923e-07,7.515160305705988e-08,4.087060308455429e-07
1669909214135099364,11530,1669909213696858365,,-4.2583049703951925,-4.225311903251667,0.5398268075254654,0.001999991703434791,0.0020000319060621725,-0.005000012234566207,0.0,0.0,0.0,0.0031676142034147148,0.0008411616532413291,0.43597267684415364,-3.1264070560019483e-07,7.522406459809892e-08,4.086918752098908e-07
1669909214135160997,11531,1669909213743411871,,-4.258260380569178,-4.225187600565773,0.5401860307140486,0.001999991703434791,0.0020000319060621725,-0.005000012234566207,8.832818189855141e-220,1.9129390592909276e-218,2.1525084001761365e-222,0.003167599664948284,0.0008411650948900729,0.4359726958811443,-3.1264070560019483e-07,7.522406459809892e-08,4.086918752098908e-07
1669909214135268491,11532,1669909213763945844,,-4.258240703698947,-4.225132774534879,0.5400834569409184,0.001999991703434791,0.0020000319060621725,-0.005000012234566207,-4.661462957000129e-156,-1.4916681462400413e-154,-2.983336292480083e-154,0.0031798425497004956,0.0008587655612863898,0.43593127119267194,-3.126606586708014e-07,7.52484793517725e-08,4.086874064339135e-07
1669909214160113138,11533,1669909213790481171,,-4.258191621579229,-4.224210965924776,0.5398075879750145,0.002999991654046882,0.00400003193581612,-0.005000012307396304,0.0,0.0,0.0,0.0034001768048561587,0.0011129042983597515,0.4356334690410453,-3.1266469278210646e-07,7.52705532512276e-08,4.086501987825537e-07
1669909214160151307,11534,1669909213911140922,,-4.258068558725767,-4.22361908237189,0.539771820982476,0.002999991654046882,0.00400003193581612,-0.005000012307396304,0.0,0.0,0.0,0.0035531967173838552,0.0012884967912754064,0.43513954484835793,-3.126784712935755e-07,7.53023710512612e-08,4.086056250793308e-07
1669909214160192715,11535,1669909213945671175,,-4.258033305057457,-4.223449702265002,0.5401234167735994,0.002999991654046882,0.00400003193581612,-0.005000012307396304,1.178601601124453e-296,5.063671783650282e-295,5.042513653354448e-297,0.003651298490702004,0.0013488699905028767,0.4348709322280957,-3.126786877124644e-07,7.531998954455693e-08,4.0857706250942966e-07
1669909214160311403,11536,1669909213965612199,,-4.258012938880906,-4.2233518858479915,0.5400239193679737,0.002999991654046882,0.00400003193581612,-0.005000012307396304,3.5160347512188004e-145,-8.080991751062491e-144,1.6587181860168626e-140,0.00369581971646582,0.0013689786239243773,0.43475919726956036,-3.1268101653576395e-07,7.531837752546997e-08,4.0856149702261083e-07
1669909214184206929,11537,1669909213994485589,,-4.257811473220572,-4.222738972894366,0.5398361011695464,0.003999991586504204,0.005000031924278324,-0.005000012406998408,0.0,0.0,0.0,0.0038006515505450977,0.0014250029049325263,0.4344649343113538,-3.126750202386825e-07,7.533352297366705e-08,4.0852971859123826e-07
1669909214202451434,11538,1669909214104398672,,-4.257645487707248,-4.222053838602042,0.539777182718648,0.003999991586504204,0.005000031924278324,-0.005000012406998408,0.0,0.0,0.0,0.004170162105985753,0.0015557722977774802,0.4335370032672916,-3.1265125840387637e-07,7.537126915684757e-08,4.084123003271667e-07
1669909214465718235,11539,1669909214150383199,,-4.257575925141816,-4.221767198868581,0.5400532731809512,0.003999991586504204,0.005000031924278324,-0.005000012406998408,0.0,0.0,0.0,0.004386576463838665,0.0015834640034189107,0.43297343830417034,-3.1264016833573877e-07,7.537955932396245e-08,4.083413037988771e-07
1669909214493113391,11540,1669909214189686765,,-4.257516402616749,-4.221522214103434,0.5398573254965708,0.003999991586504204,0.005000031924278324,-0.005000012406998408,-4.582610076166707e-79,-2.586807537221146e-79,1.4659229171685936e-81,0.004655215870615237,0.0015703442585213168,0.4324400969085822,-3.1260212324678554e-07,7.537154364402875e-08,4.082797062277305e-07
1669909214493137211,11541,1669909214218434422,,-4.257651951776262,-4.220955485859312,0.5397716577839905,0.003999991558069823,0.006000031885606894,-0.004000012448929294,0.0,0.0,0.0,0.00471297981046348,0.0015635688762429822,0.43233392945709426,-3.125902159241991e-07,7.536606816833987e-08,4.08272069873581e-07
1669909214494608923,11542,1669909214346898275,,-4.25750980300691,-4.220038411899433,0.5400900183582333,0.003999991558069823,0.006000031885606894,-0.004000012448929294,2.159314212696306e-45,7.997935314837684e-45,1.5015278903174075e-42,0.005395864877792533,0.0014156523960231482,0.4310915592399791,-3.125230724092153e-07,7.533497682708269e-08,4.0810106193671006e-07
1669909214591049539,11543,1669909214394358083,,-4.257455829164892,-4.219700888707642,0.5399262176818181,0.003999991527756546,0.006000031838177563,-0.003000012493630899,0.0,0.0,0.0,0.0057321088584458835,0.0012804319052399649,0.4304328622225526,-3.1249897582521265e-07,7.531838506046172e-08,4.080224500155877e-07
1669909214679309057,11544,1669909214537990224,,-4.257294283679112,-4.21867592863594,0.5397780944927837,0.003999991527756546,0.006000031838177563,-0.003000012493630899,5.098377974193034e-232,-3.3601372895727217e-233,1.0941795259678682e-234,0.006583450914387612,0.000806170031239617,0.42786777360260153,-3.1250124926228106e-07,7.525917662094405e-08,4.076526267008532e-07
1669909215059325413,11545,1669909214598593163,,-4.257990602741614,-4.217629411504345,0.5398631263950808,0.002999991499983806,0.008000031800229184,-0.0030000125345860927,0.0,0.0,0.0,0.006737488703171479,0.0006011474790099669,0.42687990267582876,-3.1253050699571136e-07,7.522562330728427e-08,4.075495277495554e-07
1669909215137527729,11546,1669909214720353686,,-4.25806229164438,-4.2165893044267575,0.5397283458992718,0.002999991499983806,0.008000031800229184,-0.0030000125345860927,0.0,0.0,0.0,0.007005735760969856,0.0002186284440526265,0.4251867144242212,-3.125335792753623e-07,7.519213101400997e-08,4.073680782084097e-07
1669909215137645672,11547,1669909214775686560,,-4.257743347826204,-4.215956434475948,0.5399383826151657,0.0039999914516437056,0.008000031762481203,-0.0030000126058710333,1.824644108014365e-79,1.5346834806380653e-80,2.3715533472583677e-80,0.007138123504986993,6.306584712945096e-05,0.4244196959530129,-3.1255729609145343e-07,7.518680863361831e-08,4.0730695821263157e-07
1669909215138012631,11548,1669909214886928008,,-4.257705097338352,-4.21496005164973,0.539921731367725,0.0039999914516437056,0.008000031762481203,-0.0030000126058710333,6.640434865538159e-223,-2.0945038262886992e-221,-3.406323833748976e-221,0.007177163212197968,-0.00026842062680110246,0.4230842802076751,-3.126607878302161e-07,7.515895126995839e-08,4.071853773106518e-07
1669909215140618257,11549,1669909214923117644,,-4.257692367843525,-4.214635899103153,0.5398152882477415,0.0039999914516437056,0.008000031762481203,-0.0030000126058710333,-1.1533217578140525e-78,2.32373726142909e-79,-1.1974182480849141e-79,0.0070992403607892385,-0.0003668140575356915,0.42264620392732155,-3.127193281132896e-07,7.516438035767374e-08,4.0715709767272924e-07
1669909215149523812,11550,1669909214953356200,,-4.257509735251623,-4.2147442177732275,0.5400240723073046,0.003999991415217092,0.007000031721608096,-0.0020000126595876985,2.464474212078628e-68,-1.925181832276264e-66,-3.893563554462202e-65,0.007068678194331213,-0.0003879193267302128,0.422529786941503,-3.1272990761109155e-07,7.517533364974835e-08,4.071735617103623e-07
1669909215197540584,11551,1669909215082644944,,-4.257409487079973,-4.213705065749125,0.5399731398663303,0.003999991415217092,0.007000031721608096,-0.0020000126595876985,0.0,0.0,0.0,0.006657296859774675,-0.0005416632556265455,0.421730430993307,-3.12890305350043e-07,7.517274294769531e-08,4.071722181398214e-07
1669909215225958189,11552,1669909215138410312,,-4.257365963345734,-4.213256910441927,0.5400666768572271,0.003999991415217092,0.007000031721608096,-0.0020000126595876985,0.0,0.0,0.0,0.006306487575995945,-0.0006224501969480656,0.4214293575552208,-3.1298663045083144e-07,7.517831647121442e-08,4.071952965527957e-07
1669909215258946927,11553,1669909215165455384,,-4.257344835931553,-4.213039567302083,0.5400138909314344,0.003999991415217092,0.007000031721608096,-0.0020000126595876985,-5.833103830654116e-218,-4.1743820443130877e-218,-3.699219642157661e-217,0.0061351951612671485,-0.0006450311029464473,0.42133639684592517,-3.130212491291542e-07,7.51756061188661e-08,4.072126705075758e-07
1669909215604173623,11554,1669909215202495385,,-4.257315899202919,-4.212741943679124,0.5399196110389297,0.0039999913958412596,0.007000031678988968,-0.0020000126881603545,8.262386863516415e-147,-3.6283077841524844e-145,-6.084486445334314e-143,0.006036554608758848,-0.0006577084129339994,0.42127402742580955,-3.130596258873427e-07,7.518334692461418e-08,4.0722450932941923e-07
1669909215617526530,11555,1669909215331338481,,-4.257214689000092,-4.211706740811028,0.5398792856471385,0.0039999913958412596,0.007000031678988968,-0.0020000126881603545,-5.586805991439637e-250,3.5755558345213674e-248,6.983507489299546e-251,0.0048809177329172115,-0.0008889957688147376,0.42088548855570984,-3.133609563307383e-07,7.516395169943082e-08,4.0727319753464547e-07
1669909215617533745,11556,1669909215379608204,,-4.257372174786395,-4.211836353939237,0.5399840321636102,0.002999991396163225,0.0060000316477484125,-0.001000012687685567,0.0,0.0,0.0,0.00467764902495027,-0.0009231537020788494,0.4208475937238738,-3.133943295264889e-07,7.516159609266763e-08,4.072830528009948e-07
1669909215617767091,11557,1669909215495685270,,-4.257338932879895,-4.211057877363651,0.5399657434009373,0.002999991396163225,0.0060000316477484125,-0.001000012687685567,0.0,0.0,0.0,0.003510583456742822,-0.0011014495019505688,0.4209015619745067,-3.136568194838985e-07,7.516508187718816e-08,4.0745164151226693e-07
