%time,field.header.seq,field.header.stamp,field.header.frame_id,field.position.x,field.position.y,field.position.z,field.velocity.x,field.velocity.y,field.velocity.z,field.acceleration.x,field.acceleration.y,field.acceleration.z,field.orientation.x,field.orientation.y,field.orientation.z,field.angular_velocity.x,field.angular_velocity.y,field.angular_velocity.z
1669909748943656068,17543,1669909748562693358,,-3.7243066512121956,-4.307296585765348,0.8305087176555482,0.07600005792681834,-0.042000095481637606,0.04700019696388015,1.6106676357536714e-66,-3.931819601284568e-65,5.32397581256146e-64,0.008708129237820827,0.008963841622405155,0.5027896661766551,-5.188403205794667e-07,1.3114059172134625e-07,6.6755875622143e-07
1669909748958637024,17544,1669909748702800642,,-3.712060604709544,-4.307344572055756,0.8405314624039772,0.07600005792681834,-0.042000095481637606,0.04700019696388015,2.587631751649405e-172,-4.140210802639048e-171,-5.17526350329881e-172,0.009357338270792326,0.009460878293733543,0.5028228340264072,-5.187474898923721e-07,1.3116955584212384e-07,6.676684569291891e-07
1669909748960182946,17545,1669909748754035238,,-3.706533045361619,-4.308338566097075,0.83959263457997,0.0769999848936066,-0.04499994935314862,0.04499997772329085,-8.174812891668444e-67,-5.69981899034263e-67,-9.020477129576561e-65,0.009654778836296174,0.00948581252233538,0.5029554957960958,-5.186999898470834e-07,1.311581013296676e-07,6.677254240561259e-07
1669909749068115599,17546,1669909748924155475,,-3.690132552392045,-4.309352221852909,0.8512144806814226,0.07899991257195271,-0.047999841021189905,0.044000013911298326,-1.5725460863274251e-235,3.931365215818563e-236,5.0321474762477604e-234,0.010925706783355693,0.00925317254151814,0.5037996185313744,-5.185554060814992e-07,1.3109762941315007e-07,6.679299112946649e-07
1669909749148315502,17547,1669909749032343760,,-3.6800774873925497,-4.309797733231651,0.8527875064634549,0.07899991257195271,-0.047999841021189905,0.044000013911298326,-2.217736414912157e-295,-5.32899032826636e-298,2.769264187211994e-296,0.01173610977051709,0.009006827794971528,0.504435110317786,-5.184790722863015e-07,1.310635982023739e-07,6.680623633410999e-07
1669909749180351500,17548,1669909749103231857,,-3.6734885600801896,-4.310088296200706,0.8603070881554604,0.07899991257195271,-0.047999841021189905,0.044000013911298326,-2.031221730069418e-78,2.7966374261693995e-79,3.101763443196952e-78,0.012459453485634597,0.008696099553226588,0.5049313466948409,-5.184055301754262e-07,1.310055302779303e-07,6.68140556287978e-07
1669909749333765642,17549,1669909749146724346,,-3.6711424362072176,-4.310119249821006,0.8589739132500912,0.07599998487649197,-0.04599994955108192,0.04199997769805267,-9.254749020982405e-44,-1.358525491495616e-43,-1.075639628616259e-41,0.012717652354973907,0.008555897413462077,0.5050803845837688,-5.18371307387092e-07,1.309789241804201e-07,6.681642760524894e-07
1669909749523552351,17550,1669909749300343422,,-3.6574356636781653,-4.310692346149198,0.869976245873516,0.07599998477674938,-0.04599994952324653,0.03899997755096683,0.0,0.0,0.0,0.014219844669895565,0.00754798547007951,0.5056782668849387,-5.182076570040765e-07,1.3080728818634254e-07,6.682409617555326e-07
1669909749683939860,17551,1669909749488700191,,-3.640030909458243,-4.311571650037728,0.8794990318956918,0.07699998468986745,-0.046999949482298596,0.03699997742284601,-2.7081385767340974e-156,-1.0918004054788898e-155,-1.3458466287667335e-155,0.015034113149877015,0.006116255414541527,0.5057635986516722,-5.183604843351443e-07,1.3058538224821854e-07,6.682548403697571e-07
1669909749991945770,17552,1669909749651524452,,-3.6250257111695086,-4.310402691579309,0.8796763898879636,0.07999998456646382,-0.042999949392739004,0.036999977240868294,0.0,0.0,0.0,0.013927180026906072,0.004772104675772937,0.5054378678885136,-5.188123039306494e-07,1.3040059673556756e-07,6.682202321341368e-07
1669909750007185902,17553,1669909749776434863,,-3.6136333214828817,-4.310309450247424,0.8890934694677123,0.07999998456646382,-0.042999949392739004,0.036999977240868294,-9.571249526558722e-146,-5.097131844564213e-143,-2.0607955286716023e-141,0.012071197904541364,0.003922696631812883,0.5051390070732378,-5.1936923439329e-07,1.3028740634454277e-07,6.6819681687901e-07
1669909750018309855,17554,1669909749860497683,,-3.6056775292488634,-4.30809528330083,0.8895975046850594,0.0829998926364668,-0.03900007182069545,0.036000007763750785,0.0,0.0,0.0,0.009920922737300941,0.0033795634005286956,0.5049346426866599,-5.198770025700556e-07,1.3025105525406278e-07,6.681896512428334e-07
1669909750100737232,17555,1669909749989999613,,-3.5937939512011137,-4.3073463341205045,0.8910296018577656,0.0829998926364668,-0.03900007182069545,0.036000007763750785,1.567435974996188e-218,1.7675271264778456e-218,9.799529337696375e-216,0.004702768323745943,0.002629797140169643,0.5045688733507632,-5.209080645761541e-07,1.30237759506732e-07,6.681555208202758e-07
1669909750222137749,17556,1669909750071773999,,-3.5850162721340064,-4.3056717731758605,0.8989238947353626,0.0869999232893151,-0.03799996456821828,0.03599997722103346,0.0,0.0,0.0,0.0024694449073496827,0.0025070679422611875,0.5043987505650378,-5.212646401359785e-07,1.3025777324107704e-07,6.681384661708148e-07
1669909750368688254,17557,1669909750199632359,,-3.5729178846307446,-4.304549005308474,0.9013153452280165,0.0869999232893151,-0.03799996456821828,0.03599997722103346,0.0,0.0,0.0,-0.002684271522673143,0.0023848812279805287,0.504010201395948,-5.221454128104213e-07,1.3029458827432716e-07,6.681243979575911e-07
1669909750437136388,17558,1669909750248264361,,-3.56613118236104,-4.303419628112793,0.8991869801775186,0.09199998472484583,-0.038999949185583256,0.03399997747442703,1.2405279441760032e-232,-1.6862834340295452e-232,-2.622218733000611e-235,-0.003747893443835082,0.002395853559832517,0.5039299002797701,-5.222194702642966e-07,1.3032222106179696e-07,6.681222978955208e-07
1669909750516283623,17559,1669909750422341453,,-3.5488306957543387,-4.3015986479245845,0.9105210176768952,0.09199998472484583,-0.038999949185583256,0.03399997747442703,0.0,0.0,0.0,-0.007244406175024309,0.0027146264683786114,0.5037127733808582,-5.225246045097329e-07,1.3040898305533826e-07,6.681900655680385e-07
1669909750666147644,17560,1669909750486407552,,-3.540732457932326,-4.30311934559831,0.910402259442192,0.0929999852635838,-0.044999949096567106,0.03199997826887934,3.3735033418337674e-80,3.3735033418337674e-80,0.0,-0.008120176591937422,0.0029139248707981125,0.5037987571244056,-5.225917334279753e-07,1.3048406098879746e-07,6.682564177941968e-07
1669909751033140615,17561,1669909750638775458,,-3.5230939986906917,-4.303818560044943,0.9185881725587891,0.0949999856935031,-0.0499999490672406,0.030999978902861706,5.336736769515385e-296,3.184152743181736e-296,2.4641097569148707e-294,-0.008544358419548814,0.0035765736027695283,0.5038756313851547,-5.224988032946024e-07,1.3063687250451598e-07,6.682358912637783e-07
1669909751052373319,17562,1669909750803406842,,-3.5054259881217504,-4.303434944989037,0.9211351774536478,0.0949999856935031,-0.0499999490672406,0.030999978902861706,4.908422839038418e-220,-1.0041800167615398e-221,-2.1536380363115293e-218,-0.0062247935150132605,0.004235752138777471,0.5028826578019299,-5.219328205143303e-07,1.307460675713339e-07,6.680110851682707e-07
1669909751177914367,17563,1669909750912345143,,-3.4922807955754323,-4.304764431943877,0.9301402325162824,0.09599998613128789,-0.05399994902990183,0.02999997954844297,0.0,0.0,0.0,-0.004044404325259876,0.004549327999583852,0.5018483063704053,-5.214712947224905e-07,1.3081132558560354e-07,6.677975143028203e-07
1669909751433530389,17564,1669909751140944248,,-3.465932744389033,-4.307136775874101,0.9385615102808732,0.09599998623187453,-0.0579999490236262,0.029999979696773493,0.0,0.0,0.0,0.003173769091301182,0.005211204761991439,0.49744323447044536,-5.204155715811265e-07,1.3092200382155996e-07,6.66999013367652e-07
1669909751555618040,17565,1669909751327199528,,-3.4452988385854746,-4.307657360150388,0.9416687475020334,0.09599998611346196,-0.05699999351277606,0.027000112764625755,0.0,0.0,0.0,0.006684940624039015,0.005377005377882327,0.4930603269463081,-5.201410726779322e-07,1.3095533859278532e-07,6.662515257330712e-07
1669909751740381809,17566,1669909751527677870,,-3.424196954398801,-4.306290111105455,0.9415780585108499,0.09599998537775846,-0.050999949372981,0.023999978437247497,0.0,0.0,0.0,0.00871882313999528,0.005223570796367483,0.48686895782055295,-5.201027899333155e-07,1.3090174288027884e-07,6.651615648963025e-07
1669909752087879195,17567,1669909751716576991,,-3.403086797444828,-4.305637531619766,0.9509058045079629,0.0979999851361675,-0.04999994952029547,0.021999978080984334,-7.427150654786534e-219,-1.1571215727209295e-217,-8.703278422812601e-216,0.00825460797798172,0.00443672588513877,0.479975532152217,-5.205250307935061e-07,1.307257677429468e-07,6.640958310587616e-07
1669909752109173709,17568,1669909751848516186,,-3.388551198797826,-4.305564143161827,0.9495482654510119,0.0979999851361675,-0.04999994952029547,0.021999978080984334,6.093304177004052e-307,3.064675300522915e-307,0.0,0.005984750296539332,0.003470676045662202,0.47456967133128103,-5.21167234436335e-07,1.3057229861893405e-07,6.633532677414032e-07
1669909752120356444,17569,1669909751926446318,,-3.380377520017189,-4.3047662245282545,0.9511587100146048,0.09799998495602183,-0.04799994971854637,0.02099997781533173,2.4487367145018314e-296,2.0643073181693586e-293,4.404167608016925e-292,0.004493859741165451,0.0029829435056178966,0.47251566686631286,-5.21472763318238e-07,1.3048530616822267e-07,6.631480385260952e-07
1669909752305850259,17570,1669909752103644673,,-3.3621756668792884,-4.305076455657577,0.9605993104323192,0.0949999849483903,-0.047999949892714604,0.01999997780407786,0.0,0.0,0.0,-0.0003683026247340848,0.0011656855481767536,0.46703727258718253,-5.224092689817098e-07,1.301668026286003e-07,6.623513911258636e-07
1669909752483523984,17571,1669909752272693479,,-3.3423890987208176,-4.305704271079666,0.9601616799472001,0.09799998510065866,-0.0509999499771387,0.019999978028621062,2.2936490595497355e-65,4.014569322761622e-65,7.976064574968237e-63,-0.004171577772417834,-0.0010178410261261206,0.46274323488738567,-5.229722143052092e-07,1.2978471295777894e-07,6.618295326230288e-07
1669909752583623455,17572,1669909752445499011,,-3.3233170128301217,-4.306046839961372,0.9693993921170163,0.09799998510065866,-0.0509999499771387,0.019999978028621062,0.0,0.0,0.0,-0.006931436664579849,-0.003943321489462193,0.4595473114095814,-5.23385027419791e-07,1.2928229584809655e-07,6.615864721535851e-07
1669909752751526235,17573,1669909752556622405,,-3.309745153959168,-4.309784566260048,0.969899782939218,0.09700002541850401,-0.05899979137479478,0.01899997902350318,-3.67383352925054e-139,-2.874203388531564e-139,-1.398172010764669e-139,-0.008069669933263413,-0.0060208750196331096,0.4588120440548593,-5.233541410313539e-07,1.290346396848088e-07,6.617485406217366e-07
1669909752861865483,17574,1669909752713354515,,-3.2912403114751467,-4.313799539900868,0.9709656966134753,0.09600008214686723,-0.06599927746033409,0.018999979492952183,0.0,0.0,0.0,-0.007798062811371409,-0.009186759558177826,0.4592617198014377,-5.231494176177353e-07,1.2854764395722184e-07,6.620989489071809e-07
1669909753141584207,17575,1669909752834567904,,-3.277291232617239,-4.315801823389537,0.9791397260721756,0.09600008214686723,-0.06599927746033409,0.018999979492952183,-3.4544380051978577e-155,6.213665454172711e-155,-1.3206036801506257e-175,-0.006425649290246582,-0.010516308923156359,0.4602708338241257,-5.227674174200252e-07,1.28427836548848e-07,6.623758132014602e-07
1669909753160266995,17576,1669909752912569621,,-3.268315261812363,-4.317089477145522,0.9807388747724464,0.09600008214686723,-0.06599927746033409,0.018999979492952183,-1.5969771942806445e-77,-1.5430556498797483e-80,-2.777915390912535e-80,-0.0030158939359257175,-0.011597214285169244,0.4622786203329792,-5.22154092277506e-07,1.283952813168173e-07,6.627421496647244e-07
1669909753160269402,17577,1669909752965548296,,-3.2618027652804122,-4.3187872204244675,0.9798202670092248,0.09599998629645558,-0.0679998499960439,0.019999929978580924,3.1604427013227995e-63,2.927193501710206e-64,1.0383492722164028e-61,-0.002499438767188167,-0.011893402935074349,0.46261249599407606,-5.219438798380768e-07,1.2834050357572313e-07,6.628890561059889e-07
1669909753282555219,17578,1669909753118583966,,-3.2434698340338652,-4.322696629057212,0.9838285461758747,0.09599998641139972,-0.0709998257603604,0.020999938775924046,1.8350938368082512e-147,8.334103787405915e-148,3.4491580353947066e-146,0.0030729206143025323,-0.012122717941394967,0.46552788656512334,-5.210430719065109e-07,1.285670073818912e-07,6.633825249468503e-07
1669909753521021816,17579,1669909753256766369,,-3.227079037163849,-4.325868168792542,0.9893344300968684,0.09599998622787605,-0.07199989883451054,0.025999728977846227,1.8974012653554181e-78,2.4571484253440293e-78,-6.353406931873503e-78,0.00895986565404705,-0.01064653523543413,0.46865352627301426,-5.203488661603085e-07,1.2902180636424342e-07,6.639022985666778e-07
1669909753533824570,17580,1669909753378705966,,-3.2126829346199557,-4.328447589746741,0.9979741543978391,0.09599998622787605,-0.07199989883451054,0.025999728977846227,3.874730369099411e-142,8.318837983072828e-143,3.085653462441847e-140,0.01206704459587371,-0.008616415495675156,0.47082912082609774,-5.200243344557375e-07,1.294373437412858e-07,6.642154561115722e-07
1669909753580221019,17581,1669909753419227905,,-3.210540920558297,-4.328442922448712,0.9992788920600456,0.09100020068130973,-0.06700016360025639,0.028999850341167584,6.9149478931455545e-220,1.627915298517247e-218,1.001930016236351e-217,0.012575153859714305,-0.00823260370403922,0.47115842054889434,-5.199909338627174e-07,1.2952981955953292e-07,6.642524575317119e-07
1669909753681700654,17582,1669909753546250726,,-3.1973720329229436,-4.3304995272867455,0.9989701431028534,0.08900007054296177,-0.06500003393213435,0.028000021043106654,1.2668874197735973e-78,2.4561923511100175e-78,-8.117443782171264e-78,0.014857374290848213,-0.006177256125763364,0.4722897677910787,-5.197354454213908e-07,1.2988624556320557e-07,6.643232333718026e-07
1669909753760816690,17583,1669909753656246797,,-3.185396381475197,-4.332462160053193,1.008980684524513,0.08900007054296177,-0.06500003393213435,0.028000021043106654,5.876597451161006e-216,4.1730176271749384e-215,1.721297529834407e-214,0.016298912204115723,-0.0050162397698727546,0.4725516198287032,-5.195820926878521e-07,1.300130467606019e-07,6.64334485183653e-07
1669909753817799376,17584,1669909753733316083,,-3.1770025396279067,-4.333836705782895,1.0110915119350579,0.08900007054296177,-0.06500003393213435,0.028000021043106654,-2.8500532658098606e-155,-9.315130321925723e-154,-2.5031774442782462e-154,0.017671329314898898,-0.0038772396649058294,0.472708118640897,-5.194662153498565e-07,1.3015566373692056e-07,6.643358377887823e-07
1669909754190277971,17585,1669909753776744308,,-3.173553472263129,-4.33479986796084,1.010348429645885,0.08599998495875771,-0.06399994894017969,0.02699997781936621,-4.586656837315755e-67,-1.233547316076042e-65,-5.268621303994811e-64,0.018843420606462047,-0.0028737425258729132,0.47275351824157674,-5.193377024435176e-07,1.30334143446723e-07,6.642616686355902e-07
1669909754203956933,17586,1669909753974639472,,-3.153421552729582,-4.337837212697355,1.0192414553194658,0.08499998467777505,-0.06199994912378626,0.027999977405013875,3.911105435327599e-293,1.3322346552842783e-293,4.668885314243871e-292,0.020802035733915147,-0.0009447941486886435,0.47109223832004865,-5.191847686452781e-07,1.3063479556498448e-07,6.63773670671023e-07
1669909754276734708,17587,1669909754110830926,,-3.142405899786167,-4.339476283967843,1.0219649343915436,0.07899998440551813,-0.0569999493450352,0.02799997700352903,0.0,0.0,0.0,0.02197032610862415,0.0005698657512898109,0.4674247501643869,-5.191496964553093e-07,1.3081978227207395e-07,6.630459971262092e-07
1669909754429692117,17588,1669909754254625246,,-3.13091649097177,-4.340677328584572,1.019227737117939,0.0749999842128988,-0.05199994953221542,0.0269999767194821,-2.0853057323008302e-44,-3.280527062164016e-43,-1.4508667751164806e-41,0.022639631864757703,0.0014966675208043512,0.46305613357795394,-5.191747049496228e-07,1.3092878519813062e-07,6.622106934188815e-07
1669909754593259833,17589,1669909754402373135,,-3.1189851436995286,-4.342508539884456,1.0292157028956537,0.0719999840852853,-0.04999994972264668,0.025999976531296272,0.0,0.0,0.0,0.02277155711477441,0.0020501696796806357,0.4577373046070541,-5.192998412291683e-07,1.3097294771267998e-07,6.61317620650246e-07
1669909754773106309,17590,1669909754559698001,,-3.1067821004165013,-4.344477046115789,1.029399488219951,0.06899998398041984,-0.04799994997153428,0.02599997637665598,-3.732524818897402e-140,-6.864911137786186e-139,-1.0577542740464536e-138,0.021969315334416706,0.002466632094046517,0.4506517719979719,-5.196445954891437e-07,1.3102395974236424e-07,6.600745473469475e-07
1669909754895538432,17591,1669909754745057254,,-3.094540393486703,-4.34560714074241,1.0325678061817465,0.06400071249555062,-0.04200082449944385,0.025999976284505524,0.0,0.0,0.0,0.020283486531376127,0.002797393543630733,0.44304044971369194,-5.200540160353454e-07,1.3108248120951678e-07,6.588907872987865e-07
1669909755259937098,17592,1669909754862811620,,-3.0876031251438585,-4.347041949658992,1.0391328739692949,0.05899998391467118,-0.03999995048657988,0.02599997627969943,-5.5708002271115276e-139,-1.0867507561394322e-141,-3.0537288296824375e-140,0.018970826780439154,0.002897784304028761,0.4382266528533556,-5.203054642884195e-07,1.3107116905693168e-07,6.582093842998125e-07
1669909755298913158,17593,1669909754991997101,,-3.079717955027789,-4.348701549329747,1.0401172986923002,0.056000115361356545,-0.03899999444439307,0.02599997634820159,0.0,0.0,0.0,0.017931372168245474,0.0028866022342199926,0.43366539016613004,-5.204558562902453e-07,1.3106327026982662e-07,6.575142167754832e-07
1669909755298992458,17594,1669909755113657701,,-3.071513408743939,-4.35020560896943,1.0411836507407002,0.056000115361356545,-0.03899999444439307,0.02599997634820159,5.061963141029399e-145,-5.8767646071554374e-145,-1.316027344990471e-142,0.01719613796373487,0.002668159336614906,0.427885840759453,-5.205523511462961e-07,1.3099872064919256e-07,6.566395641131016e-07
1669909755299118945,17595,1669909755157338832,,-3.0685701664719423,-4.350756844741083,1.042283343655491,0.056000115361356545,-0.03899999444439307,0.02599997634820159,-4.69166313564052e-154,-1.6884583547419121e-153,-3.9063569263191156e-155,0.017137206073480016,0.0025723186475303805,0.4267067165963816,-5.205496512797762e-07,1.3097205506569855e-07,6.564738690548452e-07
1669909755365012696,17596,1669909755188427575,,-3.068993916100309,-4.35052856784978,1.0485909127704687,0.051000274359722986,-0.03500018309852477,0.024000092651345402,4.3809261135253494e-68,-2.4096012906497174e-65,-4.126832488176097e-63,0.017111220170601626,0.0024264055888405522,0.42540119593130576,-5.205779241162473e-07,1.309329547950506e-07,6.562135462323461e-07
1669909755451549650,17597,1669909755333496577,,-3.0601306549369314,-4.3521643257958615,1.0512331785720788,0.051000274359722986,-0.03500018309852477,0.024000092651345402,2.0121503525875773e-79,4.2491526056516153e-78,6.339358722292201e-79,0.017368359520574472,0.0015537696067937645,0.42096031903930786,-5.205615563542056e-07,1.3077273515275185e-07,6.556632284903511e-07
1669909755635145880,17598,1669909755408536096,,-3.05793408601731,-4.354629620820338,1.050771200324435,0.04499998421405401,-0.035999951036500895,0.023999976721185645,1.3317900304803817e-146,1.5763998659991213e-144,-2.90611401287302e-144,0.01760004822746275,0.001029343523693882,0.41918616134923425,-5.205542571916686e-07,1.3069112515732866e-07,6.554759582962883e-07
1669909755756554815,17599,1669909755576086606,,-3.051198930363557,-4.357251290409296,1.0593813581571851,0.03999998429748627,-0.033999951182622785,0.02399997684421938,-5.016926206940602e-67,-1.647876970530581e-64,1.6660057776420873e-63,0.01807759215334137,-0.00025365918599007387,0.41685259226084526,-5.205420750630344e-07,1.304729394144677e-07,6.55299020411091e-07
1669909755903676198,17600,1669909755734223252,,-3.0454883342860466,-4.360686652653086,1.0608252759974284,0.034999984330742195,-0.03399995126211794,0.023999976893260378,1.55880527097674e-80,-2.4203460172479512e-80,-3.4767025655101083e-81,0.018481862763184864,-0.0012901906236546523,0.41577307633527383,-5.205863942178674e-07,1.3036175348210732e-07,6.552243116143881e-07
1669909756003072429,17601,1669909755855898605,,-3.0420092925920232,-4.362689751521291,1.0613530621937293,0.03099998432807783,-0.031999951284053696,0.021999976889331363,1.0301739633323478e-297,-1.6817639066461345e-295,7.628756801963657e-293,0.01844058546008931,-0.0023951721791437564,0.4149890308666784,-5.207177263340079e-07,1.3021143973346735e-07,6.551503011423776e-07
1669909756291630155,17602,1669909755970252354,,-3.0389974725984295,-4.363981405858024,1.0686178349233848,0.028000123693723657,-0.02900009063879036,0.021000023332483884,0.0,0.0,0.0,0.01844627744583427,-0.003234229277879308,0.4143058600692715,-5.207590415344402e-07,1.3009329512097032e-07,6.550098138265685e-07
1669909756305413699,17603,1669909756099856569,,-3.035456689573546,-4.366125819695533,1.0699592861117386,0.025000126465725636,-0.027999998598779656,0.020000024235263404,0.0,0.0,0.0,0.018338073779208486,-0.004031633610544816,0.41332495980995354,-5.208764074247421e-07,1.2999682729150356e-07,6.547895986906498e-07
1669909756392414327,17604,1669909756231510355,,-3.03269441027202,-4.367810509993016,1.0704901824614508,0.021000235025271933,-0.02500013917408431,0.018000102220321536,-2.3435693401408902e-154,-1.664523638931116e-154,-4.1875961884661824e-155,0.017983689236988454,-0.005145092958208863,0.41098831460114305,-5.209980195763279e-07,1.2986541705637508e-07,6.54339618409869e-07
1669909756436156500,17605,1669909756359055270,,-3.028959552719256,-4.36970622465638,1.0709806663529142,0.021000235025271933,-0.02500013917408431,0.018000102220321536,-4.101540049527942e-231,-2.6953826411129796e-231,1.8397747390694293e-232,0.018012829785693185,-0.005603048603960659,0.40933467183974237,-5.210562878503814e-07,1.2983598161236513e-07,6.540615784956617e-07
1669909756463956662,17606,1669909756401942601,,-3.0277046142376864,-4.3703451545488665,1.0699545913109132,0.021000235025271933,-0.02500013917408431,0.018000102220321536,0.0,0.0,0.0,0.01798139959525713,-0.005720621068990184,0.408614549099223,-5.211029172499337e-07,1.2984367981001068e-07,6.53942855341571e-07
1669909756665021131,17607,1669909756429242423,,-3.0285478312096217,-4.371029254390072,1.0704368139113922,0.017000187338543492,-0.02400000185747513,0.017999976898923024,0.0,0.0,0.0,0.017981388658796504,-0.005719812520176504,0.40861543528773225,-5.21099741780016e-07,1.298480212029043e-07,6.539506159302325e-07
1669909756695067817,17608,1669909756558212399,,-3.0264171687739347,-4.371434657673572,1.0798429893984816,0.01600003405254029,-0.01900019947658742,0.017000026621643127,-1.1786168191647862e-217,-8.209878598651676e-219,-1.455272360390422e-216,0.017779376009439574,-0.005755722936498842,0.4065471564179699,-5.212177304610895e-07,1.2992555670858634e-07,6.535866265904642e-07
1669909756797386273,17609,1669909756670273074,,-3.0239258771942716,-4.372718172525085,1.0813945588286549,0.01600003405254029,-0.01900019947658742,0.017000026621643127,0.0,0.0,0.0,0.017372600644275593,-0.005375349869982671,0.40444169113581907,-5.213853644273498e-07,1.3006401091023746e-07,6.532343004026209e-07
1669909756852365230,17610,1669909756762175873,,-3.021884342436208,-4.37377372376874,1.0818601045109935,0.01600003405254029,-0.01900019947658742,0.017000026621643127,-4.1111115256895865e-274,-5.505301026349367e-273,2.2849816907526743e-276,0.016807947709422066,-0.004728154111948157,0.40251549778866647,-5.215518704716279e-07,1.3022620242481157e-07,6.529386647901857e-07
1669909757084407765,17611,1669909756817271349,,-3.0225375363562628,-4.3725290669410235,1.0807609948658101,0.01400008576142375,-0.01400020452795292,0.016000027666336257,-3.0308570393705424e-81,1.836073776191752e-80,1.2675964164459124e-80,0.016505137366490175,-0.0043144105040440195,0.401573553870362,-5.216265031657103e-07,1.3031696518386284e-07,6.527932695201689e-07
1669909757455900244,17612,1669909757057128341,,-3.0205269791613696,-4.374791219375052,1.0807595052640064,0.008999984403617284,-0.012999951227995429,0.013999977000725949,-1.1078455346934522e-155,-1.3803821460688697e-156,6.400248505264033e-158,0.015727907390312268,-0.0025638976856594553,0.39863416289803766,-5.2183748900388e-07,1.306600242674864e-07,6.523938365110224e-07
1669909757472496722,17613,1669909757235347104,,-3.0187455200079842,-4.376083624152235,1.0803049885081981,0.00800003335536527,-0.012000000282447233,0.012000074889289496,-9.728096227685244e-110,3.654648814242035e-107,4.536393692189363e-106,0.014911775139374583,-0.0014746465020589739,0.39718586194693906,-5.221128096194325e-07,1.3082914524638972e-07,6.522389426062957e-07
1669909757490101330,17614,1669909757368378361,,-3.0171397701225917,-4.377166713567052,1.0887248159988772,0.00800003335536527,-0.012000000282447233,0.012000074889289496,-1.3138660809360352e-186,-4.9299931564622327e-185,-2.1496452383076943e-182,0.013558388467979299,-0.0004342668630563651,0.39609847839163237,-5.224530165977884e-07,1.3103781031592935e-07,6.520821285608158e-07
1669909757928880946,17615,1669909757460457199,,-3.018245771235806,-4.37775512896968,1.0898070936888737,0.004000246247698226,-0.01000008242882047,0.010000107983741093,0.0,0.0,0.0,0.013044107187944576,-7.875452593886223e-05,0.39570825891356165,-5.225642648911948e-07,1.3107669846806905e-07,6.52015103977127e-07
1669909757940059633,17616,1669909757666100141,,-3.0197514832242645,-4.379422910799156,1.0900582140165334,-0.002000015483243167,-0.007999951759490578,0.005999977167567681,3.020185185816711e-69,4.012579426855416e-68,-4.4160232166664016e-66,0.010996487359557605,0.0005694187520504101,0.39408422381004904,-5.230124666422858e-07,1.311463747226068e-07,6.517404136990887e-07
1669909757990058189,17617,1669909757834023141,,-3.0208638939613173,-4.38089382864925,1.0903716894221618,-0.00500001541714424,-0.006999951851690986,0.004999977265040752,1.2429411429619062e-155,-8.91908347886691e-157,-7.38858520683596e-158,0.009474809206729162,0.0008562130858216221,0.39296470633185265,-5.233086888923498e-07,1.3120914574200638e-07,6.516104078687973e-07
1669909758130935797,17618,1669909757968440545,,-3.021650492294982,-4.381804422617526,1.090034762215349,-0.005999961679144095,-0.006000005594720736,0.004000031042590141,-5.639326839071203e-70,6.3240517421157874e-68,7.145733575480063e-66,0.008614197261589851,0.0008904348956928487,0.3925151829406861,-5.234604194208394e-07,1.3121839172533532e-07,6.515817638824788e-07
1669909758257682147,17619,1669909758106668915,,-3.0224658060004335,-4.383028980207585,1.08999865860956,-0.007000015231448845,-0.0059999519912419825,-2.2461122721301376e-08,0.0,0.0,0.0,0.007928444174448046,0.0007642899101139022,0.39216336416364683,-5.23597741263444e-07,1.311916803931258e-07,6.515495430129253e-07
1669909758447513957,17620,1669909758230133305,,-3.02332133092797,-4.384177864928604,1.0900808418715646,-0.008000015144433804,-0.005999952025907457,-0.0020000223328056096,3.763361542623698e-156,7.065050186339964e-156,1.392870430766156e-155,0.007351884493902006,0.00044554312398048523,0.3918686962447602,-5.23731270974388e-07,1.3114856607639884e-07,6.515205918726241e-07
1669909758519254548,17621,1669909758405678429,,-3.024218161809311,-4.385685249524381,1.0899083184625957,-0.008000015144433804,-0.005999952025907457,-0.0020000223328056096,-4.510109504243893e-220,-5.692441241305178e-220,-1.9333281773005216e-218,0.0075498010185626185,-0.00017964926907154677,0.39167591024490633,-5.23635022259391e-07,1.3104423226528517e-07,6.515079060785103e-07
1669909758957442891,17622,1669909758486723321,,-3.0252840257977986,-4.387121938053485,1.089890835105982,-0.01000001505759765,-0.006999952029930601,-0.004000022204752293,8.704507070792338e-68,2.364729380719513e-67,-1.6260366099469767e-64,0.007827570334690392,-0.0004241713730568364,0.39163905349016304,-5.2357655753629e-07,1.309913791088452e-07,6.515063318758892e-07
1669909758992241185,17623,1669909758645673689,,-3.0271652051076114,-4.389088961438624,1.0901630194594252,-0.011999909547864385,-0.006999952024587177,-0.005999916670679506,-1.2432927372339355e-79,5.3626972943350225e-79,2.6194030346618225e-79,0.009589296001671244,-0.001470122385848427,0.39139670501413804,-5.232705527893821e-07,1.308300088488963e-07,6.514549413498593e-07
1669909759042777642,17624,1669909758818573309,,-3.02968040257909,-4.39090798219859,1.0896064890733903,-0.013999910507712321,-0.006000004223407957,-0.006999969845201542,-2.2967634250095294e-221,1.0128103496038524e-223,-2.681726979692392e-220,0.011722869290627713,-0.0025569621091658945,0.3911006285381582,-5.230486359188525e-07,1.3070593753044593e-07,6.514329819860996e-07
1669909759644347650,17625,1669909758995894902,,-3.0313829036801954,-4.393278760852304,1.079879312742555,-0.014000015001101925,-0.006999897205058081,-0.007999967385520147,0.0,0.0,0.0,0.013749450872397873,-0.0035844786825514063,0.39074220214052957,-5.227969031805322e-07,1.3055534738959938e-07,6.513604452390695e-07
1669909759644439975,17626,1669909759236171544,,-3.03488506703462,-4.394736497013115,1.0792299212088312,-0.015000015224141528,-0.003999951842901113,-0.010000022450346955,0.0,0.0,0.0,0.016660972135328578,-0.004960845334402109,0.38947001141940163,-5.22564210367869e-07,1.3043722984877741e-07,6.511305303647932e-07
1669909760063732651,17627,1669909759474675397,,-3.038039667900134,-4.396435395143931,1.079827404374563,-0.015000015342849855,-0.0030000044431480423,-0.010999969986172756,5.338702066920679e-146,2.7505625303402964e-145,8.159030005888074e-144,0.017544381079462212,-0.005402826498071889,0.38777008473892494,-5.226713488791135e-07,1.3045448196484817e-07,6.508314270081044e-07
1669909760109705323,17628,1669909759662691297,,-3.0408465435813876,-4.396583823644604,1.0799591501607384,-0.015000015572256949,4.8228742183503314e-08,-0.013000022963696884,0.0,0.0,0.0,0.017703792890850778,-0.005314922054063587,0.385978390433813,-5.227325709328064e-07,1.3055572952021634e-07,6.505435115410493e-07
1669909760109728105,17629,1669909759833742822,,-3.043228563222508,-4.397507216147873,1.0705253395982695,-0.015000015628800208,4.8202069312529425e-08,-0.013000023047078651,-2.0169302593456346e-143,-9.84640248733174e-143,-4.661026809695446e-144,0.017860492354650148,-0.004873065611789684,0.38464014718636896,-5.227598875165963e-07,1.3067175649256288e-07,6.50336615380323e-07
1669909760604694557,17630,1669909759950722446,,-3.044859571218395,-4.398136258489435,1.0702882107013203,-0.015000015645359653,4.815583251103001e-08,-0.013000023071498109,-4.2354564372331565e-79,5.349378438717112e-79,1.119979660433016e-79,0.018141468034329478,-0.004136029394867791,0.38308617928721844,-5.227758773381451e-07,1.3083213646162476e-07,6.501316922956553e-07
1669909760634236798,17631,1669909760120954888,,-3.0472356822795104,-4.399049128665649,1.0693443460820031,-0.015000015667636273,4.809396486291964e-08,-0.013000023104348422,0.0,0.0,0.0,0.01832096130689287,-0.0029979437333764736,0.381661305556964,-5.228680892301993e-07,1.310097317240492e-07,6.500292998246307e-07
1669909760650707664,17632,1669909760298575207,,-3.049489778303887,-4.399461993043034,1.0683010959655905,-0.01400001569796161,0.0010000480054507441,-0.013000023149067811,-7.533321188835448e-150,-6.663718371888254e-148,-2.572961333874452e-147,0.01790151972589271,-0.0020708300152065817,0.3807303212284143,-5.230582612630529e-07,1.3118116277456795e-07,6.499464851805328e-07
1669909760658051095,17633,1669909760424899825,,-3.0516923230147723,-4.399757108074734,1.0689733379165083,-0.015000015741751454,0.0020000479041421943,-0.013000023213642698,0.0,0.0,0.0,0.017421835755190074,-0.0015632828056144632,0.38021544913058847,-5.232510713763846e-07,1.3125230537256893e-07,6.499062986323357e-07
1669909760707119209,17634,1669909760562101705,,-3.0534023117358338,-4.400105165903436,1.0601934099499315,-0.014000015750269304,0.0020000477908875586,-0.014000023226203582,1.2729011696931617e-79,9.359958167191356e-79,-5.917801801976161e-81,0.016813950379896525,-0.0013534655507552174,0.3798855885576007,-5.234166093331647e-07,1.312605846487667e-07,6.498816736476251e-07
1669909760741845368,17635,1669909760676608182,,-3.05498387888078,-4.4004612427218515,1.0598924160063439,-0.014000015750269304,0.0020000477908875586,-0.014000023226203582,-1.3796191003950974e-155,8.061590172680125e-156,-4.556773968945554e-159,0.016277023713229255,-0.0014639085912051542,0.3796460931489847,-5.235474106117173e-07,1.311991649557756e-07,6.498761241757364e-07
1669909761006366075,17636,1669909760712897557,,-3.055485038609638,-4.400574152028007,1.0593848805964994,-0.014000015750269304,0.0020000477908875586,-0.014000023226203582,-1.500852727348973e-80,4.6756168455456207e-79,7.11873039883818e-80,0.015946087324564928,-0.0016801918770195101,0.379542682605134,-5.236319828563666e-07,1.311530130569112e-07,6.498788860702313e-07
1669909761033914514,17637,1669909760768653986,,-3.05625668706003,-4.400741366483249,1.0598770414369807,-0.014000015731731898,0.00200004772563029,-0.014999973578690864,6.588873714519077e-83,4.2168791772922093e-81,2.698802673467014e-79,0.015735747191991223,-0.00189005802619846,0.3794704794979289,-5.236794684647258e-07,1.3111540311550496e-07,6.498719599696697e-07
1669909761165919975,17638,1669909760962143619,,-3.060304146314373,-4.40142072474342,1.060140881992696,-0.017000015698444,0.003000047677193267,-0.015000023149779171,-5.3885902248586066e-79,-2.292003767896892e-79,5.334314552187656e-80,0.01521012489363649,-0.0028882596659016713,0.3794982963989213,-5.237913771844394e-07,1.3093415256390413e-07,6.500010233713061e-07
1669909761535635610,17639,1669909761133219040,,-3.0631999085254464,-4.401990610094426,1.0605843288950243,-0.017000015628726932,0.0030000476767111837,-0.014000023046970591,-1.3565416839380126e-231,2.839311363276327e-233,1.0013540285518104e-253,0.01477722184316832,-0.0042537968234412915,0.38075849200374634,-5.239441056102875e-07,1.3070794258755362e-07,6.503748286695768e-07
1669909761556041998,17640,1669909761279480812,,-3.0647453228821075,-4.403585828475551,1.0511901381447477,-0.016000015568222607,4.771664403402714e-08,-0.012000022957747625,-6.168632603106226e-144,3.244552712653533e-144,3.3308586704849036e-142,0.014388454413674978,-0.005997389164202005,0.38294385437992773,-5.240448823097878e-07,1.304797531720485e-07,6.507792091399835e-07
1669909761587351531,17641,1669909761430403641,,-3.0665599257318275,-4.40430025699728,1.0503592889553428,-0.01500001552033061,4.7801493708604504e-08,-0.011000022887123482,-1.363355781474219e-79,-1.2769614961759928e-78,1.2652441538564784e-78,0.01370436168812006,-0.008155914040301582,0.38616974591397124,-5.243084673121591e-07,1.3013425151493325e-07,6.514900278536875e-07
1669909761750607357,17642,1669909761566368914,,-3.068036840678245,-4.4048877540851334,1.0499432805299138,-0.014000015470409306,4.7937162163173684e-08,-0.010000022813506811,-4.846787837665999e-66,-9.05922892468116e-66,1.1889998246406833e-63,0.013162933849429237,-0.009288615657265353,0.38846145917429276,-5.244702946350024e-07,1.2998223625978968e-07,6.519234934399465e-07
1669909762099675085,17643,1669909761720654018,,-3.069722823758786,-4.406442673773926,1.0494616759269313,-0.014000015404302714,-0.0019999518464423635,-0.009000022716022434,0.0,0.0,0.0,0.012023456778143427,-0.01105163393279085,0.3930530515040971,-5.24732266138716e-07,1.2981528194548074e-07,6.527751037235124e-07
1669909762124315268,17644,1669909761864060995,,-3.0710921045725557,-4.407313116101224,1.050048829630429,-0.0130000153373273,-0.0019999516360449518,-0.008000022617256847,9.263375462452886e-144,1.8199486741285452e-142,4.8737409205446656e-141,0.01123684276470982,-0.011771167552332429,0.3966096642386532,-5.248866988909414e-07,1.2979044485473364e-07,6.533777828934525e-07
1669909762187365511,17645,1669909762004950537,,-3.0725184056025814,-4.408637203887973,1.049799644592706,-0.01300001525836732,-0.0029999027277964538,-0.0060001198930639335,1.4188500932494757e-157,3.5777983681986625e-156,-7.2045362680353186e-158,0.010653500263577698,-0.012168355335681724,0.40140968620724493,-5.249710195588468e-07,1.298458073509271e-07,6.541581375896809e-07
1669909762255627202,17646,1669909762142437416,,-3.073995139899618,-4.40970510978067,1.050233752067109,-0.01300001525836732,-0.0029999027277964538,-0.0060001198930639335,4.7591349375348527e-141,1.5480792432812208e-140,4.9117023646846383e-141,0.010660036094428449,-0.011944399130070948,0.4053389798680662,-5.249557594980947e-07,1.299843387332229e-07,6.548520029895071e-07
1669909762597172978,17647,1669909762233734091,,-3.0747985308810812,-4.4108608084690735,1.0497753862769859,-0.013000015176472018,-0.003999935022444067,-0.004000054755551247,-2.6572776061092953e-78,-2.570153434180591e-78,-4.6634202220287504e-79,0.011100595091150467,-0.011398961765889837,0.408462787279122,-5.248254176649508e-07,1.3013876243403128e-07,6.552531456601705e-07
1669909762613019850,17648,1669909762407856119,,-3.0764035019531137,-4.412859756905119,1.0499416671937059,-0.013000015107876349,-0.0049999510296920005,-0.0020000222788959954,-5.837482346916231e-156,-9.084973296538e-156,-9.992428280874514e-157,0.012523678539485772,-0.00984111498606488,0.41424690437368206,-5.24579321740229e-07,1.3055902746821413e-07,6.56264698734117e-07
1669909762747641102,17649,1669909762560357741,,-3.07726259992167,-4.414624014519971,1.0500028797328973,-0.012000015083636835,-0.00599995087840934,-2.2243151092705527e-08,0.0,0.0,0.0,0.014492867443051338,-0.0072822134173957664,0.41955330401482804,-5.243570567922416e-07,1.3108092116394268e-07,6.570569448900991e-07
1669909763124049723,17650,1669909762727058258,,-3.0782141156273313,-4.416155408944362,1.0500754039296438,-0.011000015117120556,-0.005999950779710432,0.000999977707471989,0.0,0.0,0.0,0.015689196507013392,-0.004685384297836492,0.42347050438990763,-5.24323778678489e-07,1.3156129138947728e-07,6.575748815575379e-07
1669909763144407688,17651,1669909762884684799,,-3.0807768843502354,-4.417225510205295,1.0502384452273816,-0.01300001522904225,-0.003999950731335208,0.002999977542426175,0.0,0.0,0.0,0.016510687882670183,-0.0007277810458461431,0.4278941675351611,-5.243466691852979e-07,1.323395691620905e-07,6.582421149066182e-07
1669909763205644404,17652,1669909763034769694,,-3.082498403061658,-4.418151492687693,1.0503894872242374,-0.01300001542585546,-0.0029999507758732323,0.003999977252194714,-2.634747189496871e-80,-2.4475680991644642e-80,-1.8677474255396685e-80,0.016622626163039556,0.0018197273244631162,0.4300576690169713,-5.244596277646145e-07,1.3278242026334455e-07,6.585450939521015e-07
1669909763324731829,17653,1669909763166787120,,-3.0845109074407047,-4.419002498768117,1.0499793789107992,-0.014000015594762995,-0.001999950885265674,0.0039999770031144775,-2.3568568171056598e-66,-1.767988421572083e-64,-7.487936570038945e-63,0.016352792147445783,0.005578837507950851,0.43254364696210246,-5.246389271690106e-07,1.3337698635505868e-07,6.588606721805051e-07
1669909763671658322,17654,1669909763305373697,,-3.0869457788107724,-4.419437561530761,1.0501467663146673,-0.015000015726889394,4.89627101428293e-08,0.004999976808273704,0.0,0.0,0.0,0.015876331064013982,0.00786331560616027,0.4337156901305761,-5.248035502598309e-07,1.3368574911076058e-07,6.589937658366621e-07
1669909763694864160,17655,1669909763438380547,,-3.089147997072907,-4.420468787275343,1.0502932958034774,-0.016000015823612438,4.8769473758272854e-08,0.004999976665640644,-1.73183131693118e-79,-2.7348682769853816e-79,-1.2975152055384385e-79,0.015376600724406941,0.009397253277455775,0.4344597810427313,-5.249231261204589e-07,1.3382647758833612e-07,6.590947568043752e-07
1669909763732994670,17656,1669909763562240331,,-3.0914941687015824,-4.421101806164802,1.0498906418436136,-0.016999970982561206,0.0010000036787159955,0.004000021483696065,-2.641052376819125e-44,-3.9275517753753587e-44,-2.6048269667907053e-42,0.01505785476438426,0.010150325171128571,0.435015204082152,-5.250092852731272e-07,1.3380310865111422e-07,6.591901119222184e-07
1669909764158605595,17657,1669909763714998249,,-3.094846779280963,-4.422032167323207,1.0503968631800649,-0.01900001588607429,0.0020000483818734096,0.0029999765735310006,8.248923379742706e-149,7.863769285967959e-149,2.366110047727765e-145,0.014953587106484534,0.00955349557050944,0.43542835865208573,-5.250602451386116e-07,1.335444150556264e-07,6.593000655948976e-07
1669909764242603400,17658,1669909763968161695,,-3.1002950704318892,-4.4240130200420245,1.0499274270592742,-0.02100001586156196,0.0020000482246210808,0.001999976609678214,1.1773954133221217e-294,1.0469511763778356e-293,8.648701607147266e-292,0.015200226686781448,0.005943822213531291,0.43524877071575396,-5.251016927086901e-07,1.3276832961852372e-07,6.592152882059779e-07
1669909764680494307,17659,1669909764238926050,,-3.106477482417956,-4.425627842178664,1.0500987156695427,-0.021999966441317905,0.0029999988139166687,0.0019999766491924373,-1.85080348921201e-145,1.0606732626005745e-143,6.1811559154570924e-142,0.01547538703418816,-0.0009311339101234495,0.43276720595722473,-5.251575605279084e-07,1.3160410853782308e-07,6.588039148902507e-07
1669909764699851122,17660,1669909764450515160,,-3.113630671364596,-4.426839051823997,1.0499945566314492,-0.027000015693270114,0.005000048661770698,-2.3142149474705332e-08,0.0,0.0,0.0,0.015898226343995958,-0.009234012256868596,0.42998367155241723,-5.25202007850288e-07,1.3031733807506975e-07,6.584773808184748e-07
1669909764699872016,17661,1669909764609877745,,-3.117874402427521,-4.427906019561587,1.0499913791579334,-0.027000015693270114,0.005000048661770698,-2.3142149474705223e-08,0.0,0.0,0.0,0.01622255784399229,-0.013848213298441436,0.4282754117778058,-5.252612814012822e-07,1.2968596266743254e-07,6.582682117065332e-07
1669909764884993217,17662,1669909764667462193,,-3.1182326748842484,-4.42777287501737,1.0498898240850474,-0.024000015623697135,0.0050000489275482864,0.00299997696044662,-5.506488008246028e-155,2.099720136160364e-155,1.0322341940120778e-154,0.016287282640394807,-0.015099425436163827,0.42771855165921835,-5.252668853950432e-07,1.2962156311437345e-07,6.58199596901194e-07
1669909765232331182,17663,1669909764856813428,,-3.1236217214707453,-4.429196729673141,1.0578280826050415,-0.026000015548026386,0.005000049251975253,0.0029999770720348265,-7.421878329856651e-79,-2.780213275514796e-78,-6.610774869287451e-79,0.01622338521544009,-0.017280017175908213,0.4254080094923989,-5.254315975127613e-07,1.2972217148482338e-07,6.578725382282792e-07
1669909765414961759,17664,1669909765014512795,,-3.1257011102624315,-4.429313326588783,1.0600762413531222,-0.021000015500574003,0.0050000496397141145,0.007999977142010692,-3.0750138869604515e-66,1.125444243806146e-65,6.086346197415436e-64,0.01558407667695505,-0.016417236032001625,0.42315935359815526,-5.257176218900767e-07,1.301049868756347e-07,6.574751429674686e-07
1669909765415343579,17665,1669909765145433553,,-3.1275179291228157,-4.428981617563357,1.0604224067160228,-0.018000015469294438,0.00600004985656111,0.009999977188137239,1.6726972408770274e-78,-5.0429405019943616e-79,1.2549059991370446e-78,0.014248616014903348,-0.013835763271632828,0.420912528557011,-5.260860325207956e-07,1.307097458673552e-07,6.57196220047032e-07
1669909765511913758,17666,1669909765316957649,,-3.130552097596943,-4.428767096127242,1.0601144181265008,-0.01700001547152204,0.007000049901951246,0.011999977184852292,0.0,0.0,0.0,0.012060138808498877,-0.009072372594809863,0.4187924011702595,-5.265813831353034e-07,1.3169092595751985e-07,6.569069212252145e-07
1669909765641746617,17667,1669909765480951589,,-3.1323283297769504,-4.4283357923167985,1.0595207502613941,-0.014000015469366918,0.007000049763489083,0.013999977188030354,-2.309184127911673e-44,-4.981726376769437e-44,-4.746804348834188e-42,0.010372548222349565,-0.004492488091344171,0.4169278381434278,-5.269024226619103e-07,1.3256216029367015e-07,6.566109571704309e-07
1669909765941008843,17668,1669909765621100154,,-3.1343375770221416,-4.42866625595521,1.060467422786836,-0.014000015439324805,0.00600004954414188,0.014999977232332085,0.0,0.0,0.0,0.008925666189419701,0.0008091474978826341,0.4146804454507915,-5.271221507949414e-07,1.3338125710816333e-07,6.563136309573561e-07
1669909766003769115,17669,1669909765782731996,,-3.136364184328227,-4.428516197308319,1.06146186424478,-0.013000015397146358,0.00600004922819802,0.014999977294530717,0.0,0.0,0.0,0.007032506626956092,0.007586780744412991,0.41208757953345376,-5.276363600253694e-07,1.3470321895758174e-07,6.558484312645783e-07
1669909766512779734,17670,1669909765984746044,,-3.137821222385083,-4.427844409038411,1.0611127474259234,-0.010000015362766278,0.006000048815588877,0.014999977345229452,0.0,0.0,0.0,0.004996300781733964,0.013295782333129225,0.40877128912682004,-5.280126117267031e-07,1.3555146148397427e-07,6.55223940757706e-07
1669909766558090161,17671,1669909766196450636,,-3.1396911741820084,-4.425689173100069,1.060447364604209,-0.007999964418232952,0.00899999678749261,0.012000028297220489,0.0,0.0,0.0,0.0019341159849410872,0.020860263980063465,0.3993075590866688,-5.285810312343055e-07,1.3660875370945858e-07,6.533521630877528e-07
1669909766558092681,17672,1669909766345978754,,-3.1412453724374187,-4.42405366608017,1.0697441087056498,-0.007000015298415417,0.011000047237553363,0.008999977440124731,-5.805705136091249e-44,-5.042732297243325e-46,-2.4188443399519408e-42,-0.0003951793915550894,0.024183374172139338,0.3885708241853756,-5.290399189049345e-07,1.3699703472979756e-07,6.510795791999874e-07
1669909766558096929,17673,1669909766461481900,,-3.1424492079229,-4.423170795428369,1.0699995235508928,-0.007000015298415417,0.011000047237553363,0.008999977440124731,-2.8845044695619177e-66,-3.14374004962495e-67,-7.993810625682896e-64,-0.002364687412454103,0.025564961368601757,0.3782767337825863,-5.293910707392956e-07,1.3711211005388905e-07,6.491647847499037e-07
1669909766726752907,17674,1669909766528500528,,-3.1450934672387,-4.421222834775379,1.0704811652201576,-0.010000015244575972,0.016000046715901876,0.006999977519519306,4.291513452425768e-232,-3.473501422394912e-232,-4.028819006017181e-233,-0.00364073659130959,0.02605076357049363,0.3711131237755776,-5.295600899613146e-07,1.371096268017247e-07,6.479363715867785e-07
1669909767058392519,17675,1669909766708153172,,-3.147707760870531,-4.418185954436224,1.070196546647185,-0.009000015165430657,0.018000046197909115,0.003999977636231292,0.0,0.0,0.0,-0.006262863987062772,0.026122932511979613,0.3505044546826781,-5.298829794469126e-07,1.369858732615092e-07,6.443625104095672e-07
1669909767075819925,17676,1669909766866021948,,-3.15011854707665,-4.41699440286163,1.070016279960675,-0.009999966442628603,0.016000142809023128,0.0010001235987344048,5.476359818175868e-65,1.280144632327827e-65,1.9249311379532646e-63,-0.008421628955414207,0.024563195986903708,0.3284814602244239,-5.301612225334932e-07,1.3659799946499003e-07,6.409046889154669e-07
1669909767226257619,17677,1669909767037428336,,-3.153504973805342,-4.415250272348454,1.0699967676789475,-0.012000014828936808,0.016000045082212082,-2.1867556582134982e-08,-5.770145173031735e-46,-2.6809834736321332e-46,-2.6742706611015484e-44,-0.010116443641477346,0.02134251281482591,0.3046885016069094,-5.303801714948844e-07,1.3601346668316731e-07,6.364829433723774e-07
1669909767582683197,17678,1669909767199215505,,-3.156577674617335,-4.412074771359248,1.0698582662741418,-0.012000014619540358,0.019000044520170418,-0.004000021558769191,0.0,0.0,0.0,-0.010740813764630985,0.01702887178947954,0.2733007800444849,-5.302985204466315e-07,1.353550425189679e-07,6.309740607200961e-07
1669909767601592605,17679,1669909767333946680,,-3.1591777753574877,-4.407410304326295,1.0694659604047836,-0.011000031417622168,0.02499994247665641,-0.007999953519976498,-1.2418317882460285e-297,2.3717477667896532e-299,2.260303419811776e-295,-0.010095325205673689,0.012798889547863013,0.24067178932006073,-5.300287099869135e-07,1.346456839267713e-07,6.248151186079551e-07
1669909767688643009,17680,1669909767474024224,,-3.1600577174339386,-4.403096895387621,1.0612942024604755,-0.007000216896232747,0.026999942492991046,-0.00899997043844151,1.9518094311858903e-144,8.13775574179549e-144,9.518656514167141e-143,-0.008310186960493127,0.007931969086687474,0.20209583802444264,-5.2964591543556e-07,1.3395002942063694e-07,6.188691059464414e-07
1669909768122962892,17681,1669909767658086932,,-3.161457525040277,-4.397817514269123,1.0600496458953943,-0.005000111437038618,0.027999994631261158,-0.009999972292382269,1.910233035874724e-44,4.439942068975751e-44,7.555262286415429e-42,-0.00572841891439424,0.002196537672027432,0.1574131686564222,-5.293219634559577e-07,1.3312194883224665e-07,6.117862439022632e-07
1669909768144954197,17682,1669909767835955677,,-3.163842448791204,-4.393623137269084,1.0591575344137747,-0.006999921209140593,0.027000088877880194,-0.010999974396327442,0.0,0.0,0.0,-0.0037450633572362335,-0.0029523206498627275,0.11344385526695966,-5.292128438466353e-07,1.3237654423647493e-07,6.048701977724548e-07
1669909768188548546,17683,1669909767991435501,,-3.161891895271989,-4.389074794525221,1.059527591440602,-6.805518848471484e-07,0.027000041969181782,-0.01299983054113047,-2.2227587494850775e-162,-5.556896873712694e-163,-7.112827998352248e-161,-0.002776084159119563,-0.007883440125365127,0.07270137766692564,-5.293398826602856e-07,1.316739398373799e-07,5.991580278627006e-07
1669909768494260454,17684,1669909768163101862,,-3.1601400041305623,-4.383172037663215,1.0599593017365907,0.0039999259712552755,0.02900001156986527,-0.014999991146025276,-2.8783601908230636e-65,-3.571553482300029e-66,-2.892446927194634e-63,-0.003672361068900898,-0.012343154295798797,0.04130892959723376,-5.298661305822961e-07,1.31106830171275e-07,5.956509316049495e-07
1669909768637378024,17685,1669909768338290281,,-3.155153077177377,-4.3835269668075,1.050785091593673,0.01099954274637572,0.019000673543111017,-0.01599995786123899,-1.0602029481829208e-280,-2.9423130822202905e-282,-1.7068231163656544e-281,-0.005790363877448357,-0.016066182502010307,0.01886600699885932,-5.304454613878366e-07,1.305867998961948e-07,5.928641564816729e-07
1669909768737802868,17686,1669909768493408483,,-3.150792008809811,-4.384024079838607,1.049688792090814,0.015999488250754826,0.0120007362331681,-0.015000120627712618,0.0,0.0,0.0,-0.009253026869316727,-0.01818890233121806,0.003561208562910423,-5.311247747820568e-07,1.3067485758487838e-07,5.922416964860715e-07
1669909769111816538,17687,1669909768683022622,,-3.1425463620914127,-4.392579189459351,1.0497476806528596,0.027999016134068435,-0.012998118221593396,-0.012000117798624867,8.503792826761345e-144,5.3075323093400456e-145,1.714131542450295e-142,-0.015012951202823643,-0.01887188813692653,-0.0016090803724893021,-5.32379827469995e-07,1.3074885061331328e-07,5.926919053855533e-07
1669909769142993509,17688,1669909768864273285,,-3.1352960264512757,-4.399678921933604,1.0500086655475493,0.03299910423576222,-0.023998020922880024,-0.010000373192961574,0.0,0.0,0.0,-0.022471291909029745,-0.0165306242952461,0.010625682783121704,-5.335741176239204e-07,1.3138222909755497e-07,5.961431323198551e-07
1669909769583176332,17689,1669909769022155812,,-3.12604763301624,-4.410385716277893,1.0494840562193677,0.041999740703696234,-0.03999952430151964,-0.010000020190608574,2.2293683556604694e-220,6.030327582484111e-219,2.631718885550031e-216,-0.025378753187510483,-0.013712521597268434,0.023162582525847242,-5.338464370378039e-07,1.3194766844647808e-07,5.988570240489812e-07
1669909769583195162,17690,1669909769164961257,,-3.1184978919565802,-4.421871063852919,1.0500294778751598,0.044999849101691095,-0.05399931898982083,-0.005000248911370533,-8.439000178573788e-232,-1.180237156294418e-230,-1.3281937278881365e-231,-0.02728489126890743,-0.009728981167590689,0.04151181730195397,-5.338960633510082e-07,1.3263151073291176e-07,6.025689922557275e-07
1669909769583212708,17691,1669909769303033577,,-3.111869373486004,-4.428981862356829,1.0498620507209706,0.044999849101691095,-0.05399931898982083,-0.005000248911370533,0.0,0.0,0.0,-0.025653075764829225,-0.0032207707642832872,0.07417485388862488,-5.330170693558622e-07,1.3356350860484294e-07,6.08610626904296e-07
1669909769583258357,17692,1669909769412632589,,-3.106462535727067,-4.434484384515247,1.0498433822918904,0.044999849101691095,-0.05399931898982083,-0.005000248911370533,0.0,0.0,0.0,-0.02077753265310278,0.0016669449706743222,0.10203474197281537,-5.319696682237894e-07,1.3429258034891316e-07,6.135118209032855e-07
1669909770104144961,17693,1669909769481618123,,-3.098136475862958,-4.44997877116974,1.049972276706256,0.05299951568691702,-0.07799854609163144,-0.003000136924821737,3.164582279874002e-75,-3.038683135156766e-76,1.727233711018889e-77,-0.016749649124507826,0.004847714173248363,0.12080000972855842,-5.311813097088441e-07,1.3483318450172338e-07,6.170278042132588e-07
1669909770128605097,17694,1669909769749419418,,-3.0783877275499245,-4.483011666316197,1.0499874955237936,0.054999699389703116,-0.10699861655219009,0.001999789099840618,-3.9763598034962716e-141,-2.667889526342169e-141,-4.1362295011631704e-140,0.002698141452396996,0.016476763583959553,0.19947942580803613,-5.281290770960906e-07,1.3662403949035894e-07,6.302885231840091e-07
1669909770627072929,17695,1669909769976345526,,-3.058050523474814,-4.5108113121617315,1.0500179936020424,0.05700012178520964,-0.12099991275734262,0.0039999340200418294,-4.794899568807006e-64,-1.0022591833036024e-63,4.661167869549643e-64,0.01948980477374107,0.02418842240284924,0.2645381299988383,-5.260059725826922e-07,1.3780615871478471e-07,6.393959936881604e-07
1669909770656116296,17696,1669909770173437231,,-3.0466874072609835,-4.525847999471539,1.049995907921888,0.04699998532090978,-0.10899995752806325,0.003999978353415343,-6.639523940824208e-65,-2.9020476820519365e-64,5.426673946857301e-63,0.03410000151076176,0.02916203255892036,0.31934375686274663,-5.240432992316333e-07,1.3879003947088223e-07,6.482794397020162e-07
1669909770656118823,17697,1669909770337354953,,-3.0376747904631802,-4.537186383573043,1.0500603923847898,0.04100017950186736,-0.10100021690319025,0.003999977098115014,-3.6252738128938485e-258,-6.827613687354488e-258,6.707951405249137e-257,0.04283387130734084,0.03129709501313904,0.3577736319375049,-5.235064286372601e-07,1.3913257169311815e-07,6.531751862869717e-07
1669909771159072437,17698,1669909770591633349,,-3.0257190227747643,-4.549450494800945,1.0498833596078403,0.03299998238159454,-0.0809999555744181,-2.5981058744075035e-08,0.0,0.0,0.0,0.04775358940336005,0.03190004053706552,0.40473565167003933,-5.239730615024289e-07,1.3926526386277855e-07,6.58006415832424e-07
1669909771169831422,17699,1669909770809227610,,-3.0173399564229624,-4.5573367077045654,1.0498533595869435,0.026999981735677313,-0.06699995508362466,-2.6933563408665456e-08,7.416284523112774e-218,-2.794039205825952e-217,1.2677055124356304e-215,0.04325964168956453,0.03031861131733038,0.4345644267363369,-5.255245470491411e-07,1.3911011425645224e-07,6.62365109902037e-07
1669909771170012215,17700,1669909770955248950,,-3.0134539011811583,-4.560825299402083,1.0499422748320735,0.02300017256979916,-0.05700043280069504,-0.00199993195543869,3.812132053722947e-217,1.1479220709213766e-216,1.8603346446818587e-216,0.03653196852680374,0.028445246508947974,0.4448157036292919,-5.269563923885577e-07,1.3879850844448195e-07,6.629390571110306e-07
1669909771684522668,17701,1669909771105543067,,-3.010766692964638,-4.564090524252078,1.0497566925782376,0.01799998118309914,-0.04799995421654866,-0.003000027748425232,1.2748174681874074e-78,-2.8767796950533714e-80,2.901604163645134e-79,0.029990068284913463,0.026776046832686973,0.4425805577857371,-5.278851465809461e-07,1.3853707902195945e-07,6.605973441787989e-07
1669909771695625306,17702,1669909771276900343,,-3.007760181390751,-4.562141929051888,1.0499586559490799,0.01899998136296526,-0.03099995382383324,-0.004000027483184869,0.0,0.0,0.0,0.024241292016309757,0.025251221026577397,0.418782268994466,-5.283068376283345e-07,1.3828079313249928e-07,6.545323781821794e-07
1669909771695749522,17703,1669909771443652854,,-3.0059241089487396,-4.55372316787877,1.0501157197301887,0.022999981774927902,-0.00799995347441422,-0.002000026875682355,3.7360706656495885e-272,-4.255385425362043e-270,1.4960872865596414e-272,0.022743869029618224,0.024806312177025447,0.3849629458734416,-5.281550976704576e-07,1.3817413367822308e-07,6.475979892825688e-07
1669909772237097309,17704,1669909771607520585,,-3.0054338835850856,-4.542821155634327,1.0499678859760722,0.024999982437311764,0.01400004653975485,-2.5898895096228262e-08,-1.3381279005348625e-146,7.644418353921672e-147,2.3063053034907174e-144,0.022647316723285016,0.025139347836436343,0.33715311265163095,-5.27924766038143e-07,1.3811637234670908e-07,6.393844740070342e-07
1669909772257792684,17705,1669909771790782978,,-3.004895726547226,-4.527920964402558,1.050056122909912,0.026999982879437338,0.03500004607985312,0.0009999747530873187,-9.093588778577791e-222,8.294196186649125e-219,-1.73260905354425e-218,0.023000354237630916,0.026296901440787224,0.2505404860957938,-5.275848013616575e-07,1.380670545693668e-07,6.226618660004912e-07
1669909772257814406,17706,1669909771988104768,,-3.007121503402346,-4.5040143746798735,1.0500255054350727,0.025000259397728035,0.06699824837959609,0.000999975178142015,-1.2961915523689931e-107,9.637977348110885e-107,-1.0486645727871687e-105,0.021557540186604385,0.027729627734995432,0.18163120604107696,-5.27859125576239e-07,1.3812390619406894e-07,6.120559899572721e-07
1669909772257944530,17707,1669909772145226026,,-3.0049329860705054,-4.49299866475085,1.0501082741914503,0.025000259397728035,0.06699824837959609,0.000999975178142015,-8.487983164e-314,-2.716154612436e-312,2.1729236899484e-311,0.017560380788010477,0.029112178081376783,0.12154709039446843,-5.285800206106681e-07,1.3819572229318253e-07,6.029411862157285e-07
1669909772735521213,17708,1669909772220602838,,-3.003044548087545,-4.488167817213575,1.05018727941227,0.02599998318497218,0.06600004256781582,0.000999975203645609,0.0,0.0,0.0,0.015227267484814178,0.029581638585170822,0.09699160262544737,-5.289695211872959e-07,1.3820677226697217e-07,5.993414154296708e-07
1669909772766742623,17709,1669909772424216606,,-3.000594404248819,-4.476233048987217,1.0500023953755926,0.022001688652727423,0.06300003963585485,1.6802445587382744e-06,-1.1282464849155185e-277,-2.203606415850622e-280,-5.776622002767455e-275,0.007444953698604095,0.02995639278869966,0.029525673012624765,-5.300720850998329e-07,1.3810021067492122e-07,5.893566861787583e-07
1669909772766860590,17710,1669909772578223282,,-2.9974179742894793,-4.466080011844728,1.0500241550675398,0.021999983621923954,0.0640000373725034,-0.001000024152001543,0.0,0.0,0.0,0.0029203623522793265,0.029321831345034965,-0.005068038533597274,-5.307248591740508e-07,1.37888284039578e-07,5.846903067171802e-07
1669909773251985721,17711,1669909772711007689,,-2.9954292989444733,-4.463640604606536,1.0499078391263839,0.019000131893683932,0.048000825142013426,-0.001999974337449524,-2.9970708230024545e-155,-1.933144170025392e-154,-1.3740059557037164e-156,-0.0022631763252007886,0.027380189443807268,-0.03769017374185424,-5.313820191300689e-07,1.3748118384228566e-07,5.811805261797878e-07
1669909773269242719,17712,1669909772845408686,,-2.9926049117284816,-4.457309892359579,1.0498223823925676,0.019000131893683932,0.048000825142013426,-0.001999974337449524,-1.0028317724901367e-217,3.5029662081477995e-219,4.3089129746532425e-217,-0.005618627481418059,0.024865489884339453,-0.05718266971147479,-5.317926689594361e-07,1.3697383322027605e-07,5.788603890199497e-07
