%time,field.header.seq,field.header.stamp,field.header.frame_id,field.position.x,field.position.y,field.position.z,field.velocity.x,field.velocity.y,field.velocity.z,field.acceleration.x,field.acceleration.y,field.acceleration.z,field.orientation.x,field.orientation.y,field.orientation.z,field.angular_velocity.x,field.angular_velocity.y,field.angular_velocity.z
1669910048878344207,19895,1669910048854106248,,0.8482857698218377,-4.304248855030311,1.0599116599971843,-0.02200001579247374,-0.11099995134980561,-0.0010000232884405413,2.1999843684946038e-139,9.041181880890625e-141,4.7272268339085633e-141,0.006482803779782387,0.003624966323418022,0.5972288628591649,-6.529843427120854e-07,1.3504373262331006e-07,7.688593594775143e-07
1669910049002071133,19896,1669910048879157261,,0.849815545470403,-4.3075327101128185,1.059885441919855,-0.022000015522554824,-0.11299995047903676,-2.2890403429865672e-08,-1.3149416863023028e-145,-3.4643071148096654e-144,2.053773211739529e-143,0.006929080376906427,0.0027528637822182844,0.6005035641279193,-6.529119017484526e-07,1.3494741542309435e-07,7.692898349078182e-07
1669910049068408688,19897,1669910049003630629,,0.855598436867186,-4.320643212205169,1.0598613435708348,-0.022000015522554824,-0.11299995047903676,-2.2890403429864583e-08,-7.396464935881693e-110,-1.8947565487455822e-108,1.1957463856496172e-109,0.009338152793041843,-0.0016573722744439578,0.6173438601179413,-6.525011637760013e-07,1.3425858452718442e-07,7.721619818186194e-07
1669910049188705213,19898,1669910049062263799,,0.8590163900903752,-4.326892072417424,1.0600048480891757,-0.021000110442930896,-0.1139998543129078,-2.2670188084964592e-08,9.356705374370093e-264,2.424857349082477e-263,3.7909742204887485e-259,0.01043771036883534,-0.003532650832863027,0.6244071077923365,-6.522803276161995e-07,1.3393827173080062e-07,7.734739129456329e-07
1669910049456945575,19899,1669910049198944402,,0.8663111425027388,-4.340890127327029,1.0599460112979713,-0.02000001537202793,-0.11399994820204248,0.0009999773315717202,6.837315549551602e-146,-2.1999949356505143e-145,1.5879842002347012e-143,0.015184765782001008,-0.010486720635700664,0.6496802372734365,-6.51472288165224e-07,1.3295835854852807e-07,7.77109857822343e-07
1669910049469653543,19900,1669910049326077592,,0.8697948125511924,-4.3520005031072975,1.0601305921641515,-0.0240000155107943,-0.10499994702433504,0.002999977126939284,-1.839837548656131e-221,-1.4715684883806994e-221,5.1182685736171904e-219,0.019770553001981384,-0.016059387336131437,0.6676988338785677,-6.506090398449301e-07,1.3204119871636394e-07,7.801169930413279e-07
1669910049569549881,19901,1669910049443416992,,0.8731970323662639,-4.361323648215318,1.0599965029861071,-0.025000015719037025,-0.09699994581724133,0.001999976819853236,4.090166515697208e-66,5.429692187751802e-66,2.8958472077845254e-65,0.024802430369547324,-0.021905104291958466,0.6839232279023566,-6.498604086630545e-07,1.3120800148392715e-07,7.824898713405858e-07
1669910049640150603,19902,1669910049571665718,,0.8786014140766455,-4.372980893123142,1.0599358126694298,-0.025000015719037025,-0.09699994581724133,0.001999976819853236,-5.271098971615262e-82,-5.271098971615262e-82,-4.2168791772922093e-81,0.027540849031847614,-0.025397588214257638,0.6944854691313278,-6.495800270921236e-07,1.3087107864548535e-07,7.84174951347794e-07
1669910049837779773,19903,1669910049634453816,,0.8792682027877142,-4.376155056686574,1.0695849358109202,-0.02500001600233977,-0.08899994473424544,0.001999976402079603,-1.7081539844024523e-232,-5.575705449655793e-231,3.2831081348449e-233,0.028611290554087176,-0.026790871910764125,0.6998398405733965,-6.495190456909781e-07,1.308446204375733e-07,7.849263476222453e-07
1669910049873398192,19904,1669910049773214795,,0.884606376424818,-4.387821642996765,1.069953604001997,-0.02500001600233977,-0.08899994473424544,0.001999976402079603,7.828206471237364e-44,8.292370255421354e-44,2.7934310665307906e-42,0.029774949477626933,-0.028071022694321712,0.7082189577361255,-6.494764065266538e-07,1.309462597408813e-07,7.861091710768626e-07
1669910049938089016,19905,1669910049812587886,,0.8855928093478022,-4.3880627110878025,1.069673831337129,-0.021000016440820564,-0.08199994356785657,0.005999975755471981,2.2313278300688105e-258,4.915388267526746e-258,1.516712334526314e-256,0.03024313792160882,-0.02805367097117184,0.7138915154913086,-6.495121820261301e-07,1.3122869319452785e-07,7.870488339964846e-07
1669910050065797568,19906,1669910049938718571,,0.8905482020593198,-4.39559689577474,1.0697380639616145,-0.017000016757360095,-0.07799994278482643,0.008999975288685578,-3.455280647201114e-44,-3.9604919645295994e-44,-1.3162110506340526e-42,0.030024690249938146,-0.0259977666632647,0.7223064415499962,-6.497537386670029e-07,1.3191784929385011e-07,7.881679467062221e-07
1669910050138304848,19907,1669910050074453499,,0.8958340238384009,-4.405097952791748,1.070393654654553,-0.017000016757360095,-0.07799994278482643,0.008999975288685578,4.301694711541631e-145,-3.069388286603987e-145,-1.2102825150494007e-144,0.028663674947848605,-0.02173829582693365,0.7301160031317213,-6.500895094092167e-07,1.327925364781282e-07,7.890659586042315e-07
1669910050478144204,19908,1669910050137383875,,0.8967516879367015,-4.406462710198486,1.0697863970872374,-0.015000016962370024,-0.06999994222002327,0.010999974986366784,-2.4983134308764763e-216,-6.248947037397924e-217,-3.87996095550029e-217,0.027818321687842484,-0.019293508628408063,0.7333337210564519,-6.503562107163292e-07,1.3339207826883507e-07,7.895620027112465e-07
1669910050524486241,19909,1669910050275983405,,0.900737095689654,-4.4121835525506965,1.070642039877317,-0.012000153734040224,-0.06300026078383826,0.010999974774389788,2.0072410618882842e-222,7.273359991833372e-223,5.976208381586977e-222,0.025357542196468685,-0.012467960891260788,0.7390716245100482,-6.508355784949892e-07,1.3462651912984992e-07,7.902346378666479e-07
1669910050590298414,19910,1669910050450928761,,0.9058290614626063,-4.419587185653222,1.0698425639034372,-0.01000001714149095,-0.05799994205777699,0.008999974722225329,-4.9396957805500844e-142,-1.2237417236222145e-140,-1.1327999355926153e-140,0.023457642584299165,-0.006535024900076181,0.7424338479039907,-6.512025831953322e-07,1.3571103225467822e-07,7.906185892184661e-07
1669910050746066224,19911,1669910050591264780,,0.9089224469061317,-4.424402014833556,1.0702108216445365,-0.009000017112876957,-0.05199994234788598,0.007999974764421078,-3.169496053060977e-79,-9.213138872785132e-79,-5.959341803341978e-79,0.02153247121374946,0.00028453074768108877,0.743773626817255,-6.515492397159818e-07,1.3675692257256224e-07,7.904765949195604e-07
1669910050939932729,19912,1669910050749204169,,0.9129758993847792,-4.428367496644242,1.0701729263621313,-0.005000017048397764,-0.04599994277833183,0.006999974859505601,-1.3190583202241596e-43,-3.7504871755855465e-43,-1.885543892773277e-41,0.01980806695680215,0.0074212945737563984,0.7422816961351586,-6.518216452436631e-07,1.379139918710441e-07,7.899074882372477e-07
1669910051004622577,19913,1669910050894217890,,0.9159507205571897,-4.431551796620726,1.0702069421808167,-0.0030000169806213067,-0.039999943387236364,0.003999974959452451,0.0,0.0,0.0,0.01910916827334752,0.013086768609925414,0.738497589519449,-6.518633992419506e-07,1.38652057790593e-07,7.890715843180552e-07
1669910051060487247,19914,1669910051008160919,,0.9187723177958499,-4.435157139475196,1.07022736005302,-0.0030000169806213067,-0.039999943387236364,0.003999974959452451,6.885736647192614e-143,1.372507314035481e-144,3.726437488753169e-142,0.01908639501187892,0.015609231104438237,0.7359403123913708,-6.518588312593819e-07,1.390072310174069e-07,7.885644687889656e-07
1669910051178990635,19915,1669910051062825568,,0.9193259133800024,-4.435427073913728,1.0699959488929214,-0.0020000169343705873,-0.035999944045767084,0.002999975027656277,-6.0386705710185585e-294,-5.047012025588623e-295,-2.5974557325887447e-294,0.01918913373297393,0.017347579526463264,0.7337592380938993,-6.518193891917562e-07,1.3922006340436232e-07,7.881704120798195e-07
1669910051318223765,19916,1669910051186367723,,0.9218967285097104,-4.437557347854663,1.0699598211114654,-1.69114526228295e-08,-0.03299994467858439,-2.493854764666277e-08,7.332192103094507e-70,3.857922478369395e-68,1.367093585070738e-66,0.019814961367417894,0.020220642778802755,0.7289276108106186,-6.516724408303677e-07,1.3951806588231975e-07,7.873687828286476e-07
1669910051711541330,19917,1669910051326906469,,0.9244679100233532,-4.44047683231934,1.0696078587153628,-1.6945353564923906e-08,-0.030999945255666142,-0.0020000249885398194,0.0,0.0,0.0,0.021376718633398184,0.02230354590546213,0.7227151648859369,-6.513609762987537e-07,1.396392638152738e-07,7.863434382310619e-07
1669910051722444777,19918,1669910051456656854,,0.9271129961715727,-4.443498169045853,1.0696946801052378,-1.694535356492351e-08,-0.030999945255666142,-0.0020000249885398194,3.6388596217599177e-42,3.646863900520427e-42,1.5993848007362434e-40,0.02308826691899135,0.022729965570526645,0.7172094548846513,-6.510690302528661e-07,1.3956623693175647e-07,7.853879730338456e-07
1669910051722644474,19919,1669910051503071169,,0.9269919852983375,-4.443405193888932,1.0692783661986835,-1.7024988906158783e-08,-0.026999945815583393,-0.004000025105974424,4.2158792509860474e-187,1.1110596163559485e-187,9.457327427257734e-186,0.023684534998475115,0.022641888146232247,0.7155002645933557,-6.509731022596484e-07,1.3948712946538878e-07,7.851291122072893e-07
1669910051723351619,19920,1669910051627139490,,0.929166444346252,-4.445936305903489,1.0696716036342016,-1.7024988906158763e-08,-0.026999945815583393,-0.004000025105974424,1.675884802615495e-219,1.656597975551036e-219,8.926722798669438e-219,0.025299596620651954,0.021872910752202657,0.7109182999169512,-6.507331347339991e-07,1.3923103051017643e-07,7.843658674803959e-07
1669910051803259453,19921,1669910051672690954,,0.9294073075573229,-4.446245851371238,1.0696030128996217,-1.7148345399552836e-08,-0.024999946250039092,-0.005000025287882617,1.7391880121178187e-70,-2.1355315097991674e-68,-9.622069762384511e-67,0.026298535610258966,0.02108186519263988,0.7080732834921726,-6.505800788736093e-07,1.3901971995690442e-07,7.839161471320633e-07
1669910052182146361,19922,1669910051799576770,,0.9309221755211878,-4.448064605258837,1.069457903435466,-1.730189485820446e-08,-0.022999946549543397,-0.0060000255143149986,0.0,0.0,0.0,0.028442949663563866,0.01866041370226945,0.7018054984786843,-6.502853896938839e-07,1.3846301617346832e-07,7.828691262895533e-07
1669910052260229201,19923,1669910051923711557,,0.9327357671931793,-4.450240731694809,1.069375210627667,-1.7301894858204403e-08,-0.022999946549543397,-0.0060000255143149986,0.0,0.0,0.0,0.030647069299446272,0.014684263987088997,0.6942021422355129,-6.50028609097288e-07,1.3762239818919778e-07,7.815877154564837e-07
1669910052260271263,19924,1669910051967053519,,0.9326084401307831,-4.450133043753159,1.0700221382967152,-1.7483080328962736e-08,-0.0199999467333601,-0.008000025781500946,0.0,0.0,0.0,0.0306451532965486,0.014685312152586505,0.6942075715598115,-6.500368514821851e-07,1.3763178806550862e-07,7.816165653380687e-07
1669910052260399780,19925,1669910052091686662,,0.9341668312260036,-4.452037800365985,1.0697915838438843,-1.7483080328962723e-08,-0.0199999467333601,-0.008000025781500946,0.0,0.0,0.0,0.03172262625180622,0.010637846554221397,0.6879088525183654,-6.500327050907556e-07,1.3688344636721086e-07,7.806277617427551e-07
1669910052290810056,19926,1669910052138680041,,0.9336565989035842,-4.452085720593439,1.0704370819820221,-0.0010000176409976891,-0.016999946765582898,-0.010000026014374472,1.153458048863324e-283,4.056214062961107e-284,2.3169449927816196e-283,0.03194807434499225,0.008982520573921349,0.6854718017567762,-6.500606236792619e-07,1.3656751854220152e-07,7.802233245824493e-07
1669910052692484059,19927,1669910052291603244,,0.9337564884843434,-4.453748766973082,1.0693215979305064,-0.00300001776342241,-0.013999946694876128,-0.010000026194908624,1.6472184286297693e-83,2.635549485807631e-82,4.2168791772922093e-81,0.031873654517895034,0.003172787670090216,0.6770688133270308,-6.502202419783065e-07,1.3576440790608723e-07,7.791705968790549e-07
1669910052739804991,19928,1669910052409393378,,0.934528132361191,-4.454703476847251,1.06056922299704,-0.0020000178196361933,-0.01299994652856882,-0.011000026277804524,0.0,0.0,0.0,0.03147459023177923,-0.0014406787650980135,0.670548142633514,-6.504467187412086e-07,1.3482565066546598e-07,7.779142400006868e-07
1669910052739807328,19929,1669910052520219249,,0.9352259289406882,-4.455939364414847,1.0595805653511259,-0.0020000178196361933,-0.01299994652856882,-0.011000026277804524,-5.529744263228437e-223,-7.978326554321245e-223,-1.0987822396152223e-222,0.030752167879235515,-0.00584548556295772,0.6646108123238541,-6.506542544302393e-07,1.340459709149995e-07,7.769966929641017e-07
1669910052739809249,19930,1669910052567732042,,0.9348126848090348,-4.45557593842912,1.0601439000691724,-0.0020000177762159025,-0.00999994629698806,-0.012000026213774603,5.104236890764713e-217,3.3683567328844835e-216,1.0585534547740768e-216,0.03031480742201076,-0.008132059425236093,0.6616755106448888,-6.507711954165433e-07,1.3368549764797666e-07,7.765947241542578e-07
1669910052822719766,19931,1669910052699342248,,0.9353942916369512,-4.456730156775188,1.059403779716095,-0.0020000177762159025,-0.00999994629698806,-0.012000026213774603,0.0,0.0,0.0,0.029125962718525855,-0.013570283785133697,0.6547021263857644,-6.510612931801515e-07,1.328128799442414e-07,7.755511964762959e-07
1669910053218976868,19932,1669910052802527700,,0.9348327293316911,-4.457825868772064,1.0593652865015544,-0.004000017645165146,-0.00899994600895436,-0.013000026020520033,-7.558046529282692e-144,-3.6488895509402946e-145,-3.0959314158610716e-144,0.027798089792076652,-0.01843288494131734,0.6479944848569072,-6.514179745269103e-07,1.3209954841917175e-07,7.744348507107891e-07
1669910053276872980,19933,1669910052936018401,,0.9348822838000496,-4.458726052534911,1.0590904476194083,-0.004000017411206955,-0.007999945637074481,-0.013000025675512561,0.0,0.0,0.0,0.025851334258153003,-0.02328222176742223,0.639737422865851,-6.518868094572304e-07,1.3143838144659142e-07,7.731269088901842e-07
1669910053276913680,19934,1669910053051965703,,0.9355855180241153,-4.457931970289849,1.0602827159705992,-1.71723466575039e-08,-0.0049999452869688345,-0.011000025323276177,-1.0369822661549591e-66,-3.369788478096232e-66,-3.532183926988743e-64,0.02418975689277225,-0.026079324983474095,0.633512512106396,-6.52249041378447e-07,1.3111629703592742e-07,7.721697327233654e-07
1669910053276917897,19935,1669910053171343358,,0.9359480295680216,-4.458367201802124,1.0600948321641899,-1.7172346657503857e-08,-0.0049999452869688345,-0.011000025323276177,1.8566995867291532e-66,1.1186292024258163e-67,-6.430754890612811e-66,0.02259144649884881,-0.02761316946062209,0.6282420900707741,-6.526256209886019e-07,1.310893788425641e-07,7.713799113754782e-07
1669910053364030263,19936,1669910053214902768,,0.9360787773213443,-4.458539779822332,1.0596459685211952,-1.6938077486530577e-08,-0.004999945000968345,-0.010000024977810119,0.0,0.0,0.0,0.021593038268937548,-0.027915326141236818,0.6254730359053884,-6.528356141904314e-07,1.3121230996415847e-07,7.710184801423453e-07
1669910053415726662,19937,1669910053370433119,,0.9365491958905889,-4.459119269157296,1.060156407746643,-1.6938077486530518e-08,-0.004999945000968345,-0.010000024977810119,-1.8118585394977437e-79,-2.304789398877165e-79,5.0728336275994816e-80,0.01884141558990038,-0.026730315662698345,0.6185882553543873,-6.533833339387239e-07,1.3178055310492343e-07,7.699802004674285e-07
1669910053749181887,19938,1669910053421540527,,0.9370443896641335,-4.459112125813016,1.059784070971825,0.000999983305284471,-0.0049999448154569946,-0.006000024618935343,1.628480869416851e-159,3.924267125013109e-160,0.0,0.01820257402079406,-0.02599370978767368,0.6170219041391078,-6.534888168547118e-07,1.3198672124007243e-07,7.698016603687465e-07
1669910053754754732,19939,1669910053544839660,,0.9391693786033133,-4.458384798478083,1.0598537082140114,0.00599998353229234,-0.004999944730240578,-0.0010000242841771943,-8.36076768077046e-233,-5.917827098331629e-233,-5.272353010740666e-234,0.01539364823123357,-0.021397696453878012,0.6103130862794881,-6.540388022068579e-07,1.3306560526836773e-07,7.687601639296885e-07
1669910053754757511,19940,1669910053667544623,,0.9401251847423382,-4.458463879739648,1.052186513766144,0.00599998353229234,-0.004999944730240578,-0.0010000242841771943,5.005897131906746e-309,-3.272190715862888e-308,1.371002851551244e-309,0.013075647452623684,-0.016020329029009517,0.6049582938698777,-6.544909181248762e-07,1.341315279966236e-07,7.679294885679161e-07
1669910053848062900,19941,1669910053714752475,,0.9411974259251813,-4.458007979539336,1.0521930677046154,0.007999983742324102,-0.004999944820641705,-2.3974452936586537e-08,1.2703399839943394e-144,-8.006152351615351e-145,1.935283614679693e-142,0.012621834053657466,-0.014763865011593325,0.6039025437171652,-6.545470795012388e-07,1.3435685192695186e-07,7.678110549254942e-07
1669910054272628162,19942,1669910053854455341,,0.9429972222105624,-4.458644620165308,1.0504488773286615,0.007999983913319225,-0.006999945154965567,-2.3722294232360758e-08,-2.0532091854415754e-296,-3.044149800440979e-297,4.771253093869811e-294,0.010607545841452293,-0.007407831896546924,0.5985292600664849,-6.547879138194652e-07,1.3559988767573208e-07,7.670566980308234e-07
1669910054284808092,19943,1669910054026231722,,0.9454269646652411,-4.458988871136216,1.0500452857496403,0.008999937043185078,-0.007999898718999249,0.0009999294672919646,0.0,0.0,0.0,0.010703330624789231,6.987898238008938e-05,0.5934821002907924,-6.546060733066397e-07,1.3672710405409757e-07,7.66376593952387e-07
1669910054284867004,19944,1669910054163382734,,0.9467497363025497,-4.460844857559782,1.0500063694100505,0.005999984144196105,-0.010999946569951215,-2.33818306287965e-08,1.6083035439902884e-146,1.0706789465499205e-145,8.32002226671955e-144,0.011708157057913837,0.00499961466559995,0.5903348149181511,-6.544183630773552e-07,1.3746971479689396e-07,7.659561964901759e-07
1669910054420323222,19945,1669910054302263643,,0.9485045512677241,-4.461967277925276,1.0499999265761726,0.00599998414968826,-0.01199994725061057,-2.337373159871025e-08,1.691858200743468e-220,7.025082912949357e-222,2.1088234215620804e-218,0.012828863839040139,0.008931734527983792,0.5879187968032973,-6.543040819442103e-07,1.378907132391649e-07,7.656882949026205e-07
1669910054605496573,19946,1669910054424057302,,0.9499215947920151,-4.462780465427134,1.049987933238547,0.00599998414968826,-0.01199994725061057,-2.3373731598709918e-08,-8.89103499794031e-162,3.556413999176124e-161,-4.552209918945439e-159,0.01506078635527075,0.014381029913138832,0.5841035857100199,-6.539723109845261e-07,1.384880200003013e-07,7.651874612007389e-07
1669910054738621931,19947,1669910054559648152,,0.9506818572610625,-4.464233534416583,1.049981857175133,0.003999984005392693,-0.011999947904195372,-2.358651768826898e-08,0.0,0.0,0.0,0.017245190810493582,0.017199510745765423,0.5811460433616897,-6.535798560751112e-07,1.389552681601539e-07,7.646728051802308e-07
1669910054867065406,19948,1669910054726984504,,0.9518011077138796,-4.4664431014559165,1.0499223799391924,0.0019999837345863196,-0.012999948656759394,-0.002000023985863492,0.0,0.0,0.0,0.019144571697797375,0.017975750651880062,0.5786144817685077,-6.534087928477236e-07,1.3884674258076884e-07,7.643280725431846e-07
1669910055251437336,19949,1669910054875351542,,0.9525046303364542,-4.468863519383156,1.0501353217396898,-1.643730392249231e-08,-0.013999949065724422,-0.00400002423934219,0.0,0.0,0.0,0.02056707574314487,0.016472237336191853,0.5754940363178154,-6.533674576795449e-07,1.3832867389097604e-07,7.63903488764045e-07
1669910055275741481,19950,1669910055038623592,,0.9523867122129605,-4.47049085582009,1.049627275657206,-0.0020000167172420347,-0.011999949557308242,-0.006000024652154152,5.518364043448417e-145,2.1232209486423273e-145,-1.2144218566620956e-144,0.020797643679719258,0.013203534563096753,0.5730679361324409,-6.535078249471695e-07,1.3764280538485907e-07,7.63641442632163e-07
1669910055418363774,19951,1669910055213321020,,0.9522836928420337,-4.473015356793372,1.0492861529064021,-0.004000016855467204,-0.01199994971472785,-0.0070000248559885046,0.0,0.0,0.0,0.02039762329614625,0.006540539903332032,0.5703658860539402,-6.537227440784743e-07,1.3630871577934814e-07,7.633277171467853e-07
1669910055801681976,19952,1669910055424646555,,0.9509729619526655,-4.475586552623809,1.0498638406495822,-0.007000016945609702,-0.009999949589161885,-0.010000024988917533,2.421740891268965e-298,5.5619459416617154e-297,8.949491823982364e-297,0.01974204813171987,-0.0007007326695092075,0.5683278267310037,-6.539501859734876e-07,1.3496349166275936e-07,7.630923437246819e-07
1669910055815361942,19953,1669910055614931682,,0.9508577595419831,-4.47786161410283,1.0499159965934908,-0.007000016829168757,-0.00999994924532044,-0.011000024817207382,8.56700889972887e-66,1.4262677921175071e-64,5.751012795828719e-64,0.018682699779580147,-0.01252402459154034,0.5656223019359423,-6.542235966140752e-07,1.3289093672916633e-07,7.62734008220883e-07
1669910055967782961,19954,1669910055798788505,,0.9499396512526073,-4.480566266304153,1.0502533685279738,-0.00900001666422631,-0.009999948773602375,-0.012000024573974283,1.286587260861987e-232,1.0065874541623077e-234,2.0677521543292447e-232,0.018316818694518844,-0.02263304124011256,0.5636239770026883,-6.543027390037507e-07,1.312544776994617e-07,7.625407588231664e-07
1669910056362223429,19955,1669910055979162268,,0.9493980763441275,-4.48360702427594,1.049182753535297,-0.010000016462640978,-0.010999948209751418,-0.01200002427670559,4.261336010325101e-79,-9.592217189409541e-79,-6.268985259923834e-79,0.019051004913464453,-0.034708255700794055,0.5629004610905799,-6.540940847168525e-07,1.299888425800814e-07,7.627219444298681e-07
1669910056407994832,19956,1669910056134083114,,0.9488750939118864,-4.486526232840192,1.0504616672046494,-0.010999971268342129,-0.011999902592029228,-0.012000023960691145,7.966987816570855e-231,7.399502362003047e-231,5.971170809741564e-231,0.02038805974614455,-0.03835016013013792,0.5632738662456749,-6.538747404169374e-07,1.2950992730066252e-07,7.628856637025899e-07
1669910056462217160,19957,1669910056301487815,,0.9505132701340355,-4.488505117282915,1.0490640181406456,-0.007000199015255373,-0.01299990117439048,-0.008000206644077933,-1.8693717114253763e-146,6.2228436188261465e-149,-5.387641936727672e-145,0.021829611184035258,-0.04131587452996044,0.5639802405779548,-6.538190707075376e-07,1.2941545741790955e-07,7.629853705323263e-07
1669910056873481966,19958,1669910056468750527,,0.9507177495147976,-4.490070483051475,1.0456006191039582,-0.006000015954166981,-0.010999978384829034,-0.003000089220435727,-1.264590464642442e-41,-7.050644866102885e-42,-3.0599765413474995e-40,0.023087914269863674,-0.04112779485706852,0.5642558364655912,-6.53740904558856e-07,1.3000871007384882e-07,7.630285894030033e-07
1669910056896355684,19959,1669910056631846086,,0.9519448489404476,-4.4909722499372595,1.0401671062189322,-0.0020001996575000095,-0.009999991123967988,-1.6138376870037021e-07,-3.0331190548961843e-43,-2.0048554382174246e-43,-8.439962812844291e-42,0.023764891419542522,-0.03544862166507201,0.5637548113552668,-6.537868001845707e-07,1.3157284572146423e-07,7.629030758827834e-07
1669910056896411881,19960,1669910056755479723,,0.9543980549075722,-4.49136280153473,1.0404089916941355,0.0039997215010209395,-0.010999901394732853,0.004999757546351957,2.957808250669587e-67,-6.7392540275520076e-68,-5.422078888371533e-66,0.023532413086892134,-0.02781862817126779,0.5630375805791878,-6.539649455937188e-07,1.3304589221671409e-07,7.627558515143568e-07
1669910056912705738,19961,1669910056858438471,,0.9553460120431311,-4.492117636152523,1.0400007081215072,0.0039997215010209395,-0.010999901394732853,0.004999757546351957,0.0,0.0,0.0,0.023134400213994155,-0.02158517708039298,0.5624202641280363,-6.541288683130659e-07,1.3428799870863503e-07,7.626220221468756e-07
1669910056928705550,19962,1669910056900506871,,0.9557338808317746,-4.49242577482618,1.0402039406323873,0.0039997215010209395,-0.010999901394732853,0.004999757546351957,-2.693587530788345e-220,6.552705723685233e-219,-3.393710930205697e-215,0.022740933481520287,-0.01701208945225474,0.5619554326792429,-6.542462170888259e-07,1.3512341708668981e-07,7.625311673836231e-07
1669910057062832661,19963,1669910056933380292,,0.9573466345588334,-4.491872277641461,1.0396843540163792,0.007999919853440311,-0.010999945296560914,0.007999928057985925,-2.646998788453613e-217,-6.6826664712908e-217,-1.934520991562379e-215,0.02274274381761998,-0.016872261023976876,0.5619430293130279,-6.542879789264782e-07,1.3532373369270327e-07,7.625099420105929e-07
1669910057369736651,19964,1669910057073255412,,0.9596664299382326,-4.491388693845519,1.040762474079861,0.010999983468958944,-0.008999945859613006,0.010999975622427936,-6.588873714519077e-83,-1.3177747429038154e-82,-1.6867516709168837e-80,0.0213794757912531,-0.0023642699207577778,0.5603500341025427,-6.545096558158339e-07,1.3729744616966381e-07,7.622589597439294e-07
1669910057390227509,19965,1669910057189401147,,0.9613192383657092,-4.491618125247283,1.041248467936645,0.010999983468958944,-0.008999945859613006,0.010999975622427936,1.3818778951727183e-144,8.07762612538425e-145,-2.0028620281714817e-145,0.02082965262236769,0.008349716684874053,0.558940458136373,-6.545373492327666e-07,1.3878510802426646e-07,7.620105679522608e-07
1669910057411647994,19966,1669910057245221040,,0.9631091928326145,-4.492532816455356,1.039873224462347,0.011999983279429376,-0.01199994670470551,0.010999975342937326,-8.156428707066475e-292,-6.3229759604172945e-292,-1.214068729918732e-293,0.020720339521080433,0.013868942767540915,0.5581241360952252,-6.546336483945089e-07,1.4036469088885667e-07,7.618028301136196e-07
1669910057463777012,19967,1669910057412284060,,0.9659179793455401,-4.493188582611583,1.0413401065913899,0.011999983279429376,-0.01199994670470551,0.010999975342937326,-1.8749643791842826e-221,-1.224603538597452e-220,-6.4751009031677134e-220,0.021132161470921673,0.026466980240655857,0.5562115251845956,-6.545221962381081e-07,1.42232703777603e-07,7.615335100828807e-07
1669910057605890278,19968,1669910057474731208,,0.9664451347366325,-4.494274927236576,1.041876813523253,0.009999983073011937,-0.012999948115605441,0.00999997503854295,-2.3781037290865062e-67,6.188246651840967e-67,2.6826826150194596e-65,0.02149246264494664,0.029828803989431663,0.5556745067100284,-6.544411050973482e-07,1.4274277526264247e-07,7.614469716131588e-07
1669910057920228685,19969,1669910057608968619,,0.967654360343039,-4.496085590355899,1.0418281022602822,0.00699998291970256,-0.013999949323924756,0.006999974812464604,0.0,0.0,0.0,0.023411246570731237,0.037639111060320474,0.5542620683803001,-6.540328722531016e-07,1.4373756129837115e-07,7.612568468034034e-07
1669910057938448019,19970,1669910057748541198,,0.9690502925964543,-4.498026532603158,1.0400553671322947,0.0049999827150909925,-0.01499995041317364,0.005999974510733261,0.0,0.0,0.0,0.02574305577049607,0.04194822096883577,0.553118636679109,-6.536279508746894e-07,1.4410590012780908e-07,7.611076101887248e-07
1669910058017087493,19971,1669910057887370963,,0.9698966299564105,-4.500418878567636,1.040396015707536,0.0019999824949935028,-0.015999951376939308,0.0029999741861655342,-2.5737787947340145e-85,-1.2868893973670072e-85,-5.147557589468029e-85,0.02817835677565128,0.04370656947510909,0.551889947208716,-6.53310086311031e-07,1.4405188206123275e-07,7.609180032103754e-07
1669910058133888677,19972,1669910058024087613,,0.9705675561410657,-4.502550431327332,1.0406451455388497,-1.7771407331402542e-08,-0.015999952120793276,-2.6206683622269425e-08,-3.4411562847426334e-275,-7.959519318250624e-275,-2.4158580772757025e-276,0.03096142643362043,0.0429934378662189,0.5498101270282838,-6.52940009887547e-07,1.4355215962332742e-07,7.605559175014689e-07
1669910058404486895,19973,1669910058143979328,,0.9715666088334254,-4.50418621596857,1.0400516058594398,-1.7771407331402764e-08,-0.015999952120793276,-2.6206683622274633e-08,0.0,0.0,0.0,0.03241697712363134,0.04068292461913714,0.5480623042060415,-6.527916871916753e-07,1.4293105756804046e-07,7.602549888977839e-07
1669910058439064731,19974,1669910058185293999,,0.9704934621770204,-4.505592588632027,1.0399733579786823,-0.004000018045929973,-0.01599995261610309,-0.0020000266115096374,0.0,0.0,0.0,0.03294568461419445,0.03908760853856741,0.5471475458416748,-6.527838000269629e-07,1.425805127238273e-07,7.601452023879262e-07
1669910058484898833,19975,1669910058335961829,,0.9700620071838749,-4.507689415464049,1.0401551507298095,-0.0060000182755955865,-0.013999952842225672,-0.00400002695018704,-4.626048212451714e-262,-5.614819840753113e-263,5.4609383309112525e-258,0.033746888686371435,0.034665587765513095,0.5451126750309676,-6.527858042129048e-07,1.4160778698763324e-07,7.59864302582747e-07
1669910058608501632,19976,1669910058491402501,,0.9691639946336721,-4.510276476866367,1.0392945138585685,-0.009000018442675999,-0.012999952779158197,-0.0070000271965729,-1.6453094317970548e-146,5.536933941449026e-146,-9.742597991111101e-145,0.03370127634918951,0.026512362664508515,0.5424312054034424,-6.529990877549831e-07,1.4028608447669953e-07,7.59599168813852e-07
1669910058665565265,19977,1669910058615972109,,0.9690042002773714,-4.512227820529099,1.0386083829461852,-0.009000018442675999,-0.012999952779158197,-0.0070000271965729,2.778448436856347e-163,-4.445517498970155e-162,2.2761049594727193e-159,0.033058791363277606,0.019432988516157934,0.5405691965922195,-6.532447061069193e-07,1.3900671228678932e-07,7.594100603737689e-07
1669910058937242243,19978,1669910058673698737,,0.9681549163029083,-4.512642861201118,1.0385829539982283,-0.010000018462570679,-0.010999952476824441,-0.008000027225910679,1.3009275367877839e-145,2.1562102144596618e-144,-4.340336357281574e-143,0.0321154744115244,0.013312573398648553,0.5392601916158686,-6.535757646702087e-07,1.3761159737661096e-07,7.592042878132404e-07
1669910058957210443,19979,1669910058809137316,,0.967727922093042,-4.514593644101845,1.0387246421628453,-0.010000018462570679,-0.010999952476824441,-0.008000027225910679,-2.0749752326594954e-261,-1.8044120951808206e-261,-1.369625239974716e-257,0.02941431682426554,0.004341386104334433,0.5374746869749565,-6.543356471806262e-07,1.3614839531234969e-07,7.590065974305529e-07
1669910059075295175,19980,1669910058901304277,,0.9663575800969869,-4.515992102995609,1.0383300878283814,-0.012000018361548617,-0.009999951964473683,-0.009000027076938052,-3.8709633072799577e-81,1.2650637531876628e-80,1.4759077120522733e-80,0.02803658966406708,0.001268347901117295,0.5369271456868425,-6.546477240515343e-07,1.356766635873926e-07,7.589832675121897e-07
1669910059514048472,19981,1669910059082962213,,0.9643696827911319,-4.51689460763888,1.0397385372205536,-0.01200001814683478,-0.00599995128376363,-0.007000026760309353,0.0,0.0,0.0,0.02203100954977444,-0.011619364730250936,0.535803285499231,-6.557230872890973e-07,1.3370905947052257e-07,7.590770295768333e-07
1669910059588840471,19982,1669910059230349966,,0.9640759062979865,-4.519830923461081,1.0392815542272194,-0.01200001783973736,-0.008999950489123268,-0.008000026307446796,1.714064769343837e-154,5.6524808654247065e-154,5.1935176717587744e-154,0.018918072975134592,-0.018330004644351305,0.5359266855354967,-6.561911890950393e-07,1.3273994310313763e-07,7.592006568195623e-07
1669910059614151256,19983,1669910059391520061,,0.9642426371249594,-4.520813900918384,1.0390249238050158,-0.009000156953155538,-0.00799999622820183,-0.0060001187075112514,0.0,0.0,0.0,0.01598575993270579,-0.02634140773997018,0.5360786235962696,-6.566223905746444e-07,1.3151848420321994e-07,7.59268901015416e-07
1669910059726899157,19984,1669910059552943094,,0.9641272642543597,-4.52236687743578,1.0390236074574581,-0.00800001689147394,-0.007999948913858896,-0.006000024909085995,2.609033415882666e-140,4.053384967167324e-140,1.532309009964687e-139,0.014000698137934364,-0.03327525029375522,0.5362862489583584,-6.569135117715242e-07,1.3061889757094876e-07,7.59433027170782e-07
1669910060069427076,19985,1669910059739852002,,0.9652525710690139,-4.524054485472238,1.0401428862493656,-0.005000204786969527,-0.008999885204890624,-0.004000149728448012,2.569423731608082e-217,9.506450331482808e-218,2.8310430794421187e-219,0.013486928781626162,-0.03776390283723252,0.5374572741040655,-6.569354866021375e-07,1.3024195259241703e-07,7.598027968781757e-07
1669910060162783176,19986,1669910059941419801,,0.9654824333976684,-4.527895993119749,1.04000966366582,-0.006000062797136824,-0.011999899698880557,-1.644596650516563e-07,-3.366891839855762e-79,-7.72886811996117e-80,1.5603233874604431e-80,0.014285379870761616,-0.0390199935106228,0.5399396925207203,-6.566838962153026e-07,1.3065637941771263e-07,7.602642461009419e-07
1669910060573238097,19987,1669910060173451217,,0.967542383068955,-4.531118474376412,1.0401859918638343,-0.003000153407759172,-0.013999854407789804,0.0019998851733488855,-1.6021900318969503e-67,-1.9060271192539468e-68,-2.7154997833924887e-66,0.017603813468102913,-0.03432676623258857,0.5429215766612909,-6.560732329835104e-07,1.3204900387911173e-07,7.608877161540377e-07
1669910060580968784,19988,1669910060338542594,,0.9714098631328406,-4.532172668470894,1.0490045956741487,0.003999893541509683,-0.014999945932492788,0.008999840709880283,0.0,0.0,0.0,0.02048849405665365,-0.02593769259647516,0.5456078361470169,-6.557703229918357e-07,1.3388302638706983e-07,7.61352581847091e-07
1669910060657068988,19989,1669910060494616343,,0.9741110786213999,-4.533331853425893,1.0504483778906035,0.006999984157897231,-0.0149999460704301,0.011999976638373796,0.0,0.0,0.0,0.02162869384581967,-0.015087392162429936,0.548539583340176,-6.558165288052367e-07,1.359673253124104e-07,7.618938172749993e-07
1669910060712562701,19990,1669910060649875562,,0.9762552437904843,-4.534797120238432,1.04978721754408,0.006999984157897231,-0.0149999460704301,0.011999976638373796,4.182583134660996e-79,2.8206550612550183e-78,-8.633162868239302e-79,0.021936333780539385,-0.005175572360757386,0.5510275084711544,-6.55845700149702e-07,1.378085402961752e-07,7.623200320498147e-07
1669910061119849457,19991,1669910060714751802,,0.9783788360467784,-4.534194105549518,1.0506912997856854,0.010999983728762253,-0.01399994654790267,0.014999976005548024,1.377784175056504e-308,1.073772326914925e-309,2.325090018725904e-309,0.022480099767870243,0.0013712204614808599,0.5526137957849375,-6.556929532937078e-07,1.3881159159163993e-07,7.625553547446232e-07
1669910061132440721,19992,1669910060924647116,,0.9828602814118671,-4.536101020276955,1.0509691494986755,0.011999983400665359,-0.01599994716052006,0.0149999755217185,-2.5516516642081426e-78,-2.1303766252081962e-78,-7.864408634455918e-79,0.024902583907376652,0.014762815912561678,0.5560092530987788,-6.552355844640934e-07,1.4092583204632206e-07,7.631326691355041e-07
1669910061244829361,19993,1669910061107659567,,0.9867807778513688,-4.537179536918876,1.051204354735326,0.012999983124563973,-0.01599994797262023,0.013999975114564384,-3.8959572135189595e-78,2.9080435625689536e-79,-5.232919399398975e-78,0.028949553641339776,0.02742473053723593,0.5596389809393774,-6.546808583339957e-07,1.4268663321222954e-07,7.636627266773092e-07
1669910061626577107,19994,1669910061253679738,,0.9883391875434236,-4.538692314033124,1.0498130877270198,0.00999998252439862,-0.014999949743035064,0.007999974229527917,1.6187895667281503e-231,2.281868952628759e-231,6.411211299590974e-231,0.03084163322731115,0.03209712082111871,0.5610935476190981,-6.544668088696125e-07,1.4319317470773232e-07,7.638536493507878e-07
1669910061638013497,19995,1669910061402400215,,0.9908364719157149,-4.539799564100922,1.0501521859791993,0.00999998252439862,-0.014999949743035064,0.007999974229527917,-3.1918523590005945e-155,-4.9938730313151816e-155,-3.0803765426625337e-156,0.03374443762775314,0.03672023084508069,0.5631013996519698,-6.540769161210073e-07,1.4359342856389972e-07,7.641685133427112e-07
1669910061638069162,19996,1669910061465979695,,0.991134496942085,-4.540710552948322,1.050088291027759,0.007999982151065467,-0.014999950538415718,0.004999973678990549,-3.680055941618451e-43,-3.3907473961281843e-43,-9.807834172390163e-42,0.034754449020605094,0.03763367109889515,0.5637380481549776,-6.539743252593821e-07,1.435750919233081e-07,7.64259556878016e-07
1669910061793157867,19997,1669910061629457498,,0.9926279226726362,-4.543146367883407,1.0500187711414792,0.004999981814522261,-0.015999951198316445,0.0009999731827056383,0.0,0.0,0.0,0.03759663738443564,0.0380370186011163,0.565479867586232,-6.53678245084834e-07,1.432324284980174e-07,7.645289010949288e-07
1669910061968253326,19998,1669910061799289872,,0.9925035350429254,-4.545382377935049,1.0499079536668456,-1.855256414554763e-08,-0.01399995180392491,-0.003000027358619938,0.0,0.0,0.0,0.040050135507732065,0.035171729781060534,0.5660467095578134,-6.53374261236903e-07,1.4246940902781702e-07,7.645828782620234e-07
1669910062166352664,19999,1669910061956300970,,0.9930255838560208,-4.547088163848878,1.0501843097691714,-0.0010000187963441192,-0.012999952036530402,-0.005000027718111144,0.0,0.0,0.0,0.0417864584099803,0.03065941889189361,0.5655904425970188,-6.53221961140011e-07,1.4153204091881815e-07,7.644895033803652e-07
1669910062298049438,20000,1669910062128145971,,0.9925980677365518,-4.549367669540749,1.0496392338091494,-0.004000018961094632,-0.011999952018447696,-0.00800002796106121,-4.368609546276315e-80,-2.0540625324881e-80,-1.2986728772766484e-80,0.04305228684347284,0.023969152390687753,0.5645213440166899,-6.53171259263419e-07,1.40391208782174e-07,7.643775938799957e-07
1669910062604901927,20001,1669910062291321743,,0.991812016943019,-4.552045441811157,1.0494065644844814,-0.007000019065672467,-0.011999951807174121,-0.01100002811527737,3.3745607420183907e-183,3.461512638625551e-185,-2.000961753710423e-183,0.04405336808072491,0.011256756442877602,0.5619814739157114,-6.532098610805727e-07,1.3796190520472752e-07,7.640223003839011e-07
1669910062689321921,20002,1669910062492598960,,0.9899573581904647,-4.554692580463697,1.049988657891615,-0.010000019111025328,-0.00999995141764174,-0.013000028182157168,-4.011767505776006e-66,-1.1895260691849883e-63,-5.508805607020613e-62,0.04370850634518675,0.0003297912487472132,0.5594359498385479,-6.534842702344584e-07,1.360472647160323e-07,7.636560115030446e-07
1669910062865388094,20003,1669910062702822730,,0.9858426435127082,-4.5568891194457235,1.0497131456055973,-0.015000018977448744,-0.004999950177307284,-0.015000027985177872,3.495257488608138e-65,-8.983533384282192e-65,1.7959820262093225e-62,0.041625113093804345,-0.013629017167721358,0.5553291862134078,-6.539946740719017e-07,1.3395216717157275e-07,7.630924360173819e-07
1669910063128967518,20004,1669910062874878620,,0.98442829400086,-4.55864915486149,1.040328630961728,-0.014000018727848416,-0.004999949181699267,-0.015000027617103655,1.718107817824686e-43,2.7308917503774904e-43,6.833770042854042e-42,0.039832125415504294,-0.025806560856599603,0.5509507899485424,-6.543887007157152e-07,1.321055534723153e-07,7.625094174859498e-07
1669910063209340390,20005,1669910063026094110,,0.9830245900338654,-4.560252642881966,1.0394473059967557,-0.014000018448340977,-0.004999948406002683,-0.017000027204926785,1.1458455060003934e-220,3.1237347669227615e-222,1.6778648863394963e-221,0.038322579440634996,-0.034531928357502295,0.5474161375945918,-6.546840298077285e-07,1.3091518926084798e-07,7.620606881498334e-07
1669910063356449806,20006,1669910063215238013,,0.9818987080080496,-4.562457363452066,1.0391553118699137,-0.013000018149657762,-0.005999947621066588,-0.015000026764472273,-7.490682167507517e-96,-7.490682167507517e-96,-2.3803146559437932e-122,0.03722702947626999,-0.04080787061775659,0.5427045895892544,-6.548970170893671e-07,1.3080089196266526e-07,7.613673508096603e-07
1669910063648839133,20007,1669910063367267457,,0.9835051684905449,-4.562001012388496,1.0403617989340521,-0.005000367298342722,-0.004999990626440488,-0.011000201085928274,2.5167606250483767e-43,2.177738993603327e-43,6.338887524839094e-42,0.0339177237340067,-0.039423545573235685,0.5384206363858812,-6.562538448542674e-07,1.3173996398340841e-07,7.606685224429392e-07
1669910063707848840,20008,1669910063538746935,,0.9839842035151883,-4.560053619161243,1.039812658009752,-2.2900340111275234e-07,-1.5765001394260604e-07,-0.004000321907267283,0.0,0.0,0.0,0.025980100500950343,-0.03340325320087345,0.5336941484380464,-6.576120098963771e-07,1.3304503594228697e-07,7.599393713582652e-07
1669910063904131698,20009,1669910063722284682,,0.9848318489693207,-4.556690982572211,1.0400055604967293,0.0049999824611915815,0.005000054009386594,-2.586368061732692e-08,0.0,0.0,0.0,0.02095591281917386,-0.024394429813851204,0.5296026586043237,-6.581655606445661e-07,1.348462023850976e-07,7.594639767579242e-07
1669910064187141489,20010,1669910063890343153,,0.9865312234754124,-4.5589281024044235,1.039999515756572,0.00400002616008294,-0.0019996410509630315,-2.5704106374381698e-08,-1.129725433054842e-46,-1.3571723922334766e-46,-6.835008921745831e-45,0.019840938927901064,-0.01584921210152146,0.5279721942488376,-6.58064742343507e-07,1.3632077431791732e-07,7.594334211926407e-07
1669910064275729130,20011,1669910064111081984,,0.991352785471794,-4.561124062849327,1.0400871798258904,0.00799998313789675,-0.008999946800414745,0.002999975134225621,2.635549485807631e-82,-2.1084395886461046e-81,-1.0542197943230523e-81,0.02446930335123021,-0.0007727567113473555,0.5278378505367094,-6.567773031403228e-07,1.3851677711913257e-07,7.596556280564383e-07
1669910064437107540,20012,1669910064288297958,,0.9962283743357443,-4.564974014294225,1.0399223754352465,0.009999983350625774,-0.016999948074098197,0.003999975447927407,-1.4654951443231414e-44,-5.365247818463753e-44,-1.712046793471462e-42,0.0317966453201155,0.009106403659112416,0.5297570605457445,-6.554150475769981e-07,1.4027338902852477e-07,7.602233839684286e-07
1669910064708304898,20013,1669910064450764735,,0.9985707153986637,-4.5683506647538925,1.040145056857233,0.006999983102008167,-0.019999948803501748,0.003999975081302366,0.0,0.0,0.0,0.03946024743774146,0.01741008309234715,0.5333987549165222,-6.543142628469083e-07,1.414749807903873e-07,7.609512804901998e-07
1669910064788782919,20014,1669910064635930579,,1.0012481516237766,-4.572182042316707,1.040062471142575,0.004999982593795666,-0.021999949534133895,0.0029999743318645774,-4.2008181791124187e-107,-6.914426723267811e-106,-1.7962417064042466e-104,0.047315291158602335,0.02398056469858645,0.5385386946901942,-6.531714302499001e-07,1.423296369853754e-07,7.619669856250723e-07
1669910065222391000,20015,1669910064794973180,,1.0018978726348942,-4.576423915226422,1.0399780445524884,-1.8100963270796538e-08,-0.022999950222952547,0.001999973307335269,-2.976765962398572e-234,2.1834742001345995e-233,-8.697032628390758e-234,0.05274436764573309,0.026897585417597014,0.5433420726965164,-6.52572099611657e-07,1.4252562707730702e-07,7.628013119512814e-07
1669910065235506325,20016,1669910065009122164,,1.0004056874777987,-4.582537611951587,1.0393046254519176,-0.010000019585727313,-0.021999951403849118,-0.0030000288821785256,-9.665845137039588e-148,2.1976860671616233e-148,6.549219203442587e-147,0.057921005450195295,0.02654412388254279,0.5517184835585915,-6.523219517030177e-07,1.4206112147822332e-07,7.6415305134647e-07
1669910065373251899,20017,1669910065188177988,,0.9986335310325344,-4.587675506819058,1.0307600046349656,-0.015999738537053075,-0.02099999857354689,-0.005999888867791308,1.8679864842075152e-145,1.7824180568154558e-145,2.7869786980706276e-144,0.059659544627091776,0.02228208889315475,0.5599969249932322,-6.52393206636469e-07,1.4113154664377404e-07,7.659050386031559e-07
1669910065748916326,20018,1669910065378785819,,0.9954964329739565,-4.594232091361607,1.0291607558120508,-0.023000020434579365,-0.02099995161152104,-0.008000030133941922,-9.65681395244993e-68,1.555454861899258e-68,-2.132442546496556e-66,0.057941574548618036,0.013568188515101554,0.5708233118252526,-6.53095096299229e-07,1.3959911636412483e-07,7.679022455201265e-07
1669910065804043161,20019,1669910065591480723,,0.9895400082961995,-4.601414825174524,1.02695050888424,-0.031000020573693894,-0.017999951312719625,-0.010000030339087772,0.0,0.0,0.0,0.0536240314830394,0.0013123508109025295,0.5840664016919295,-6.540644022457939e-07,1.3749893254817563e-07,7.705353216639203e-07
1669910065887246159,20020,1669910065732335324,,0.9851584393753167,-4.607155252507557,1.0305914262608857,-0.03600002053038585,-0.017999950738562472,-0.013000030275223366,6.417737459539628e-78,-5.732678511303428e-78,4.499726643481031e-78,0.05092091684499067,-0.005812381066551353,0.592443404339134,-6.545733839881847e-07,1.3638963492087444e-07,7.721178584732107e-07
1669910066025611164,20021,1669910065877466392,,0.9793984487410676,-4.614010064466867,1.0288433591947868,-0.04299990881064271,-0.01799995000037243,-0.014000014031257654,-4.82242918903842e-67,-2.342217202732225e-66,1.51612475737293e-65,0.047299354362030144,-0.014484418170258806,0.6036641142403791,-6.550371074073739e-07,1.356441408447161e-07,7.735357194670437e-07
1669910066282968090,20022,1669910066035066176,,0.9718030618330129,-4.620861913452666,1.0303998689547174,-0.05000001991616847,-0.014999948926059182,-0.01300002936946502,-2.662884651797806e-299,-1.3186382610294226e-296,-1.4464983972378014e-296,0.043092452307217144,-0.02460735357205479,0.6188348847244427,-6.558179208729779e-07,1.3393011190996007e-07,7.766559286593766e-07
1669910066537563015,20023,1669910066241309510,,0.9611142917464427,-4.628729947323966,1.0303665648759688,-0.057999695418620205,-0.007000315992889838,-0.010000074098545917,3.3872339134452117e-230,-5.093801751984257e-231,8.775435685095775e-231,0.0378347687926297,-0.034374515025611174,0.6334689490094583,-6.567865508326111e-07,1.3274296604917735e-07,7.787303838221465e-07
1669910066941575756,20024,1669910066418708974,,0.9512205394085581,-4.635149300231244,1.029456255066731,-0.06199985079339741,-0.0020001549179948872,-0.008000111179171777,0.0,0.0,0.0,0.03313599656993205,-0.04042038936005099,0.6438469483671536,-6.575808041039411e-07,1.3198181670834474e-07,7.805308562769461e-07
1669910066960165045,20025,1669910066598738053,,0.9400720196237017,-4.642951825319532,1.019976824821436,-0.06799975505258068,-3.208193421556063e-08,-0.00700007061063583,0.0,0.0,0.0,0.027497415364685196,-0.04446837857711827,0.6562248209158614,-6.584826310033578e-07,1.318584765944246e-07,7.82532149557436e-07
1669910066960230311,20026,1669910066790264895,,0.9290472299963866,-4.649200925013727,1.0190841997690114,-0.06700005987323371,0.00399988766115316,-0.004000152697561726,1.3485792217065207e-77,9.030965334172172e-78,1.745823203283824e-77,0.022829824608550098,-0.04222454926903474,0.6663767239939666,-6.591270871846453e-07,1.3302181641860784e-07,7.839775474776523e-07
1669910067501984774,20027,1669910066941046343,,0.9204046463431211,-4.652389449360408,1.0200563398999147,-0.06400001724971116,0.009000057218441389,-2.5437362070886835e-08,4.024513906562702e-44,2.2471516552389655e-44,1.0867532527207105e-42,0.020511481283186583,-0.03649327052131568,0.6715457464677321,-6.595276983024727e-07,1.3447423153211677e-07,7.847218191823733e-07
1669910067502396491,20028,1669910067138536410,,0.9082049940359527,-4.656682263994438,1.0198781627975235,-0.06300003253259596,0.01399997954166906,0.004999896933261119,-1.8770467619842506e-139,-7.3142371140437595e-140,-8.443040321134437e-140,0.019505356617145253,-0.023849959809918886,0.6765615806925283,-6.592090244793767e-07,1.3687897225430655e-07,7.851956546454475e-07
1669910067513608558,20029,1669910067319220137,,0.899438515406736,-4.65931630863824,1.0212971144410816,-0.057000016630676664,0.016000057768479552,0.009999975475499854,0.0,0.0,0.0,0.024882236211382747,-0.007876852597130224,0.6780535561661853,-6.580187765852041e-07,1.397119873087685e-07,7.850064905106818e-07
1669910067841608513,20030,1669910067454520516,,0.8911151787451069,-4.662021338068411,1.0200026888099456,-0.05800001658624736,0.018000057401679714,0.007999975541017725,9.356703959370894e-154,-3.323263525675321e-154,-8.886020712660947e-153,0.029874525450706457,0.0030724789444711575,0.6763957226987642,-6.570276573683566e-07,1.419511478266509e-07,7.84423282044526e-07
1669910067851160662,20031,1669910067658124344,,0.8792341693317776,-4.663474970818124,1.0199157255566464,-0.05500014247955141,0.022999847100182408,0.008999933428408153,0.0,0.0,0.0,0.03660192025082942,0.02022115901691457,0.6696236775236564,-6.562714773196096e-07,1.445267561950783e-07,7.828775499319262e-07
1669910067972122418,20032,1669910067817689295,,0.8667477046232812,-4.659794150216284,1.02148560749196,-0.05300001787858019,0.03800005463102022,0.007999973635273454,-4.360137359026086e-154,-1.0370866235891063e-154,-1.6924908973256947e-153,0.03964450460952129,0.033324339582435414,0.6604687856811609,-6.562272225230655e-07,1.460901140394219e-07,7.811649978677028e-07
1669910068404365585,20033,1669910067987906502,,0.8538100491195868,-4.659055045393964,1.0216252191153146,-0.05500001861512059,0.043000053207174156,0.007999972549130926,0.0,0.0,0.0,0.040285227531274614,0.044764772239256345,0.647901840055205,-6.563502750879897e-07,1.4764159889701378e-07,7.787261335142895e-07
1669910068423368398,20034,1669910068190959007,,0.8369555836908604,-4.656700039357856,1.0207960993488634,-0.05700001919401644,0.05000005175446501,0.004999971695459633,-9.004620102178126e-65,-1.5343672587878617e-64,-5.584724797858458e-63,0.03933487380430378,0.05087248126004695,0.6344467204916242,-6.56592129520477e-07,1.4804106711401233e-07,7.764278324991673e-07
1669910068514323042,20035,1669910068349573740,,0.8212322589399186,-4.657236063579479,1.0198973816557808,-0.06600001961705444,0.052000050076491985,-2.8928375206613246e-08,1.479791529165154e-298,4.331762460075833e-299,8.58123580894183e-296,0.0374432216746623,0.05239806536588887,0.6225663047840104,-6.570306409455756e-07,1.4779451799539654e-07,7.748341399210855e-07
1669910068892546601,20036,1669910068528748761,,0.801465794097673,-4.65876180392719,1.0205156538106492,-0.07700001971051826,0.05400004895842931,-0.0020000290662020408,2.2608989096544115e-77,6.873969312996285e-78,6.034694162642101e-78,0.03363776098036375,0.04962236014998922,0.6135326906877268,-6.578117388683982e-07,1.4695156905833797e-07,7.740918884927636e-07
1669910068918688443,20037,1669910068700385097,,0.7811487041670516,-4.6622438371477735,1.0202267172317283,-0.08799901970779053,0.05300013913419349,-0.004999756260635953,-1.5949809230455126e-144,-5.618779926493992e-146,-2.662534230570249e-142,0.0286233205466786,0.043697641543436916,0.6087555883233975,-6.58912547178158e-07,1.4558064544610215e-07,7.737614408338699e-07
1669910069173005420,20038,1669910068935819028,,0.7508042547847213,-4.666865175123649,1.020166391347493,-0.10100001913330475,0.0540000479959009,-0.009000028215011608,1.0840517366188458e-206,7.646704607781257e-206,9.655940395895394e-205,0.021659738709951526,0.03266458054284804,0.6095383032995798,-6.60254615866052e-07,1.434678379634195e-07,7.747773104606135e-07
1669910069438237257,20039,1669910069174023472,,0.7215779836103252,-4.673514571286759,1.0199015970462788,-0.10799990839090061,0.05100009562800462,-0.010999996064149883,0.0,0.0,0.0,0.014542397319123879,0.016671535603837384,0.6201348442242409,-6.611300548929003e-07,1.4120956428133414e-07,7.771165455807758e-07
1669910069659444099,20040,1669910069424869407,,0.6913345974509547,-4.682985841470798,1.0093706929912647,-0.11299996186918845,0.04600016135239984,-0.011999970130588669,-7.147826775086092e-77,-8.928082719940754e-77,4.90945838959763e-77,0.009957988112683225,-0.0021791348999702365,0.6406821394387237,-6.618224221212801e-07,1.3801624418735992e-07,7.81381434799015e-07
1669910069965941538,20041,1669910069686278697,,0.66186852154494,-4.6930521652243975,1.0097408015067806,-0.11300001683999941,0.042000051480292164,-0.009000024833178848,0.0,0.0,0.0,0.00921443502581809,-0.018137457433459403,0.6681378801230142,-6.619724604339176e-07,1.3593087843087704e-07,7.864778424433421e-07
1669910070209186381,20042,1669910069935286859,,0.6316395439993987,-4.704441083306933,1.0094108291340722,-0.11700001607562269,0.042000054007703465,-0.007000023705987362,0.0,0.0,0.0,0.0026504077222000433,-0.022702406900652505,0.6928091474309497,-6.638874892115111e-07,1.3579012261937812e-07,7.904686734485994e-07
1669910070468758638,20043,1669910070229298188,,0.5934598432911788,-4.709678462806369,1.010074772806183,-0.11400001579151796,0.056999689887645706,0.003999767354204906,0.0,0.0,0.0,-0.009743676725287642,-0.023708235366335373,0.7232995349572953,-6.652095153540785e-07,1.3598754163187725e-07,7.951258134051432e-07
1669910070669272319,20044,1669910070434777253,,0.573788881998295,-4.718414888663191,1.0099267949882318,-0.10800027030029283,0.0470004820781813,0.0020000624345777244,0.0,0.0,0.0,-0.006108236544346113,-0.022710566948950017,0.7420451206424268,-6.635224001392167e-07,1.3614800208346646e-07,7.975692205620078e-07
1669910070980527713,20045,1669910070701823961,,0.5428433161400965,-4.727916080546682,1.0100936820616948,-0.10800009522413657,0.05099981489553437,0.005999898068603243,-4.550808326739281e-105,6.196777629771933e-106,-7.764166676484474e-105,0.009031963469848137,-0.022072201654509627,0.7437511081925425,-6.604893836772331e-07,1.3619753634004193e-07,7.958004178970071e-07
1669910071132045836,20046,1669910070905700206,,0.5165094133528606,-4.7323994912673895,1.010060585386633,-0.10899991084014725,0.05999912579493387,0.006999875012429131,-5.941352681626968e-78,2.11154808896291e-76,2.4321569459149782e-77,0.024886351035871,-0.022430021774635378,0.7286447137413532,-6.580355132125989e-07,1.3598071909411994e-07,7.924583746282504e-07
1669910071497787297,20047,1669910071148770704,,0.4862723466338799,-4.737240362189876,1.0111343029855484,-0.10800001516527347,0.06300005847737798,0.007999977636463082,1.2707804523751854e-297,-9.843453330842353e-299,-2.39401517114889e-297,0.04737472778121088,-0.024465630810972527,0.6943842691990092,-6.550345326286857e-07,1.3536673285346132e-07,7.86399979249916e-07
1669910071655224023,20048,1669910071386544722,,0.4500736383342737,-4.742396185023026,1.0100571427807983,-0.11800001748801181,0.07100005746180299,0.00999997421122683,-1.0234838253205779e-65,4.459150348310502e-65,3.8336600842281404e-64,0.05923962573902131,-0.025467529030358094,0.6598949789270563,-6.540529169362859e-07,1.350032264393907e-07,7.804028352740771e-07
1669910072021362500,20049,1669910071670433157,,0.40988130137885787,-4.742129119080445,1.019653383338277,-0.11500017251613162,0.07899964674169277,0.012999818572770012,-2.767758557953215e-138,-3.796290758292987e-138,-2.341808981624761e-137,0.064299222799443,-0.02451139939861413,0.6091957461921744,-6.542490634883838e-07,1.3482999711080285e-07,7.722547588284442e-07
1669910072142968533,20050,1669910071937828964,,0.3799766424172524,-4.740507848133011,1.0226705551778796,-0.1030004376665029,0.07400022208901336,0.01599980334169626,-2.2661940284888342e-225,-1.8417241672499317e-222,-2.3043728117675616e-221,0.05787291464452338,-0.021296616527536116,0.5667996138476887,-6.563495198893104e-07,1.3519473943703906e-07,7.661472377301265e-07
1669910072316816866,20051,1669910072161854817,,0.35421345925837155,-4.737341204068849,1.0220963158466907,-0.09700033171708339,0.07400005408281649,0.019999762459220194,-1.656084321055619e-170,6.624337284222476e-170,-1.3248674568444952e-169,0.047302559503037855,-0.017096651475805302,0.5401854019617431,-6.585311582907439e-07,1.3586200050443258e-07,7.62694069666848e-07
1669910072553366476,20052,1669910072314855065,,0.337829423774226,-4.738786455102729,1.0296388021581089,-0.0970000202535043,0.06600158099305672,0.020999779220158575,3.031085327126083e-139,8.66496999975294e-139,3.0378492793796004e-139,0.04166370852913559,-0.014867901718437437,0.5320442660928926,-6.596938206768067e-07,1.3627199810286692e-07,7.616905746410836e-07
1669910072694558397,20053,1669910072527116232,,0.3198556475160953,-4.739384006803149,1.0307862093566222,-0.08600027841673574,0.054000311106820034,0.026999842098259324,-4.124966300724723e-143,5.706454060771264e-143,-2.6201801676935033e-142,0.02606962923333711,-0.008768595707277171,0.5196444724394578,-6.624594192587934e-07,1.372617244320412e-07,7.606019366714492e-07
1669910072825807645,20054,1669910072710443737,,0.30159267278433805,-4.740910130132536,1.0303441138465395,-0.08799993547414771,0.049000259124182585,0.026000014175064874,4.930718912918041e-65,-3.150708457313437e-64,3.9103210596903606e-63,0.013119801876159798,-0.004663088460127085,0.5155787194650472,-6.64621993800472e-07,1.3787880766848912e-07,7.603677295012016e-07
1669910073070094711,20055,1669910072841636573,,0.28838487594186174,-4.7410396321578645,1.03329219586396,-0.08799993547414771,0.049000259124182585,0.026000014175064874,-7.808831546098735e-225,1.8437874925079219e-221,1.152238164338893e-219,0.003218026364287141,-0.0016820985340757488,0.51448227872541,-6.661559292425654e-07,1.3837082285034575e-07,7.605280754577647e-07
1669910073110791695,20056,1669910072900224377,,0.2842000493900626,-4.741564863176422,1.0299384968186898,-0.08500001761776459,0.046000050858042034,0.02699997401988633,9.63290374734754e-155,2.4568989282674876e-154,-9.211628866613865e-155,0.0015597498672921262,-0.0011500213337232168,0.5145976306890567,-6.662827164661717e-07,1.384207424940499e-07,7.606518678006944e-07
1669910073243906468,20057,1669910073078665243,,0.26910329169451846,-4.744786449568019,1.0389210235041317,-0.08400001680750076,0.03800005058273467,0.02699997521474543,-2.2074365399281924e-45,-9.830865976245297e-45,-1.9390937548367828e-42,-0.0053232252946742165,0.0012203057365454129,0.518678925298989,-6.669614281047207e-07,1.3865567458681728e-07,7.619553250649993e-07
1669910073593394740,20058,1669910073267116256,,0.2528431233222164,-4.750954387948353,1.0415363975869731,-0.08700001581370642,0.028000050332876846,0.024999976680248604,4.914206519773204e-237,-3.931365215818563e-236,5.0321474762477604e-234,-0.0070274666327811985,0.0014369385735228946,0.5278699869223704,-6.669375833705608e-07,1.3850963092534977e-07,7.640455705629844e-07
1669910073615674730,20059,1669910073419458425,,0.24023749513253762,-4.759596000430531,1.040167046521159,-0.09099984327491273,0.017000523421524853,0.022000106436746172,4.2168791772922093e-81,1.6867516709168837e-80,4.3180842775472223e-78,-0.006601349688198255,0.0007112351162774644,0.5389289038473581,-6.667300828458875e-07,1.3833783694745285e-07,7.662785586901097e-07
1669910073713132802,20060,1669910073571403842,,0.2285425365577009,-4.76704317801217,1.0502332931159846,-0.09100001489498892,0.011000306377771147,0.021999978029719133,1.5860747387090046e-154,9.103004268489613e-154,-2.4620682127443197e-154,-0.002181364353853965,-0.0011861711204055325,0.5536212256567019,-6.655849253509415e-07,1.379257160536806e-07,7.686622404818711e-07
1669910073973506147,20061,1669910073726787868,,0.21773774144809266,-4.773917530429966,1.0531261107052219,-0.08800014248413797,0.0070002210807833505,0.02100002094983058,-9.557730250821194e-78,2.7952109846303606e-78,3.48352912625206e-79,0.0034443113696962513,-0.003255734055050752,0.5653982913067015,-6.646179597320473e-07,1.3760418094006923e-07,7.705577872756774e-07
1669910074208742829,20062,1669910073899477707,,0.20466983340660508,-4.782715359565181,1.0526728304172452,-0.08899997129717221,0.004000181118852166,0.020000021745562792,-3.162861617092215e-68,3.585902134746428e-68,8.827016629469203e-66,0.008744391973278809,-0.005164581125590928,0.5761713796711412,-6.638792561730922e-07,1.3735311724274614e-07,7.722292632229075e-07
1669910074664311839,20063,1669910074229429247,,0.18233448210485692,-4.797136018790597,1.0612879170602407,-0.08400006528287901,0.003999952823685185,0.020999952197616606,8.418794259219555e-124,-1.7874263807885925e-121,-4.4096942109225773e-125,0.01631028916863997,-0.007726832084129498,0.5910182360077645,-6.631566804052938e-07,1.3719347643766445e-07,7.738642715436247e-07
