%time,field.header.seq,field.header.stamp,field.header.frame_id,field.position.x,field.position.y,field.position.z,field.velocity.x,field.velocity.y,field.velocity.z,field.acceleration.x,field.acceleration.y,field.acceleration.z,field.orientation.x,field.orientation.y,field.orientation.z,field.angular_velocity.x,field.angular_velocity.y,field.angular_velocity.z
1669909988954065785,19387,1669909988637088869,,0.20646718314606224,-1.2282535568101816,1.0188462262181825,0.024000581117143684,0.17200115634783633,0.02799988231915901,-1.6472079008847337e-43,-1.0964836068908182e-42,-1.8802147711278091e-41,0.05769313985617508,-0.00895639113813651,-0.12328548273550055,-6.259364033137691e-07,1.3840745563269352e-07,6.419167609656803e-07
1669909988970649040,19388,1669909988773839983,,0.21340857458666954,-1.2073980419895036,1.0203162545069162,0.025999810211975886,0.16800037407451213,0.02799996907461053,-1.91614989816158e-76,-1.3561483434171745e-76,0.0,0.052391609924972826,-0.011270749739288988,-0.1496234265698,-6.265986018346195e-07,1.3793031724011984e-07,6.391473808528328e-07
1669909989012571082,19389,1669909988921775997,,0.2210402957315057,-1.1836663018367168,1.0310436154422542,0.025999810211975886,0.16800037407451213,0.02799996907461053,0.0,0.0,0.0,0.047482152786734844,-0.014660436645622,-0.1737607300360935,-6.27159020272282e-07,1.3737237844200928e-07,6.370876300659481e-07
1669909989173642847,19390,1669909988990472703,,0.2167499947644985,-1.1791457508650705,1.0307956838420622,0.01099997993247869,0.1520000352680406,0.027999970407341847,6.747006683667535e-80,1.349401336733507e-79,2.1590421387736112e-78,0.04676755912279518,-0.015264776307217787,-0.17693195275002793,-6.272139931841507e-07,1.3731440450786745e-07,6.37016630670717e-07
1669909989470618356,19391,1669909989150855430,,0.21903725161556115,-1.1637443591199395,1.0353040881475606,0.00600020097770727,0.13400082769961902,0.027000015557201357,1.1106673892252649e-291,2.429530405271946e-292,5.824755313840591e-292,0.04325462958597015,-0.01781114789544347,-0.18767096417543705,-6.278141142329375e-07,1.3708482067908891e-07,6.365165449850275e-07
1669909989540331177,19392,1669909989298837076,,0.2219269241878821,-1.1505792736756122,1.040645892940983,0.005000067755625502,0.12100115900068559,0.026999972321424676,1.6508580784716794e-229,2.854959355790008e-230,-2.606553520295634e-232,0.04091050193688872,-0.018239552388235936,-0.18394329562560507,-6.281441588685764e-07,1.3730765136360706e-07,6.388330519314174e-07
1669909989718649293,19393,1669909989518701357,,0.22646204189182284,-1.1307301268372139,1.0415418117591848,0.004999981567439286,0.1100000343250673,0.027999972818343648,-9.828413039546407e-237,-1.5725460863274251e-235,-1.2580368690619401e-234,0.03968786548845493,-0.017616307667861264,-0.16477661316394077,-6.282230926110359e-07,1.377137221447464e-07,6.42997745743237e-07
1669909990043378984,19394,1669909989694963749,,0.2318356037049058,-1.1280251302690993,1.0507993952807084,0.013999981945771008,0.08000003462588968,0.02699997337625218,4.3508262016839265e-186,8.370093422607901e-186,1.614621042725479e-185,0.04019841517050793,-0.015329981509330182,-0.13494959664422623,-6.278925661193146e-07,1.384699511760099e-07,6.483278817346093e-07
1669909990082591549,19395,1669909989840764788,,0.23568667160303736,-1.1215165532279785,1.0490387612521512,0.016999848325052552,0.06800057012031918,0.027999928927849346,-4.113048838284543e-77,-4.616887953786609e-77,-6.49998836462314e-78,0.04195070245664745,-0.012401267713682884,-0.10419632598700446,-6.275937330181061e-07,1.392641400188322e-07,6.537137765751552e-07
1669909990103250701,19396,1669909989958862482,,0.23841531749986813,-1.1138570481666028,1.0587782413962048,0.016999848325052552,0.06800057012031918,0.027999928927849346,3.848820924632826e-43,1.583649014776064e-42,3.686556204718238e-41,0.04304496089738308,-0.010191716665048034,-0.0808245249684969,-6.274600756045647e-07,1.3979354890326023e-07,6.574266351278922e-07
1669909990257642118,19397,1669909990054057198,,0.24223213316824274,-1.1118130401783086,1.0616345222189807,0.021999981981162493,0.059000035855345,0.02699997342844239,0.0,0.0,0.0,0.044328482608904096,-0.007706413295055725,-0.05402008336239028,-6.272663068773517e-07,1.4041280227311256e-07,6.619497346065016e-07
1669909990542850525,19398,1669909990215297272,,0.2482036619021615,-1.105496713677222,1.0612727824385562,0.026999734365337855,0.05300033339906872,0.025000072132899863,9.556209490602699e-234,-1.5559549038417687e-234,4.723071820617873e-233,0.046589794303049104,-0.004583792065242065,-0.01564349156959466,-6.269170614930458e-07,1.4116264509372307e-07,6.679736261138411e-07
1669909990579104271,19399,1669909990339480508,,0.2526912708542763,-1.1033684851178203,1.0687370363016644,0.02999998158016544,0.04300003706776516,0.022999972837110326,8.799863734703511e-296,6.589935562781894e-294,9.747990246134535e-293,0.04826939734984137,-0.0022925449974291467,0.013513149155125248,-6.268094583047836e-07,1.4175531742615006e-07,6.720736385690737e-07
1669909990710775886,19400,1669909990495183094,,0.2585200207366867,-1.0967235368113877,1.0707515143047472,0.03299968994266041,0.0430000377335556,0.02100016676361272,-8.280421605278095e-171,-2.070105401319524e-171,4.444060324268742e-197,0.04846826846219976,0.0006452432341035319,0.044348024722346224,-6.271514477678657e-07,1.423469691631994e-07,6.755694670653423e-07
1669909991028605817,19401,1669909990674490862,,0.26443813233390523,-1.0869593522420673,1.070201785654841,0.033999981097193724,0.04700003841308405,0.017999972124893973,0.0,0.0,0.0,0.04599489826071235,0.0031551738485724456,0.06860327259309074,-6.279880605410577e-07,1.4289144569897106e-07,6.790062932886786e-07
1669909991072541450,19402,1669909990812445095,,0.26908670913875465,-1.0797486315611784,1.0707540681370475,0.03499998082765109,0.04800003901532951,0.015999971727411737,-4.5896730302886085e-145,-2.5578318480634857e-144,-5.665453907018445e-142,0.04320776602588694,0.004226449014492317,0.08014666949482674,-6.285899415275577e-07,1.4305247081783608e-07,6.8030913152611e-07
1669909991217383023,19403,1669909990987927448,,0.27391924858313643,-1.0695278144810907,1.0698996269371936,0.03400002956354839,0.05099989282286367,0.015000020408964905,0.0,0.0,0.0,0.03825754325183617,0.004746469323883673,0.0935198588743873,-6.295193870286293e-07,1.4302060205745825e-07,6.81667824962568e-07
1669909991570377370,19404,1669909991196463679,,0.2827483758846346,-1.0555164600070304,1.0783720630115934,0.0399995656781075,0.05599969371565733,0.012000179280313274,0.0,0.0,0.0,0.03133229181131192,0.002250002776385429,0.1024027079486185,-6.306978155056453e-07,1.4235951837087704e-07,6.823306202292245e-07
1669909991627950809,19405,1669909991382545626,,0.28941182295753504,-1.0438211216264637,1.0800839302101155,0.04099996426466204,0.057000040074861945,0.00899998963117979,-2.4892061111444567e-60,-3.982729777831131e-59,-1.2744735289059618e-57,0.026338193664781073,-0.0025252204234949005,0.10362008141116164,-6.314361047857352e-07,1.4135306603929472e-07,6.818682547727173e-07
1669909991655201533,19406,1669909991527287318,,0.2948108222339212,-1.0345965775125145,1.0804552634479716,0.04199998176462186,0.058000040312472655,0.006999973109119788,0.0,0.0,0.0,0.025504758680225947,-0.007679979249203939,0.09954682644799817,-6.312657893152976e-07,1.403963850080095e-07,6.806785979503287e-07
1669909991768121060,19407,1669909991635975993,,0.2977379051734208,-1.0283239227975327,1.0803754073185492,0.038999982180594785,0.057000040591354474,0.004999973722536084,-1.7833435596954894e-295,-2.4793878345506903e-295,3.2486377578303696e-296,0.026490700498509767,-0.01173610572639916,0.09480816667259795,-6.310175020120479e-07,1.3970890284359395e-07,6.798059452125504e-07
1669909992047234524,19408,1669909991745309656,,0.30139293838819015,-1.0217366696311183,1.080473396697633,0.038999982180594785,0.057000040591354474,0.004999973722536084,-1.091120115462776e-232,-7.72850654161888e-232,5.687973417342985e-233,0.028079736319090998,-0.016056087682800424,0.08997789178593152,-6.307843811018103e-07,1.3896443937010377e-07,6.790744130419885e-07
1669909992072351387,19409,1669909991802657483,,0.3033210548302022,-1.0182889935614339,1.0801350983531106,0.038999982180594785,0.057000040591354474,0.004999973722536084,4.2233434528842695e-156,7.360422452751309e-157,-2.6612237533195306e-157,0.028896259006360836,-0.01822070535058451,0.08757872331132432,-6.307051422037626e-07,1.3864105314880454e-07,6.786490253400574e-07
1669909992072444192,19410,1669909991838485339,,0.30500192309056706,-1.0168641794374367,1.0802835182567971,0.039999965289861834,0.05500007524233066,0.0030000085871005923,0.0,0.0,0.0,0.029785303598190538,-0.020546169733943742,0.08452761975795653,-6.306297632235223e-07,1.3840523016593088e-07,6.781439570406057e-07
1669909992128188217,19411,1669909991989769938,,0.31184037319127467,-1.007152693890222,1.0820188378083326,0.0439997627937482,0.05699993117733038,0.0029999743574476265,6.634569819997526e-68,-4.691749914342573e-67,-5.521674889698023e-68,0.031047105552611143,-0.024329045195077725,0.0775293195016431,-6.306393908470139e-07,1.379545837833757e-07,6.767742797573695e-07
1669909992188769320,19412,1669909992105900981,,0.31642557852442227,-1.000183303689598,1.086506890135758,0.0439997627937482,0.05699993117733038,0.0029999743574476265,1.934205499218126e-66,2.6729338128726806e-66,2.2927288766936538e-64,0.03168262497282193,-0.026215536682849816,0.07043831482501872,-6.306838171016987e-07,1.378474147036128e-07,6.753895162845015e-07
1669909992328001027,19413,1669909992166318988,,0.32044782035863006,-0.9941660382061501,1.0889919696517179,0.04799969231719602,0.06199967843433674,0.003999901768686356,4.346536859293416e-66,4.125925559393622e-66,-6.554103692592737e-65,0.03203109284429928,-0.026871899645836805,0.06273287225151059,-6.307782452757694e-07,1.3795010365460987e-07,6.739711923183001e-07
1669909992451215363,19414,1669909992304411750,,0.32652591753974286,-0.9852432822378502,1.0900209765771698,0.04799969231719602,0.06199967843433674,0.003999901768686356,4.314648112492127e-65,6.743801987366904e-65,5.377511848164559e-64,0.03221388668724501,-0.026366104275766133,0.054655446251835826,-6.308430741019069e-07,1.3821970456800723e-07,6.725323564082632e-07
1669909992555934085,19415,1669909992354415738,,0.3304196134062943,-0.9819231396479072,1.0896630715359397,0.05199998250913842,0.06200004153503367,0.004999974207024395,-1.4268473256703625e-218,-4.612034700077105e-218,-2.3028113031200313e-217,0.03233870922018234,-0.024893971101933587,0.048000894408968264,-6.309153779278323e-07,1.386907947050387e-07,6.714767032932042e-07
1669909992709608508,19416,1669909992501900395,,0.33934324608205646,-0.9732382995590974,1.0901439347221076,0.055999982457472904,0.060000041469608974,0.00699997413083562,4.73383045517775e-65,5.9711213415714324e-64,3.4173871952726617e-62,0.03238858405932277,-0.021522345286452804,0.039794982120040956,-6.309778630906806e-07,1.3942072947799367e-07,6.704093135597174e-07
1669909993108320465,19417,1669909992690039867,,0.35042416966367473,-0.9629664535800991,1.0899435153079724,0.0579999824137778,0.05700004117310777,0.0069999740664004415,-1.349401336733507e-78,-2.698802673467014e-79,8.636168555094445e-78,0.03282733447005626,-0.012134037750032078,0.02895800170044005,-6.309371847792211e-07,1.4120890412734508e-07,6.692077995293563e-07
1669909993130011065,19418,1669909992866469840,,0.3604048236530901,-0.9536272223907032,1.0905752794876977,0.057999982334187794,0.05500004069023182,0.005999973949032691,0.0,0.0,0.0,0.03478431892096623,-0.0015800151842544352,0.024454192352513004,-6.306055166038885e-07,1.4302944186278912e-07,6.689194472575368e-07
1669909993147957156,19419,1669909993003103498,,0.3687182529140365,-0.949200694923235,1.0900448009311607,0.0589999822306179,0.048000040130598186,0.003999973796302886,-4.301185464373064e-292,-4.739439384558311e-294,-2.6972710523194366e-292,0.036546501623718086,0.005155405724247331,0.02426393982495867,-6.302898587718433e-07,1.4411697636744314e-07,6.692150508399785e-07
1669909993316258809,19420,1669909993131227154,,0.37574829330782344,-0.9455729518283149,1.090169781343973,0.05799998207294373,0.042000039475999874,0.002999973563787985,-2.215402417918154e-143,-1.5784571130062047e-142,-7.188488886593849e-141,0.03913894821099362,0.013150429817564202,0.026007432104691475,-6.29904203481565e-07,1.4536668564599707e-07,6.696440665839118e-07
1669909993519256040,19421,1669909993305652078,,0.38663290252177823,-0.9388646980966066,1.0900077346717056,0.059999981840411436,0.04000003883865789,-2.6779116769558783e-08,1.0358049993091313e-63,9.718484205968159e-63,3.3005387060645003e-62,0.042878918396738186,0.023127000300902978,0.029596352776628976,-6.294017200597679e-07,1.4685662946802512e-07,6.702555979250341e-07
1669909993651110802,19422,1669909993449945169,,0.3955117251733255,-0.9323558174798976,1.0899037344505655,0.06099998143808299,0.04100003800502618,-0.002000027372412177,-2.704796265833357e-219,6.273860260110794e-221,3.6260698074823137e-218,0.04587609522018887,0.02939381740576863,0.033143892183485235,-6.29018625323637e-07,1.4761623032090672e-07,6.709024748349968e-07
1669909993773670668,19423,1669909993631513730,,0.4058682949961614,-0.926734161705535,1.0801413860094538,0.059999981037010756,0.0360000373004959,-0.006000027963855099,1.0866112164008235e-144,1.8611716923749057e-143,3.8025374941009266e-143,0.05076234506334387,0.034540591644139695,0.0410060598663442,-6.282178711693105e-07,1.481477792880872e-07,6.724677460892075e-07
1669909993916578811,19424,1669909993746771325,,0.4117342321850361,-0.9243141248156348,1.079289896994081,0.057999980678830394,0.031000036711640148,-0.01100002849204735,1.171850941432495e-219,2.10376736789525e-222,4.4603645131109407e-218,0.05461431514124193,0.03566161862967121,0.047481545427945804,-6.276596516345662e-07,1.4813707845628232e-07,6.736941104932357e-07
1669909994187466255,19425,1669909993899657525,,0.4198201871773226,-0.9194045806612402,1.0801044141339862,0.05699998034304333,0.030000036263643285,-0.015000028987217211,1.7678854016607127e-291,6.744781226859693e-292,2.5702791103889693e-291,0.05893252935580762,0.03487934706710405,0.055883643376514414,-6.271231491456115e-07,1.4782772984688155e-07,6.751928330313376e-07
1669909994217866643,19426,1669909994033147876,,0.4258415037881818,-0.9156170299181788,1.0792953894825326,0.053999980012629956,0.02800003608080327,-0.020000029474462742,-2.616230340103684e-64,2.716734471193548e-64,-7.957980147674274e-63,0.062026609549654665,0.032837215819073506,0.0631748626175117,-6.267925222736616e-07,1.4741794828093894e-07,6.764735307586898e-07
1669909994331290257,19427,1669909994178672826,,0.4328628128522935,-0.9111701318505893,1.0780294286082635,0.053000032968219236,0.02700008943813876,-0.023999816734119658,1.430222333808547e-247,7.151111669042735e-248,-1.7877779172606837e-248,0.06596334460625997,0.027530466690423694,0.07588000270659734,-6.264075901696674e-07,1.4642311972565685e-07,6.788213992347054e-07
1669909994380025139,19428,1669909994310641190,,0.4394605143606208,-0.9068630418009925,1.070238267508449,0.053000032968219236,0.02700008943813876,-0.023999816734119658,1.0307338475313097e-293,3.649699041869911e-292,1.0714568585809551e-294,0.06776890844112415,0.02311810929523972,0.0836066487273861,-6.262710943001922e-07,1.4568366136174658e-07,6.800001928251026e-07
1669909994409390974,19429,1669909994353582599,,0.441603683187144,-0.9054507931403372,1.0692357459372317,0.053000032968219236,0.02700008943813876,-0.023999816734119658,4.794036587204811e-94,-3.835229269763849e-93,1.9176146348819244e-93,0.06854838277868325,0.020430669893766407,0.08737881200845088,-6.262296977042971e-07,1.452790937287413e-07,6.804967694672943e-07
1669909994597611582,19430,1669909994382797879,,0.4429662289158879,-0.9039086775136254,1.0708334656483527,0.05299997933667684,0.02800003636792506,-0.028000030471259953,1.648266677758502e-217,1.3099607206249385e-214,2.7925608782590918e-216,0.06910407393379181,0.018281447203259305,0.09011736997523911,-6.261888332646889e-07,1.4491056338970027e-07,6.808997767665318e-07
1669909994715049208,19431,1669909994545683612,,0.45041167090720646,-0.8960849569499384,1.0675997029301674,0.051999979047648776,0.033000036986841425,-0.030000030897476465,0.0,0.0,0.0,0.07026765354250841,0.01171077310355173,0.09654438558626133,-6.262060914612836e-07,1.4392107337461134e-07,6.817106527234601e-07
1669909994886751537,19432,1669909994692886875,,0.45645426027971825,-0.8885009919213916,1.068856203926415,0.04999997892419204,0.03700003762833862,-0.032000031079532476,-4.794036587204811e-94,1.1985091468012028e-94,-1.428884099691108e-121,0.07062834205987834,0.0057791116710905754,0.09973588831227431,-6.262540731560762e-07,1.4307155358331982e-07,6.816517090298206e-07
1669909995212966069,19433,1669909994872671644,,0.4660450705702027,-0.8754063279731168,1.0598583210121628,0.05399977186497537,0.04799946901993945,-0.031000082900726672,1.7790399787723375e-65,5.784632613346761e-63,2.3536046741864955e-62,0.07139885920705247,-0.0011737519524235296,0.09613647549120685,-6.26188865652988e-07,1.4204778851093713e-07,6.805010264963125e-07
1669909995226688162,19434,1669909995015896909,,0.4735057168049059,-0.8624647214169934,1.0574533948412812,0.05599997889226553,0.05900003896378082,-0.03100003112661304,3.0029627168433505e-77,2.416190516762275e-77,1.960403559836852e-78,0.07194655752879697,-0.007012256058732902,0.08922113943772558,-6.262626067620101e-07,1.411106168619522e-07,6.791107117004051e-07
1669909995378275721,19435,1669909995198845459,,0.4825287499263726,-0.8474850306416832,1.05000774546563,0.05599997895863929,0.0650000394036932,-0.03200003102873469,0.0,0.0,0.0,0.07197315022829187,-0.011348352691435082,0.07947305423368256,-6.263924506317522e-07,1.406495173661671e-07,6.77428021252675e-07
1669909995600739548,19436,1669909995365691649,,0.49263286675644646,-0.8305062415713457,1.0500028509916688,0.05999997900857136,0.07500003970577909,-0.02900003095510214,3.6937013157979916e-65,-1.892320370526027e-64,3.8578968447050885e-63,0.07226306920271597,-0.012693482680544932,0.06903736685977435,-6.263799482229778e-07,1.406761048774542e-07,6.757588951600466e-07
1669909995724208485,19437,1669909995497520837,,0.5020857196399557,-0.8168884111226297,1.0494164605131855,0.06499997907103594,0.08100003992848433,-0.025000030862988486,-5.064492509710869e-108,-2.633594732728032e-107,-6.782280094276564e-105,0.07291168170423568,-0.01229722074028139,0.06191791514462608,-6.263164511473933e-07,1.408537228426435e-07,6.747073517109852e-07
1669909995892652850,19438,1669909995711325217,,0.5160257436521308,-0.7979270321834406,1.044538851231273,0.06699997915446482,0.08200003999745131,-0.02300003073995972,0.0,0.0,0.0,0.07533293542736708,-0.008845190514097823,0.04610220354216921,-6.259801338024502e-07,1.4150636623817299e-07,6.723451240815262e-07
1669909996258449170,19439,1669909995875906348,,0.528896061275383,-0.7811823561121164,1.039945174162204,0.07299997909466492,0.08700003960262333,-0.01800003082814388,4.031336493491352e-78,0.0,5.397605346934028e-79,0.07684772384360983,-0.006699824548340061,0.04055314006037847,-6.25769027057521e-07,1.417924339160449e-07,6.718020284818939e-07
1669909996269523462,19440,1669909996075084718,,0.5419509468350956,-0.7644290011138096,1.0399187082374626,0.0709999789838857,0.0840000392346759,-0.01600003099150496,7.112827998352248e-161,5.6902623986817984e-160,-1.1380524797363597e-159,0.0804687051078794,-0.0037573711615639382,0.03589225723158762,-6.251742473895811e-07,1.4215703005697704e-07,6.716222554458323e-07
1669909996361966603,19441,1669909996200560253,,0.5501289911717542,-0.7550931060041389,1.0397176186040136,0.0700000280168423,0.08000023557009973,-0.01500008038913324,2.095117725514086e-217,2.6411087641811576e-217,1.961202528630654e-215,0.08341107389564328,-0.002806384679644225,0.035845547014346835,-6.246745964071157e-07,1.42269897454002e-07,6.719695865298699e-07
1669909996468787005,19442,1669909996342664346,,0.5589088155638084,-0.7448178043793118,1.0402626596463118,0.06799997866648166,0.07600003854644623,-0.015000031459566219,1.2280338245134208e-222,3.010835402785969e-221,1.4297866865531088e-220,0.08574553438747756,-0.0026248307258569525,0.037802202112011685,-6.243810711458153e-07,1.4224398897155804e-07,6.727351607212247e-07
1669909996635270261,19443,1669909996454077801,,0.5661421435515077,-0.73591277435668,1.0401013071952385,0.06799997866648166,0.07600003854644623,-0.015000031459566219,1.9512896649547154e-107,-4.366187954383419e-106,6.559611562252278e-107,0.08898095276047613,-0.003973690840236799,0.046585073450255976,-6.240986538946797e-07,1.4201276775850023e-07,6.746773010505614e-07
1669909996684591207,19444,1669909996530751067,,0.5688234412406677,-0.7338547014304071,1.040307399933741,0.06199997839426121,0.06600003831772344,-0.014000031860997292,0.0,0.0,0.0,0.09059578835184645,-0.005429286954552026,0.053633370840721284,-6.239338691554754e-07,1.4179481971770868e-07,6.763425291486719e-07
1669909996868679946,19445,1669909996665662498,,0.5745008950062921,-0.7271117901741841,1.0400445032048924,0.05599997811678371,0.05900003829682656,-0.014000032270180707,1.737018829082346e-44,2.1496014560607198e-43,2.3457123978816858e-42,0.09145781529242569,-0.00765637299345201,0.062780675583749,-6.239921620531956e-07,1.415451107654112e-07,6.778522135032414e-07
1669909997007553036,19446,1669909996851113648,,0.5819835802694039,-0.7153804828888072,1.0331133208810348,0.05099997785069386,0.05900003856036074,-0.013000032662571272,0.0,0.0,0.0,0.08990782997112845,-0.01440478546326851,0.08907323173357362,-6.248012196403689e-07,1.408426948802369e-07,6.822735481380595e-07
1669909997305935618,19447,1669909996991908789,,0.5875843379660636,-0.7067531039741335,1.0301000132623113,0.04900007175782259,0.05800008609105824,-0.013000032911944511,6.913044680443884e-81,-1.939023911310672e-79,4.114690143522611e-81,0.08718998918295817,-0.01746562415886288,0.1002532325104859,-6.254723078991639e-07,1.4048470216585838e-07,6.84116968878696e-07
1669909997320011559,19448,1669909997115355242,,0.5915398774688748,-0.6971341868004622,1.0297969734378238,0.04599997763243824,0.06300003972582055,-0.011000032984422876,9.588073174409622e-94,7.670458539527698e-93,2.3970182936024055e-94,0.0829737898001639,-0.020057007719421094,0.11152539883803136,-6.262783885082975e-07,1.4046173395673453e-07,6.856254671622374e-07
1669909997320218573,19449,1669909997236669731,,0.5962081871827255,-0.6887927402862974,1.0301718978355265,0.04599997763243824,0.06300003972582055,-0.011000032984422876,7.312284167850614e-281,5.247029397415085e-279,1.5601117127500668e-276,0.07769771961425143,-0.021656014778763222,0.12233297438257118,-6.272381246637653e-07,1.404859340471787e-07,6.870829019624108e-07
1669909997464260485,19450,1669909997279457723,,0.5976539299986645,-0.6844010734124201,1.0299950965146203,0.0459999777553635,0.06700004050580542,-0.007000032803150599,0.0,0.0,0.0,0.07666661863531665,-0.02177867199170258,0.1239221983424823,-6.273960453587818e-07,1.4054703168291952e-07,6.871587762365035e-07
1669909997692576275,19451,1669909997449621458,,0.6016369013894717,-0.6702571993280126,1.0299885445769426,0.040999978053964596,0.07200004122371542,-0.005000032362817191,0.0,0.0,0.0,0.06907932207627887,-0.020468564022579017,0.1310500076335046,-6.286601486687058e-07,1.4120916384599955e-07,6.872136551710342e-07
1669909997730692283,19452,1669909997606593775,,0.6065374688717612,-0.658161530254246,1.0300201005794705,0.040999978053964596,0.07200004122371542,-0.005000032362817191,-3.931365215818563e-236,-4.914206519773204e-237,3.931365215818563e-236,0.06306482570222371,-0.01622657569933672,0.12913638333624355,-6.296077289224943e-07,1.4212041971285236e-07,6.860902436040807e-07
1669909997838992559,19453,1669909997674895990,,0.6088449939764052,-0.6476533644028137,1.0300783584569049,0.042999978560384594,0.08400004191781825,0.0029999683839772792,0.0,0.0,0.0,0.06113207874354387,-0.014271258317243962,0.1270287340212839,-6.298895976443904e-07,1.424745703055795e-07,6.854881306462294e-07
1669909997957188713,19454,1669909997821815681,,0.6126523074413759,-0.6312925096910088,1.0319222077408772,0.041999978980763,0.09200004215924433,0.007999969003890134,1.6896373160243788e-146,1.7876765858558994e-145,-3.2954467682707505e-144,0.056455490531304164,-0.008436635092653688,0.11981939611095171,-6.30687493499828e-07,1.4347758026692096e-07,6.83993716255368e-07
1669909998353051121,19455,1669909997944454131,,0.6147719359697408,-0.619853935962219,1.038759790116556,0.03799997935165491,0.09200004199476315,0.011999969550827518,-9.8187513927896e-310,-6.727282922625217e-309,3.8578152757350834e-308,0.05232552915402522,-0.001838066499843194,0.11080368363428938,-6.312557739438798e-07,1.4448229924068617e-07,6.823609510163314e-07
1669909998362891849,19456,1669909998146444102,,0.6185149825296108,-0.6005078038225524,1.0394864507086534,0.033999979683506334,0.09300004149862078,0.014999970040193671,0.0,0.0,0.0,0.04953530301190412,0.005074241817819569,0.09925934459540287,-6.315579322375122e-07,1.4540299605086124e-07,6.803090070330996e-07
1669909998497873981,19457,1669909998278029464,,0.6195481404938507,-0.5882563146262089,1.040231508773902,0.02899997995689404,0.0930000408155689,0.015999970443346046,3.7350170808298754e-145,-2.332011758297434e-144,-4.563052148995528e-143,0.04874502357456478,0.009668392707867568,0.08949077269715744,-6.315888820342373e-07,1.4591350558058968e-07,6.789491316965981e-07
1669909998743366195,19458,1669909998489724814,,0.6210675142420166,-0.569120800396508,1.0404935481499553,0.02299998016085883,0.09200004011226726,0.01699997074412362,-1.269442991005788e-144,-2.2763748424018825e-143,-1.868688860437897e-144,0.0483883013846782,0.015724197358412795,0.07642140089299687,-6.316429939924957e-07,1.4667726776026575e-07,6.770213911719731e-07
1669909998899143728,19459,1669909998697277841,,0.6184431019969687,-0.5558257112167575,1.046186414149652,0.008999980283150692,0.08100003863765891,0.017999970924461848,0.0,0.0,0.0,0.04811544542600288,0.018473363205496085,0.06837912404008861,-6.31850986426379e-07,1.4676715948351177e-07,6.762293854390272e-07
1669909999047158668,19460,1669909998879812507,,0.6167807727990641,-0.5429437657453956,1.0501628445608002,0.002999980252576761,0.0770000381054876,0.01699997087937587,-1.3076037598224038e-140,-3.507263470964428e-142,-4.8466605386887394e-139,0.04684280964593235,0.01771551751351197,0.06600692364770566,-6.322280015595636e-07,1.4637391344915347e-07,6.763885940960868e-07
1669909999394380411,19461,1669909999028598163,,0.6146288304700709,-0.5346317733163187,1.0524826796823177,-0.002000019765110902,0.07000003775841743,0.01599997085329268,0.0,0.0,0.0,0.04565018950260047,0.015199607922509628,0.06806932028996471,-6.325041745097277e-07,1.457928670337347e-07,6.771664751624149e-07
1669909999420804483,19462,1669909999151071930,,0.6120511786229228,-0.5290015344930672,1.0586954595396145,-0.007000019717110209,0.06300003758905273,0.013999970924077112,0.0,0.0,0.0,0.044405167746344176,0.01105740117185583,0.0731535891626347,-6.327936245877737e-07,1.4498566787303313e-07,6.783822907962324e-07
1669909999421020780,19463,1669909999255909095,,0.609611144663171,-0.5246601134683492,1.0596836722032268,-0.011000019610034602,0.05700003769292623,0.011999971081976622,0.0,0.0,0.0,0.043747608592902054,0.007816129098261015,0.07751549239610256,-6.328904866296735e-07,1.44433654817368e-07,6.79242233210894e-07
1669909999433060505,19464,1669909999377215707,,0.6077461120606932,-0.5179364402536376,1.0602198760925887,-0.011000019610034602,0.05700003769292623,0.011999971081976622,0.0,0.0,0.0,0.04304874291947769,0.003283403984019273,0.0839212379424179,-6.330802651793653e-07,1.4371927495155822e-07,6.803934186699221e-07
1669909999550017358,19465,1669909999419937103,,0.6068512698671575,-0.5173695736680025,1.0607671830623802,-0.012000019441247739,0.05200003807212679,0.01099997133087891,-8.552314686422396e-219,6.818652631895222e-219,-1.487426356139221e-216,0.042536359035530324,0.0005692069654195109,0.0878377388714302,-6.332375297590391e-07,1.4332129677236025e-07,6.810448592271947e-07
1669909999629378802,19466,1669909999532571757,,0.6049812801732299,-0.5117102311024077,1.0608865433751666,-0.012000019441247739,0.05200003807212679,0.01099997133087891,0.0,0.0,0.0,0.040998205617075456,-0.0041199647910534765,0.09555690610907952,-6.336435222466384e-07,1.4271061022282144e-07,6.824109960674993e-07
1669909999798193123,19467,1669909999613860322,,0.6033001226595515,-0.5088371614476398,1.0604755141974957,-0.013000019263275408,0.049000038618209715,0.008999971593326588,0.0,0.0,0.0,0.03944554089088648,-0.00764319811139913,0.10214287805699485,-6.339832641235474e-07,1.4226492042845432e-07,6.835080986904983e-07
1669909999810738844,19468,1669909999733744313,,0.6011297749853372,-0.5032008626569482,1.0606726791303054,-0.013000019263275408,0.049000038618209715,0.008999971593326588,0.0,0.0,0.0,0.03785317162192392,-0.01067223654616356,0.10806527583949688,-6.343074455196792e-07,1.4181699728156682e-07,6.844588939951812e-07
1669909999947304431,19469,1669909999774753635,,0.6013316167956693,-0.5030979827292361,1.0600011080199334,-0.01100001906356227,0.0440000394440825,0.00799997188783444,-6.397728538480276e-65,4.9657929952131773e-64,-9.8413669749765e-63,0.03635303497792641,-0.013148899642516199,0.11289565598114493,-6.346191893174093e-07,1.4154999222450922e-07,6.851008051970138e-07
1669910000078301550,19470,1669909999932865036,,0.5987711649518928,-0.4964401310218589,1.0609538454614647,-0.01100001906356227,0.0440000394440825,0.00799997188783444,3.507687197303624e-223,9.362254426233221e-221,4.0737829216005555e-219,0.03190484613811506,-0.018560804517678164,0.12457314770950845,-6.353930763458118e-07,1.409566230563522e-07,6.867740192866957e-07
1669910000461105033,19471,1669910000063119297,,0.5984258928808478,-0.49240125857464556,1.0694091749005252,-0.007000018560827767,0.04000004099146612,0.007999972629194076,1.8000394561972036e-297,-1.721593319913277e-297,5.420531290531835e-296,0.02915919485712415,-0.020763578545730965,0.13164948488794614,-6.357683446252613e-07,1.4094064426057317e-07,6.876638359259381e-07
1669910000472441931,19472,1669910000253972172,,0.5982428485354032,-0.48605437392935286,1.069629466883885,-0.0020000182419874007,0.03700004166235521,0.00999997309937342,0.0,0.0,0.0,0.026402538214592042,-0.02198232744703077,0.14058471892498403,-6.360075626040821e-07,1.4107996173619012e-07,6.886389364977544e-07
1669910000549334282,19473,1669910000384770488,,0.5974236473761927,-0.48252201513082793,1.0700435098602321,-0.0020000178859074904,0.034000042287651334,0.010999973624468216,8.696924977071985e-66,4.166199213385901e-67,5.196151173832474e-64,0.025904166948715,-0.021575763039702878,0.14515782075195638,-6.360103906703615e-07,1.412599186770733e-07,6.892928952634925e-07
1669910000652340981,19474,1669910000539141885,,0.5963165263929078,-0.4774261833164975,1.0703378858255475,-0.0020000178859074904,0.034000042287651334,0.010999973624468216,-2.6749037911780972e-219,2.8513085364518926e-218,-4.9962430212057875e-220,0.026886676265636567,-0.019722341811760913,0.1506853767762184,-6.357609632080688e-07,1.4176083807129991e-07,6.899189952895796e-07
1669910000839492510,19475,1669910000639904056,,0.5967761752565363,-0.4754547396066805,1.0713817068930473,-1.7655524128627846e-08,0.031000042654823798,0.01199997396420405,-1.9021645878250571e-78,-4.7242934867988077e-79,-1.1545055593498761e-79,0.028291830054422817,-0.01751572908362853,0.15331622191424543,-6.354973410116336e-07,1.4229105188066597e-07,6.901964486688052e-07
1669910001008061363,19476,1669910000806812538,,0.5970453491126512,-0.4707767626315098,1.0703605383755719,0.001999982458629342,0.03000004285678454,0.012999974132540967,7.771720892744149e-219,5.2891678127357547e-219,5.753885564713284e-216,0.03091918354438583,-0.013232249649922423,0.15550452002859316,-6.350962046453641e-07,1.4315850132774943e-07,6.903147153263393e-07
1669910001155012736,19477,1669910000995687951,,0.598567029416833,-0.46593331015418743,1.0797505868872563,0.005999982265450938,0.028000042839895826,0.012999973847669587,0.0,0.0,0.0,0.03351696782908675,-0.007984974752041296,0.15599398345574755,-6.348597337917447e-07,1.4405895333459246e-07,6.90115098880618e-07
1669910001213699724,19478,1669910001139724052,,0.5987925423997775,-0.4618801390585125,1.0807744364653742,0.005999982265450938,0.028000042839895826,0.012999973847669587,4.865680469015143e-155,1.2306215495459296e-156,1.834200308666739e-155,0.03513060774180232,-0.003211153311298176,0.15519855580800268,-6.346923976418407e-07,1.4488815393335992e-07,6.89817996590955e-07
1669910001507882046,19479,1669910001202510536,,0.5995968475021183,-0.4591502140590812,1.0801804709999514,0.007999982001586897,0.0300000425730401,0.012999973458561322,1.3998141087842742e-185,-1.8779629560728396e-183,1.0518418630878542e-183,0.03598432568781007,-0.000633756198997304,0.1544194642870771,-6.346011529641038e-07,1.4528246366385064e-07,6.896098078827567e-07
1669910001517396673,19480,1669910001336441464,,0.6005763449452654,-0.4558167568459105,1.0806747494060058,0.008999981738746861,0.02800004221880578,0.012999973070963114,0.0,0.0,-1.0339722031050417e-198,0.03707353990146345,0.002966523686321665,0.15297142233645822,-6.34515102829655e-07,1.4579856223321397e-07,6.892851161995929e-07
1669910001587678624,19481,1669910001456138051,,0.6012016395938875,-0.4527414219154041,1.0807738724603315,0.008999981492011656,0.027000041768400346,0.01099997270711396,0.0,0.0,0.0,0.03816371229302362,0.006180653210083875,0.15075829281360065,-6.344620126137765e-07,1.461194253335026e-07,6.888347392439599e-07
1669910001633744809,19482,1669910001570411908,,0.6017736482368212,-0.44958317867930153,1.0795698226262302,0.008999981492011656,0.027000041768400346,0.01099997270711396,-1.3362739138602305e-153,3.4216492284007267e-155,3.3006360227739186e-155,0.03857263596925975,0.007985057587715616,0.14880290690282472,-6.345032342576408e-07,1.463291402217161e-07,6.884625155129389e-07
1669910001771965181,19483,1669910001614377228,,0.6016007514501819,-0.44837036641898903,1.0800638423064686,0.007999981282693414,0.027000041312761864,0.0069999723984419,8.842683527589768e-217,4.496504647840799e-216,-4.856533019583653e-214,0.03859222769707493,0.008494306399892793,0.1480494870787048,-6.345481496465036e-07,1.4635238558365608e-07,6.88357993285909e-07
1669910001899119935,19484,1669910001740341605,,0.6021016861230587,-0.44485138093586607,1.080423913026267,0.007999981097486161,0.027000040838790478,0.003999972125325214,-5.043248423188528e-187,-2.7898759539653514e-186,1.1976791112707583e-183,0.038411716052976885,0.010046014581565288,0.14495946022836392,-6.347550127917353e-07,1.464511170245113e-07,6.877797833213888e-07
1669910001912517461,19485,1669910001838652085,,0.6025061462085922,-0.4421258415622406,1.08035512903494,0.007999981097486161,0.027000040838790478,0.003999972125325214,0.0,0.0,0.0,0.03766200096203143,0.01024757964176004,0.14232122146211168,-6.350216277917967e-07,1.4633106788126242e-07,6.873112893454864e-07
1669910001933688848,19486,1669910001881621107,,0.6026850034907544,-0.44093479871515806,1.0799106114682249,0.007999981097486161,0.027000040838790478,0.003999972125325214,5.069858898594304e-308,3.2030173029372404e-308,1.897473698321048e-308,0.0372665885290715,0.010078458325386563,0.1413261682877085,-6.35130113644338e-07,1.4624976979491788e-07,6.871374115139723e-07
1669910001967561485,19487,1669910001904360199,,0.602780049165882,-0.44030454040126304,1.080022632209932,0.007999981097486161,0.027000040838790478,0.003999972125325214,4.971954994703324e-143,2.7086993623642124e-142,6.468387734050794e-141,0.03705689686718827,0.009952115936540551,0.14087187326356876,-6.35188032289327e-07,1.4621167215750097e-07,6.870696857092188e-07
1669910002087270550,19488,1669910001941418278,,0.6020954557005264,-0.43933670607369346,1.08006248406297,0.005999980989726348,0.027000040508598087,-2.8033583266387197e-08,6.659785159024609e-231,8.608553972449017e-233,2.116446178353523e-232,0.03644436011791008,0.009523667613759557,0.1396951564717348,-6.353557981589155e-07,1.4604384075203676e-07,6.869430034732274e-07
1669910002226927756,19489,1669910002082174523,,0.6024419580904317,-0.43577555204423885,1.080050963084978,0.0059999809489776805,0.02600004012513374,-0.003000028093673466,0.0,0.0,0.0,0.034473535678900546,0.007575464391159414,0.13685632427767835,-6.357945226593395e-07,1.4555658099670263e-07,6.865228806592966e-07
1669910002281951495,19490,1669910002219828585,,0.6027713613978373,-0.43210414020521704,1.079975668954773,0.0059999809489776805,0.02600004012513374,-0.003000028093673466,3.068183415811079e-92,2.3970182936024055e-94,-7.459128095907324e-122,0.032204631506843384,0.004656240110154641,0.13417271552521726,-6.36232598730887e-07,1.4498206383934878e-07,6.860932610909147e-07
1669910002561108464,19491,1669910002263169462,,0.6021916576448796,-0.4317940504490243,1.0797118284224876,0.003999981029886253,0.02400003998488086,-0.006000027974361286,-9.622454828203628e-308,7.9753208209886e-310,1.54101218222536e-309,0.030656675895098573,0.0022306622605494653,0.1322673140853059,-6.364978209358409e-07,1.4453562723233933e-07,6.85833581263329e-07
1669910002576587265,19492,1669910002382158784,,0.6022840400109079,-0.42887915948184424,1.0801317873039207,0.003999981029886253,0.02400003998488086,-0.006000027974361286,2.4092434574403703e-45,8.323846446642463e-44,2.876647323327971e-42,0.028722775600993344,-0.00121522432081278,0.12982490773198485,-6.368561406212657e-07,1.4393923470752874e-07,6.854553670099186e-07
1669910002592326291,19493,1669910002420241066,,0.6019658227051154,-0.42837080671994016,1.0799031048702619,0.0029999812079083287,0.023000039997873232,-0.008000027711840253,-6.5910460512809976e-80,-8.03740477050853e-81,-4.919916751114579e-81,0.028053863319033923,-0.002418593968268823,0.12900669679922316,-6.369776074325331e-07,1.4376964708713892e-07,6.853476193513119e-07
1669910002710543716,19494,1669910002575917954,,0.6016747928222143,-0.42555870767583537,1.0803618731320606,0.0019999814767618575,0.02100004015074066,-0.01000002731537422,2.7479827439619394e-298,-1.1164829785838802e-298,-6.835662184676879e-297,0.02503175603634844,-0.007747959110949054,0.12537901440006038,-6.375839276522325e-07,1.4289911829127564e-07,6.847612229117957e-07
1669910002938762347,19495,1669910002704276288,,0.6012683813134588,-0.42324894721257383,1.0801014423991049,0.0009999817499460827,0.020000040387191772,-0.010000026912521906,6.0155995561292835e-142,7.126503581071913e-143,4.808563635740459e-142,0.022838060814954986,-0.011175771702909287,0.12285078682504214,-6.379482227043647e-07,1.4247728934849625e-07,6.844262482329009e-07
1669910002960621376,19496,1669910002844486397,,0.6011305301071559,-0.4207875597672769,1.0796348527139286,0.000999982092143549,0.01900004073867762,-0.010000026407898915,-1.3199917519312068e-218,-4.463288499608302e-218,8.24514968720757e-217,0.019273731567320596,-0.01673238061155402,0.11851083137919005,-6.38640253993587e-07,1.4163015386598733e-07,6.836883165777728e-07
1669910003003370137,19497,1669910002944023264,,0.6010201112149982,-0.41887729839234417,1.0710061420291441,0.000999982092143549,0.01900004073867762,-0.010000026407898915,4.026754816015792e-300,5.582619815358343e-298,-7.574741861023336e-297,0.01741184432217935,-0.019297935035645253,0.11582270415146034,-6.389321306455788e-07,1.414015712348844e-07,6.832522520024389e-07
1669910003023601067,19498,1669910002982385494,,0.6009802275775709,-0.41814152685243045,1.0704045374039537,0.000999982092143549,0.01900004073867762,-0.010000026407898915,0.0,0.0,0.0,0.017254963744150587,-0.019499880658839785,0.11556889433956563,-6.38957523582103e-07,1.4137785415332142e-07,6.832093488733666e-07
1669910003058592825,19499,1669910003014343799,,0.600946878351636,-0.41752855887045237,1.0700963235005299,0.000999982092143549,0.01900004073867762,-0.010000026407898915,0.0,0.0,0.0,0.01704290522765639,-0.019750217948336868,0.11518236763718548,-6.389906769745277e-07,1.4138235597463728e-07,6.831471750650234e-07
1669910003180617541,19500,1669910003039797728,,0.5998341863588796,-0.4175536343384245,1.069869194399063,-0.002000017524373109,0.018000041113923136,-0.010000025842393526,4.023873643436268e-79,-5.528101410533893e-79,1.947230696629895e-80,0.01633074737641671,-0.02058632374788516,0.11391933678959987,-6.391024129125984e-07,1.4132144452583717e-07,6.829443870828995e-07
1669910003293093867,19501,1669910003162941371,,0.6011875024065655,-0.41586007391373997,1.0695726942870547,0.002999982801458592,0.01600004140874316,-0.009000025361904382,0.0,0.0,0.0,0.014642313470499602,-0.021293176061174535,0.11034760636222529,-6.394091204944755e-07,1.4156206412288376e-07,6.823544885780831e-07
1669910003345775741,19502,1669910003274016526,,0.60134206631,-0.41404060428505446,1.0695207915367027,0.002999982801458592,0.01600004140874316,-0.009000025361904382,0.0,0.0,0.0,0.013632120745343812,-0.020325405275777086,0.10794245661249668,-6.395788357894266e-07,1.418504359485714e-07,6.819920752863875e-07
1669910003594772007,19503,1669910003320658408,,0.6014081842619136,-0.4132770599294181,1.0692159496856528,0.002999982801458592,0.01600004140874316,-0.009000025361904382,-1.6951388448236327e-147,-3.090838873843977e-148,-9.826593168315916e-146,0.013095443605248391,-0.019504232129865073,0.10659641387266561,-6.396985351154661e-07,1.4206635249595796e-07,6.817783351394636e-07
1669910003612704231,19504,1669910003383523069,,0.6032026887210594,-0.4125025852703299,1.0691364238010794,0.0069999830538379736,0.015000041629298515,-0.006000024989732022,0.0,0.0,0.0,0.01255973339880967,-0.018491300696952706,0.10530994917909098,-6.398101115134275e-07,1.4232161476750984e-07,6.815872552253464e-07
1669910003792420927,19505,1669910003567459764,,0.6037920399702287,-0.41012716041442593,1.0687907012776403,0.005999983222061457,0.014000041715818009,-0.004000024741660524,0.0,0.0,0.0,0.010065118916958937,-0.013075520610058788,0.10050728260658914,-6.403723753500893e-07,1.4344984022161776e-07,6.808314048604417e-07
1669910003991254818,19506,1669910003761916657,,0.6056287584737182,-0.4066994818882865,1.0689848488327627,0.007999983308730104,0.015000041635240506,-0.003000024613854223,-3.842387245829362e-232,-1.3880350144162762e-230,2.0133505492020068e-231,0.007961890819185413,-0.007417350346788254,0.09689420463803344,-6.407769077541018e-07,1.4456529989371407e-07,6.802670866688533e-07
1669910004081123962,19507,1669910003914749835,,0.6070918283779767,-0.4054767269367189,1.0694379422358207,0.008999983415511852,0.01200004096716976,-0.0010000244563880551,0.0,0.0,0.0,0.006764219856501441,-0.0006385532812807071,0.09389909703442889,-6.409423689276635e-07,1.4583505732285834e-07,6.798515416190539e-07
1669910004152576910,19508,1669910004062022100,,0.6082465203035409,-0.40359261434678056,1.069816350908702,0.008999983415511852,0.01200004096716976,-0.0010000244563880551,6.086467950360834e-69,-1.361052575520755e-68,-8.347823553725429e-66,0.006565599395395694,0.005335774681146432,0.09206562308465038,-6.409527068448785e-07,1.468835690686459e-07,6.79600257055411e-07
1669910004275928724,19509,1669910004133263825,,0.6093088061391064,-0.40382318443116955,1.0608891356825099,0.009999983470311394,0.009000040444920341,-2.4375577667865263e-08,-4.176953561210721e-294,-6.856093356164893e-294,-3.1247689383350664e-295,0.007049800145685126,0.008529284542262872,0.09124873513431986,-6.407663461867162e-07,1.4733309737626394e-07,6.795131626496442e-07
1669910004308709420,19510,1669910004256521487,,0.6104353824512998,-0.40260638161662865,1.0608137148958858,0.009999983470311394,0.009000040444920341,-2.4375577667873366e-08,6.610842077414447e-69,-3.5188601750752016e-69,-4.848542874037428e-67,0.008457320689350567,0.012425800650387231,0.09053378085042496,-6.405289644972857e-07,1.478639325833253e-07,6.794656264253386e-07
1669910004637927212,19511,1669910004294455698,,0.6105221675221322,-0.4038700339282978,1.060430575966362,0.00899998345065865,0.0050000399587672205,-0.0030000244045586735,0.0,0.0,0.0,0.009186977888354875,0.013868412161546217,0.09034061954332628,-6.404023495711391e-07,1.4802319725329215e-07,6.79459685091906e-07
1669910004661028321,19512,1669910004408152404,,0.6114848534042397,-0.4032088981121815,1.0600769237337069,0.00899998345065865,0.0050000399587672205,-0.0030000244045586735,0.0,0.0,0.0,0.010826360121223289,0.01616606070147064,0.09016742088876661,-6.401299290083801e-07,1.48294584338116e-07,6.794839767405896e-07
1669910004661033519,19513,1669910004438472718,,0.6117370653330662,-0.4030296423525201,1.0601414199157533,0.008999983363870614,0.005000039443459432,-0.004000024532541032,1.2337342139725624e-44,8.264048829393802e-45,7.632917977945159e-43,0.01100590889801012,0.016349552199411477,0.09016747909954503,-6.401034690544482e-07,1.48282176965889e-07,6.794957275277838e-07
1669910004661270102,19514,1669910004553506473,,0.6127082176418105,-0.40235906676273203,1.0600557181362613,0.008999983363870614,0.005000039443459432,-0.004000024532541032,3.657519248133499e-44,2.7036610338605655e-44,2.0918475519777687e-42,0.013158491387105897,0.01756718021616166,0.09035646707036449,-6.397944115063416e-07,1.482822427704904e-07,6.795569688900076e-07
1669910004787212184,19515,1669910004596383328,,0.6123223834638725,-0.4029828022098499,1.0597422804101873,0.006999983223821713,0.003000038988712923,-0.006000024739064754,0.0,0.0,0.0,0.014354639983569228,0.01791594592292256,0.09050253158675758,-6.395453882674443e-07,1.4825201833255862e-07,6.796168142433003e-07
1669910005037359543,19516,1669910004782237319,,0.6127227677773771,-0.40323690314387717,1.0583076645624208,0.004999983002631292,0.001000038587412837,-0.009000025065244178,0.0,4.805759765527352e-81,0.0,0.018997174409605577,0.016265937054562585,0.09136780204096873,-6.387951811902518e-07,1.4765091624868915e-07,6.79833875231754e-07
1669910005114563839,19517,1669910004948176051,,0.6121590347192242,-0.4035264185116757,1.06026874484157,0.0019999827737955996,3.8336002095887015e-08,-0.012000025402697734,0.0,0.0,0.0,0.02282280117507618,0.012402269277822953,0.09225132977415207,-6.383010529854943e-07,1.4679142844214476e-07,6.79998187873378e-07
1669910005373416295,19518,1669910005094914754,,0.611057147166283,-0.4035669419854547,1.059608994746771,-0.0010000174529958853,3.8261553411853513e-08,-0.01400002573713679,2.9835326124933176e-220,2.4500315152014694e-219,5.926105938348634e-217,0.02627153748882627,0.0063331888402533565,0.09308404967123174,-6.379592649392398e-07,1.4574598922620997e-07,6.801354115370433e-07
1669910005403266754,19519,1669910005244338693,,0.6096419047040398,-0.4036108674066276,1.0603746851534355,-0.00400001773854323,3.8424181741118924e-08,-0.01700002615822043,2.7143416068490013e-301,3.7159327613059972e-301,1.7627704067503938e-299,0.028283000690414895,4.732249409045153e-05,0.09365950924620847,-6.378344901648014e-07,1.4449835177368106e-07,6.802580741020808e-07
1669910005832030638,19520,1669910005351640306,,0.6088395594268928,-0.4036242381849407,1.0604258944131424,-0.00500001790947017,3.870812330539402e-08,-0.018000026410278595,0.0,0.0,0.0,0.028801863872569555,-0.004297746689104542,0.09390163082181502,-6.379380273315702e-07,1.4393195492901638e-07,6.802963924412602e-07
1669910005860771402,19521,1669910005487017687,,0.6081735288075933,-0.40361643737808645,1.0505400533385054,-0.00500001790947017,3.870812330539381e-08,-0.018000026410278595,1.438102820695074e-79,7.646888122253981e-79,-1.5926496105273698e-79,0.028082368866412466,-0.011881033907686245,0.09403987541669956,-6.383761628972402e-07,1.4290162481918428e-07,6.803090418959696e-07
1669910005860792011,19522,1669910005554054814,,0.6078146473708435,-0.40320285919172083,1.0497175299769361,-0.005000018027764927,0.001000039111656275,-0.017000026584722473,2.223992641400937e-292,2.2225705577754844e-291,1.8380626966542493e-293,0.027440530205955938,-0.014615098043138985,0.09400752415349345,-6.385864497335256e-07,1.4225274090985802e-07,6.803012761063766e-07
1669910006272060473,19523,1669910005719785215,,0.6060994494884734,-0.4026820289621411,1.047240427641695,-0.007000018043285625,0.002000039622657668,-0.01700002660761014,-2.887722941952551e-300,-8.498643088794191e-301,-1.0472966116265407e-299,0.02476477255992826,-0.021632618250738034,0.09345168343454624,-6.391601269685227e-07,1.4131077679966278e-07,6.80173714330512e-07
1669910006327513461,19524,1669910005851246364,,0.6047853399266725,-0.40248675637096976,1.0502373013082527,-0.008000017956484275,0.002000040121980136,-0.01700002647960815,0.0,0.0,0.0,0.02311180894187359,-0.02466895755604348,0.0928304026969613,-6.395027433867803e-07,1.4100580067985858e-07,6.800455963755572e-07
1669910006354864288,19525,1669910006046498994,,0.6046788959726574,-0.4025315697180023,1.0502958789356922,-0.005000017740018558,0.0010000405982661233,-0.014000026160396032,5.466558299265052e-140,1.3580162150619664e-141,9.814425431493949e-142,0.019910252097918857,-0.027356509178293464,0.09133003586220845,-6.400966805988493e-07,1.4100845020574688e-07,6.797693110292776e-07
1669910006444080827,19526,1669910006236689581,,0.6053152861848307,-0.4027597859023252,1.048132665855789,-0.002000017467047167,4.105340452982165e-08,-0.012000025757857573,0.0,0.0,0.0,0.017228580210771227,-0.025835066529499073,0.0890508298411401,-6.406171237749523e-07,1.4161425446969484e-07,6.793025162722707e-07
1669910006742920474,19527,1669910006435029478,,0.6059501617635467,-0.40270109111139374,1.0442317097126315,-1.719527991088984e-08,4.1384313739562346e-08,-0.008000025357094799,3.356176288913839e-79,-4.567779040172894e-80,-6.1884013097688775e-80,0.015477893642920293,-0.021295046214598656,0.08626088831109868,-6.409636018297977e-07,1.4273441251106283e-07,6.787270692307401e-07
1669910006815788097,19528,1669910006605203716,,0.6074737894070861,-0.4037396709045784,1.0406630222495188,0.0029999830856805264,-0.002999958652090818,-0.0030000249427752606,-2.2866968431168605e-224,-1.3726160077113491e-222,-2.1829185610545248e-222,0.01562578205519749,-0.013055696734429745,0.08271232428064224,-6.408016324746896e-07,1.4441681366242738e-07,6.7807236424335e-07
1669910006966484204,19529,1669910006801744368,,0.6090632177361819,-0.40550729166085775,1.0401981386871928,0.004999983119694881,-0.005999958931068967,-2.4892615844096492e-08,0.0,0.0,0.0,0.01753792762678863,-0.0028380233469711413,0.07857968201408205,-6.40414829517005e-07,1.4628735169601538e-07,6.772960931654452e-07
1669910007128681124,19530,1669910006942009925,,0.6102757832617579,-0.40669230565795983,1.040251864729861,0.005999983057902921,-0.006999959370634431,0.001999975016262371,-6.788527134603925e-79,-2.2830103966077275e-78,1.1784631057764605e-78,0.020556946476327553,0.006389434947088546,0.07467131372009561,-6.398483178165864e-07,1.4788272897706772e-07,6.765792283526378e-07
1669910007190043616,19531,1669910007055282416,,0.6110439607759844,-0.40782036322623816,1.039976579363414,0.005999982857862711,-0.00799995999639625,0.0019999747212721994,-2.511074149451833e-79,7.386838072046861e-79,5.3793100566929193e-79,0.022179420443556808,0.010405525786255865,0.07292268359683796,-6.395798509760602e-07,1.4851070732632002e-07,6.762812097769805e-07
1669910007326046767,19532,1669910007179393452,,0.6115364259473133,-0.40916100399627825,1.0401298311638376,0.0049999825775134425,-0.008999960706719313,0.0039999743078539245,0.0,0.0,0.0,0.02653347482322843,0.018963154535907023,0.06922870889505361,-6.38907466839782e-07,1.4961883302142974e-07,6.757812626450387e-07
1669910007371736804,19533,1669910007316535801,,0.6123164548297715,-0.4103594816533212,1.0401887330040422,0.0049999825775134425,-0.008999960706719313,0.0039999743078539245,-5.823575540107823e-219,-5.595682842856784e-218,1.9322821415249276e-216,0.029943456928197776,0.02393977988090512,0.06702715373350543,-6.383658727974481e-07,1.502374833333188e-07,6.754757811222109e-07
1669910007405609598,19534,1669910007361914393,,0.612574524178516,-0.41075682792289037,1.040278015694406,0.0049999825775134425,-0.008999960706719313,0.0039999743078539245,2.5568916240024195e-68,6.365544344206461e-68,1.3782749612788915e-66,0.03200825839309829,0.02627275318737432,0.06588299621984106,-6.380571072522918e-07,1.504867168761025e-07,6.753076085226929e-07
1669910007509578635,19535,1669910007386193902,,0.6119115646347575,-0.41144369420592003,1.0403761527545141,0.002999982207206291,-0.009999961482127602,0.003999973761778863,8.958541602782096e-235,-6.161593140734621e-236,-1.9934433548694233e-234,0.03370551871718064,0.027851313178397064,0.06498282173784453,-6.377052872411603e-07,1.508681149399505e-07,6.750631157407888e-07
1669910007782971262,19536,1669910007507990087,,0.6123683679474452,-0.41265083956821164,1.040700696362457,0.002999982207206291,-0.009999961482127602,0.003999973761778863,7.856186066444554e-79,-6.959641913881145e-79,-2.932360492407251e-79,0.03613488274440613,0.029479575283902548,0.06372763816001736,-6.373756080243983e-07,1.509559486293031e-07,6.748831966520001e-07
1669910007818102105,19537,1669910007558695596,,0.6125582034306412,-0.4131540342936141,1.0399677985266353,0.002999982207206291,-0.009999961482127602,0.003999973761778863,-6.626901118547962e-218,-6.039752745907192e-217,-1.2517178702906422e-221,0.036990165954595255,0.02984173839137938,0.06330968179798546,-6.37257868218548e-07,1.5093700638925287e-07,6.748332231828841e-07
1669910007832559539,19538,1669910007633684967,,0.6109263753667924,-0.4139945701311686,1.0401092394555935,-0.0010000183292258463,-0.009999962459583732,0.0019999729707268626,0.0,0.0,0.0,0.039220431262396716,0.029855217000099188,0.062394629130043455,-6.370492040311547e-07,1.5069297388725814e-07,6.747911603731737e-07
1669910008052943263,19539,1669910007794130367,,0.6079521157196581,-0.4157687720970276,1.0399864448042755,-0.007000018746806697,-0.009999963093576711,-2.764506056756348e-08,0.0,0.0,0.0,0.04307731112714919,0.02671615167804653,0.061374263571728704,-6.366381436472827e-07,1.4962390794206665e-07,6.748114011048094e-07
1669910008776037115,19540,1669910007996100976,,0.6010622451229737,-0.41773523406589297,1.0397830629980638,-0.01900001947224227,-0.008999963848406444,-0.00500002871482731,-2.7564409061895226e-142,6.826634060593336e-143,7.333346599639378e-143,0.04417781490421291,0.01859983243894625,0.06183947425844849,-6.36887561430292e-07,1.478861320403057e-07,6.75091678931934e-07
1669910008819605058,19541,1669910008168132440,,0.596188183540203,-0.4187011451808292,1.0400492651398123,-0.023000019652238822,-0.00699996377482642,-0.007000028980260016,1.782824567390439e-141,2.9353348943010933e-141,3.7071628957471904e-141,0.04245048526155237,0.008321750303984743,0.06300846509512681,-6.375377582928064e-07,1.45946598076148e-07,6.754309491217725e-07
1669910008819611415,19542,1669910008322711120,,0.5910274162290918,-0.41963789332177553,1.039566947349101,-0.027000019669596458,-0.005999963424381727,-0.00800002900585653,0.0,0.0,0.0,0.03873761158254396,-0.004448760101693594,0.0645771153228214,-6.383052824093728e-07,1.4382248113323532e-07,6.757798560637585e-07
1669910008819684166,19543,1669910008439034203,,0.587943609774766,-0.42050258386939604,1.040362252771449,-0.027000019669596458,-0.005999963424381727,-0.00800002900585653,1.8871309871408358e-297,4.617523452120737e-297,1.773590575674584e-294,0.035838709042606,-0.014599292035773814,0.06581063184460234,-6.388069889950144e-07,1.4220597745035682e-07,6.76040414385903e-07
1669910008819730596,19544,1669910008486718046,,0.5845787318024152,-0.42140317883206335,1.0399477498966156,-0.032000019493438475,-0.00699996280477329,-0.009000028746084384,-3.92450584048085e-215,-2.3513785565694702e-213,-7.277528718728397e-212,0.03515877024113223,-0.016704798981695745,0.06609288722240336,-6.389158842785094e-07,1.4209232815716776e-07,6.760795088646824e-07
1669910008819779770,19545,1669910008656284443,,0.5796479159564795,-0.4228865483231485,1.0401783230174715,-0.031000018928507966,-0.006999961562662714,-0.00800002791300714,0.0,0.0,0.0,0.030488059712958204,-0.029326300721171705,0.06821551568645212,-6.396988839782256e-07,1.4061462211570732e-07,6.764986777794707e-07
1669910009317445477,19546,1669910008782601780,,0.576581869770038,-0.42400563183840434,1.0398829311478128,-0.029000018586533817,-0.006999960863979944,-0.004000027408713462,1.1990829246767027e-155,1.7671041188106485e-155,2.1969816371581625e-154,0.02819572909879753,-0.032824987872803746,0.0696276072743558,-6.401823395188534e-07,1.404675194725415e-07,6.767733725804015e-07
1669910009364559133,19547,1669910008930633363,,0.5746591689634412,-0.4252366745476537,1.0400653338835086,-0.023000018134732875,-0.006999959877790744,0.0019999732575367735,-7.746236433697024e-299,6.110167315170298e-297,-1.8670826998343642e-296,0.022433049363169033,-0.03537979827730098,0.07258210180511959,-6.414530178066005e-07,1.4059771282178508e-07,6.773522375934532e-07
1669910009364582677,19548,1669910009071165006,,0.5715011739043702,-0.42646069055748537,1.0399849114741757,-0.023000018134732875,-0.006999959877790744,0.0019999732575367735,-6.7286599485342e-217,-1.1789625216897073e-215,-1.514147274332446e-216,0.01888835312615811,-0.032208712383939186,0.07540064190231632,-6.417014550640253e-07,1.419336810445991e-07,6.780864315605706e-07
1669910009364606809,19549,1669910009130692205,,0.5708892625955911,-0.4256496066906969,1.0402429254747056,-0.021000017763445716,-0.0039999591260959375,0.005999973805057014,0.0,0.0,0.0,0.018462515648787203,-0.027654362413422007,0.08124586516835564,-6.415077093429041e-07,1.4295330079546974e-07,6.801294100000585e-07
1669910009825250369,19550,1669910009313891697,,0.5659649844182522,-0.43783461185510136,1.0404684773668016,-0.02500001747130685,-0.026999958742323298,0.014999974235860865,0.0,0.0,-7.22454151154795e-120,0.019007510221088708,-0.01775023828965061,0.11009056008527374,-6.413164285324451e-07,1.4499966985879848e-07,6.884568290820642e-07
1669910009844929725,19551,1669910009477261409,,0.553617039217255,-0.4656981950568447,1.040822904862462,-0.04799318900019536,-0.07198659920081255,0.015999677880553374,-7.87801193733407e-139,-2.0582197601693424e-139,-1.0258892525232626e-137,0.014065029503004922,-0.0054734536089302566,0.1950948374120749,-6.429525081186756e-07,1.4714320293156276e-07,7.072339775787439e-07
1669910010124959996,19552,1669910009712943926,,0.5677428067226424,-0.5419135858780826,1.040332456575381,-0.028001513662397455,-0.18899204911646836,0.008000615563864945,0.0,0.0,0.0,0.0013809835243634438,0.010369322828454486,0.37805102419126335,-6.455977068463848e-07,1.4971938366307923e-07,7.418981301191938e-07
1669910010194912785,19553,1669910009885334794,,0.5769846896492483,-0.5891708300613648,1.0400287597355413,-0.03899926428096704,-0.22599742246558832,0.009999837513735234,0.0,0.0,0.0,-0.006262491637933465,0.021558037033143407,0.5275252431567132,-6.474424946218176e-07,1.5129447648091927e-07,7.673294199907436e-07
1669910010194927053,19554,1669910010009606056,,0.5877194371573357,-0.6155384660168511,1.0402756648154323,-0.03899926428096704,-0.22599742246558832,0.009999837513735234,-1.691992801227655e-142,-1.327293783983996e-141,7.296874564315894e-142,-0.011277349386650926,0.028732022946018176,0.6332827585152536,-6.487986894010227e-07,1.5222346848835658e-07,7.855851934953072e-07
1669910010232040201,19555,1669910010059560171,,0.5971212957684433,-0.6355036759841598,1.0490622924381032,-0.03999981227163923,-0.2509948410237267,0.009999975014749734,-2.954552128907401e-294,-7.2604418056261025e-295,-1.2715047967153315e-292,-0.01315508879967453,0.03205878138306417,0.6847754495312408,-6.491070653396667e-07,1.5250198544785736e-07,7.926920350132172e-07
1669910010367620541,19556,1669910010223080126,,0.6166030656743346,-0.6713295297023856,1.05022729027834,-0.04599875244857301,-0.24900037147536838,0.004001239666105807,-1.8321768838637581e-143,-1.155081659038482e-144,-9.079456572297635e-142,-0.013485148816405612,0.03889406406352869,0.802979859644573,-6.490553108488957e-07,1.5295643692984638e-07,8.064384130947635e-07
1669910010670253004,19557,1669910010354935233,,0.6244492808608164,-0.6829464657881126,1.050875512898594,-0.046000016080188326,-0.20300227021713074,0.0020000771978447443,0.0,0.0,0.0,-0.0071177272995299745,0.04396312329322072,0.9153003805907538,-6.476143414708662e-07,1.5322130578258733e-07,8.203665940068486e-07
