%time,field.header.seq,field.header.stamp,field.header.frame_id,field.position.x,field.position.y,field.position.z,field.velocity.x,field.velocity.y,field.velocity.z,field.acceleration.x,field.acceleration.y,field.acceleration.z,field.orientation.x,field.orientation.y,field.orientation.z,field.angular_velocity.x,field.angular_velocity.y,field.angular_velocity.z
1669909689130438652,17054,1669909688819082854,,-2.255738333688583,-5.537617381629426,0.08406924104881368,-0.03399985830566876,-0.03600073859907806,-0.13000143120006544,4.588655410044991e-259,1.1159077348301514e-260,5.690480015256702e-259,0.010627280781585924,-0.03975150668610716,0.43723418533070557,-5.074616260151817e-07,1.1626338691884343e-07,6.248480790459055e-07
1669909689158836118,17055,1669909688878625483,,-2.266132280541844,-5.547059915236148,0.07902762135931975,-0.059993308601654,-0.04099866527476998,-0.1339989900703856,7.225265258192827e-64,5.369851076321475e-64,2.5572037175113573e-62,0.01396139892925774,-0.04663710962833889,0.4411634818486334,-5.064868625590751e-07,1.1493319217044035e-07,6.25536046163418e-07
1669909689208377044,17056,1669909689003977393,,-2.2730699682338864,-5.5643424590551716,0.07563430561223362,-0.07499654851442618,-0.058995796719141944,-0.09500902706110818,3.835229269763849e-93,-1.5340917079055395e-92,1.9176146348819244e-93,0.028064386378208184,-0.06914874902823342,0.45223933928528304,-5.03325529355064e-07,1.1064821592592395e-07,6.276565206404981e-07
1669909689247662147,17057,1669909689146386515,,-2.278217971993145,-5.575712630948586,0.07249820801940676,-0.07499654851442618,-0.058995796719141944,-0.09500902706110818,0.0,0.0,0.0,0.04135622647295456,-0.08988482817327714,0.46126191704115094,-5.010524233592173e-07,1.0701623843670595e-07,6.29381379290174e-07
1669909689292607951,17058,1669909689188794963,,-2.2796926957596346,-5.579046983837239,0.06810823154939236,-0.07499654851442618,-0.058995796719141944,-0.09500902706110818,3.946409984545677e-218,3.0329833123909067e-217,-2.0598145542504846e-216,0.04558853207625191,-0.09719279911309187,0.4642713034314614,-5.004463959273919e-07,1.0589032908203265e-07,6.299120939193715e-07
1669909689526938112,17059,1669909689237818978,,-2.2816275630155927,-5.588230534894834,0.071913661206848,-0.07899960989265489,-0.06899894364869874,-0.06600294488584199,0.0,0.0,0.0,0.05267271111626215,-0.1103532426819438,0.46953975425922323,-4.994121593119269e-07,1.0370824570319367e-07,6.308990484120866e-07
1669909689642112405,17060,1669909689408122951,,-2.293290714268468,-5.603985370602909,0.06725668724271759,-0.08899821309134276,-0.06300103093268469,-0.04100452236366178,1.7612755464341018e-153,-2.3828207047594519e-153,-1.1717071532259593e-153,0.06187408553210538,-0.1386044129779318,0.48179888759624667,-4.995230606248929e-07,1.0037411259564481e-07,6.330299301697983e-07
1669909689789606517,17061,1669909689585503057,,-2.3031037109747294,-5.610506731237143,0.05941540202587796,-0.07900056129513933,-0.03800131459150295,-0.016001388636302728,0.0,0.0,0.0,0.05818399855653844,-0.16118980558227136,0.4932298844400016,-5.007004700358654e-07,9.71520450648665e-08,6.350157403129629e-07
1669909689903657466,17062,1669909689728611862,,-2.3141718897682,-5.622868559977216,0.06727117041543462,-0.08899506017883975,-0.03799994651799335,0.0009915527324373431,0.0,0.0,0.0,0.05347503964972944,-0.17735932080459804,0.5014602629106673,-5.012959681066901e-07,9.480443373194394e-08,6.364270757057038e-07
1669909690240898138,17063,1669909689848136050,,-2.32112684945577,-5.631824832697565,0.07018130636334069,-0.08899506017883975,-0.03799994651799335,0.0009915527324373431,1.349401336733507e-79,-4.2168791772922093e-81,2.1590421387736112e-78,0.04300148138228366,-0.18531369767036843,0.5100949331819056,-5.04113930302909e-07,9.558633545019001e-08,6.378342895082681e-07
1669909690299673929,17064,1669909689899548250,,-2.326041787372247,-5.639910490089601,0.07008733585017486,-0.09499984220345861,-0.04399977137584901,0.022999343703833316,-2.698614823775265e-77,-1.2279439883543156e-77,-1.1275826321300393e-77,0.03945698750328219,-0.1848175254998221,0.5118782037719356,-5.047153352805811e-07,9.636364269725321e-08,6.379467928970657e-07
1669909690304194074,17065,1669909690017068783,,-2.333416674645428,-5.650041113744824,0.07021887274792915,-0.09499984220345861,-0.04399977137584901,0.022999343703833316,0.0,0.0,0.0,0.028625255432693564,-0.17926166080181005,0.5162131376327395,-5.062579438869618e-07,9.813630358304602e-08,6.382279194180926e-07
1669909690397279116,17066,1669909690076097302,,-2.3260413500246933,-5.631625863732931,0.07092185658732136,-0.04300279831317153,-0.010001763373430311,0.058998051063042144,0.0,0.0,0.0,0.021002881497459214,-0.17117416906867078,0.5173223698816205,-5.070342791445485e-07,1.0026817892960534e-07,6.376868038617932e-07
1669909690771390836,17067,1669909690339822214,,-2.331666912544877,-5.635391839167614,0.08742739208220353,-0.02702714213662704,-0.005008420828748407,0.0729762431542238,-1.7060246356358915e-296,7.844773471203576e-294,-8.328652108933143e-293,0.015259142361284006,-0.14264227780203775,0.5014188933079797,-5.072850851047567e-07,1.0533737945757012e-07,6.326697693360836e-07
1669909690859590250,17068,1669909690525170110,,-2.339624119932432,-5.6297613677455,0.09469205576421132,-0.02100072996792224,0.01399779716474114,0.07899926427332739,3.0947004135616274e-76,-3.965981132318849e-77,-1.0015224011522152e-76,0.017862350713183872,-0.1099449026629209,0.46735885313336567,-5.077913270761096e-07,1.110457272529518e-07,6.279079690932744e-07
1669909691313799745,17069,1669909690806481607,,-2.346549801752579,-5.624593771557343,0.10259926449308274,-0.016000640935276506,0.019999303297535482,0.07000111265843208,-9.197467714053759e-155,9.971308549892783e-156,-2.838270124907322e-155,0.014768880337706847,-0.049346950611731444,0.43448884151653644,-5.090191239078791e-07,1.2278228208348752e-07,6.22381362524362e-07
1669909691328091199,17070,1669909691050407787,,-2.3373074162371967,-5.631346867605042,0.09893105749474418,0.0009989677390923723,-0.003999577877940048,0.04600053543884686,-2.596812992913737e-77,-1.8511772817898024e-77,-1.673494514141175e-78,0.010286897067093292,0.023494146094034107,0.4128973132102569,-5.095423837238238e-07,1.3463030032468717e-07,6.196773023146663e-07
1669909691432817380,17071,1669909691239642401,,-2.3341241898805083,-5.638367158440652,0.0984422526016738,1.446904160004997e-08,-0.017999548845510926,0.045000007788809894,-5.122863259076065e-43,-6.029462721574072e-44,-7.520476560522985e-42,0.007848131054080554,0.07071106034566021,0.402318090744032,-5.099503553368983e-07,1.4025654790913924e-07,6.188501986073043e-07
1669909691838853937,17072,1669909691372696993,,-2.3357311181994436,-5.640903304008281,0.10916546006574782,-0.00799740264206951,-0.01600060814242906,0.05599638570646217,0.0,0.0,0.0,0.009024670441039717,0.10395436829156601,0.396486162492522,-5.090771347431462e-07,1.4397782018764925e-07,6.183558552347451e-07
1669909691896895940,17073,1669909691485396669,,-2.3352215941497794,-5.642699141713047,0.11088533897693373,-0.00799740264206951,-0.01600060814242906,0.05599638570646217,7.642242583493486e-220,1.1618785946992773e-222,-5.34396586995835e-219,0.014335573619920439,0.12029984689401019,0.3938376154624663,-5.075572264915502e-07,1.451755810268876e-07,6.182073186313664e-07
1669909691896902172,17074,1669909691532749205,,-2.33497085231823,-5.6434515221609685,0.11355214125460289,-0.00799740264206951,-0.01600060814242906,0.05599638570646217,7.642242583493486e-220,1.1618785946992773e-222,-5.34396586995835e-219,0.014335553136048063,0.12029985334809723,0.39383764504550456,-5.075572264915502e-07,1.451755810268876e-07,6.182073186313664e-07
1669909691896905005,17075,1669909691574075708,,-2.3349611202758567,-5.652902570155083,0.11691080267954006,-0.016999395600484572,-0.033998718702861995,0.06399942563881747,0.0,0.0,0.0,0.019209091651099186,0.1263548744945968,0.3926944951547462,-5.063146671856895e-07,1.4596325504690063e-07,6.180600677106284e-07
1669909691896907244,17076,1669909691726438219,,-2.334124854316866,-5.658390642484069,0.12847548312711277,-0.016999395600484572,-0.033998718702861995,0.06399942563881747,0.0,0.0,0.0,0.03854298219400576,0.12684672533695895,0.39084864325734614,-5.022475931344366e-07,1.4396668422507172e-07,6.180273950144756e-07
1669909691995926185,17077,1669909691794802216,,-2.3382075731606315,-5.668546860103607,0.1385350520359583,-0.032998878597685966,-0.04599910928940412,0.06499990480834646,0.0,0.0,0.0,0.045142554011757596,0.12353301309387454,0.39039548900076504,-5.010368668311821e-07,1.426886840364532e-07,6.180596932950741e-07
1669909692340718045,17078,1669909691938282103,,-2.3388893936555966,-5.676454288188346,0.15190861373026138,-0.032998878597685966,-0.04599910928940412,0.06499990480834646,0.0,0.0,0.0,0.06992091091446362,0.1018584829179261,0.3881393589783677,-4.967292849524414e-07,1.3750387371100666e-07,6.180261441446355e-07
1669909692376629921,17079,1669909692018004719,,-2.3451332414254353,-5.688574051133393,0.16188257523538319,-0.05199730858408291,-0.056998396895877664,0.06599983191349566,3.591986412787304e-77,5.965465879121198e-78,-1.9632048213721851e-78,0.07729117036004318,0.09286893995214918,0.387104397879634,-4.958123229032503e-07,1.3590982432697775e-07,6.179936416469045e-07
1669909692376723280,17080,1669909692177988986,,-2.3522830154592573,-5.6985590244864035,0.17917074161518518,-0.05899956630908597,-0.04900048156926563,0.07099965042677393,7.840820858473594e-43,1.0459084300434448e-42,1.117517621373238e-41,0.09426805123378657,0.06807247454077192,0.3835139664420666,-4.942503447273988e-07,1.3237611847141796e-07,6.1775086542024e-07
1669909692428319911,17081,1669909692297431719,,-2.3558870485307777,-5.707188039867639,0.18144692234433646,-0.05899956630908597,-0.04900048156926563,0.07099965042677393,2.4402294542810435e-141,-2.607284484301359e-142,1.1174536130548358e-140,0.0997338491104216,0.0500374394719767,0.3796834708684482,-4.949949070636655e-07,1.3020020818364794e-07,6.174226539201567e-07
1669909692802813746,17082,1669909692368411782,,-2.3518700183905534,-5.70304677041481,0.1883569023137978,-0.037002445344227385,-0.03400161787405665,0.07099997094526196,0.0,0.0,0.0,0.09832747043894585,0.04230058008155879,0.3776454018980324,-4.962339471121097e-07,1.2926907075413864e-07,6.172116606422021e-07
1669909692810551946,17083,1669909692531942532,,-2.353368767503392,-5.703069342854592,0.2023436619565265,-0.02700081428764027,-0.01800123215837056,0.0660003665001952,0.0,0.0,0.0,0.08469478295978305,0.02810637016070494,0.37253747497083367,-4.992104407687323e-07,1.279110659947497e-07,6.166655194103586e-07
1669909692810554787,17084,1669909692664391713,,-2.3553857247961973,-5.7071599598916,0.20808872374633483,-0.02700081428764027,-0.01800123215837056,0.0660003665001952,-2.1315279946194694e-65,-1.1279705373963064e-64,-5.7871313009429564e-64,0.06811168230051834,0.019963232123904717,0.36758836316206356,-5.022426776986219e-07,1.2716974941094837e-07,6.160783905571954e-07
1669909692896076914,17085,1669909692718359461,,-2.3541508907717983,-5.708981556156179,0.21104331654377917,-0.022000175207820355,-0.020999867917736267,0.05900018467502855,7.546256223708373e-78,-2.5161211415789235e-77,5.516360969171697e-78,0.06360486123693754,0.018632057922072676,0.36649322915758376,-5.028106470756368e-07,1.2732212501382637e-07,6.160050262775726e-07
1669909692957437020,17086,1669909692833541051,,-2.3553974431920714,-5.712485415203084,0.21331345227201218,-0.022000175207820355,-0.020999867917736267,0.05900018467502855,-9.104419837890877e-159,-4.552209918945439e-159,-5.826828696250162e-157,0.05258402744920865,0.016140944224259712,0.36414217837514506,-5.047287351885072e-07,1.2715481031358788e-07,6.157788547938993e-07
1669909692986195480,17087,1669909692876136577,,-2.355868428437917,-5.7137714427646955,0.21834092959325052,-0.022000175207820355,-0.020999867917736267,0.05900018467502855,0.0,0.0,0.0,0.04340236935454378,0.015854946486891563,0.3624789205518475,-5.06015076621897e-07,1.2761394344352876e-07,6.156177345252858e-07
1669909693324783134,17088,1669909692926771805,,-2.3551416809154557,-5.713708891184233,0.22114838797125946,-0.018000186439904774,-0.019000042345075477,0.056000094637569844,-2.0867696715878284e-219,-4.045189074765551e-220,3.641678368896762e-217,0.0415117587490581,0.016165403188804106,0.3621432258277899,-5.061332428030914e-07,1.2781086025423982e-07,6.156059318229704e-07
1669909693332092880,17089,1669909693058529748,,-2.356259513051089,-5.717113605352209,0.2272904049998592,-0.018000186439904774,-0.019000042345075477,0.056000094637569844,-2.3297080149353607e-64,-6.004459041158704e-64,-2.3704796831018804e-62,0.030580511079573824,0.019910441650971222,0.3603443535891895,-5.074796004364185e-07,1.2880742329909797e-07,6.155064321910162e-07
1669909693332168367,17090,1669909693105583034,,-2.352734821958534,-5.719440018626735,0.22990456244261995,-0.010000018712893683,-0.02499995822027993,0.05599997240494941,-2.2896951153746615e-144,-1.1194745258352573e-143,-5.315075056717504e-141,0.028737531009193518,0.021160258811269372,0.3601004856858676,-5.076028805194436e-07,1.2907958352955453e-07,6.155185933469394e-07
1669909693378880223,17091,1669909693236047471,,-2.352586311134529,-5.7230795406293815,0.232553285948313,-0.010000018712893683,-0.02499995822027993,0.05599997240494941,-4.9145551955905716e-231,3.409201031817963e-233,6.559445553458912e-234,0.022300249476758793,0.02723331037901744,0.3596939210781471,-5.083826925094587e-07,1.3020348637645679e-07,6.156704735212442e-07
1669909693542326621,17092,1669909693312021063,,-2.3495651120182077,-5.727588824776143,0.24031893051726966,-0.00600001758181983,-0.03199995785313611,0.05799997407289242,-9.1295675791576e-65,1.2007669275265935e-64,2.985153136504122e-63,0.021564814994960102,0.028242743653336788,0.359736308294865,-5.083059346014515e-07,1.3034317388719997e-07,6.157194977937032e-07
1669909693854609248,17093,1669909693485184390,,-2.348120607437177,-5.735606826130442,0.24876524078513199,-0.007999923354477467,-0.03799967917089305,0.05799997600448934,0.0,0.0,0.0,0.019461363806531295,0.037386458439536696,0.3615814719024364,-5.081227190954051e-07,1.3180508134643334e-07,6.163593421723985e-07
1669909693865206901,17094,1669909693587657399,,-2.34725476851782,-5.739564936163965,0.24968418493951364,-0.007999923354477467,-0.03799967917089305,0.05799997600448934,-2.3261469300424696e-64,1.2248801671236229e-65,1.0660784023420753e-63,0.020544645465571776,0.04159928214135711,0.363388426770209,-5.078084473645869e-07,1.3248447795684785e-07,6.168073995569547e-07
1669909693865210083,17095,1669909693639908867,,-2.3468024363705027,-5.7415816122257715,0.2526883628038352,-0.007999923354477467,-0.03799967917089305,0.05799997600448934,1.1521021154991409e-296,-1.879717649136322e-298,9.452672519058887e-296,0.021654016606358795,0.04402192584013953,0.36471183361735626,-5.075959018947181e-07,1.3286972967958525e-07,6.17087937968507e-07
1669909693865369687,17096,1669909693663937055,,-2.346590475455225,-5.742508878921225,0.2574097549745007,-0.007999923354477467,-0.03799967917089305,0.05799997600448934,0.0,0.0,0.0,0.02207146441046426,0.04478510991275364,0.36516417016948743,-5.075186981654213e-07,1.3298465285470598e-07,6.171862292702422e-07
1669909693881409183,17097,1669909693687280248,,-2.3459469839726057,-5.743613114999877,0.25876144767739945,-0.0070000157969679535,-0.03899995844811018,0.05699997670493205,1.0712841511197316e-141,9.238161532155688e-143,1.4160746693453922e-140,0.0224781238349685,0.04542791445133432,0.36557847446045955,-5.074513008626103e-07,1.330280745813982e-07,6.172489983702023e-07
1669909693945400778,17098,1669909693821852349,,-2.3445530414055784,-5.748885913449627,0.26197638460012324,-0.0070000157969679535,-0.03899995844811018,0.05699997670493205,-5.722350952672296e-144,-1.8850284538794465e-143,-7.875111779105519e-143,0.02533654507447025,0.04909014704057313,0.3682891279321332,-5.069918083203766e-07,1.3350102227339508e-07,6.177705490733721e-07
1669909694093993331,17099,1669909693890529541,,-2.3428313246665367,-5.751678955295046,0.2685896453980139,-0.005000015795647338,-0.03999995871949265,0.05699997670687951,1.8639566259563138e-154,4.219958900639055e-155,1.3733936344382704e-154,0.027332289099224027,0.05085325489599768,0.37010765340195917,-5.066923694742332e-07,1.3366692343729861e-07,6.181370657900658e-07
1669909694374664570,17100,1669909694040912804,,-2.342519998645618,-5.757462520371347,0.28117497920407397,-0.00900001610703709,-0.037999959226186784,0.05499997624768724,2.0417683097350797e-221,-3.72990911123523e-221,-5.157798043757352e-219,0.031039428208480047,0.05227302305385173,0.37357740240060444,-5.062458710592138e-07,1.3362410912163468e-07,6.187741598998471e-07
1669909694382553889,17101,1669909694206396794,,-2.341062462966253,-5.763956270314525,0.2894067617031017,-0.00900001610703709,-0.037999959226186784,0.05499997624768724,4.712660386052644e-145,5.272912173612648e-145,-2.0494375165053326e-144,0.03457553298558125,0.05081308661466366,0.37772197372094496,-5.059606143940082e-07,1.330969649591249e-07,6.195688492331478e-07
1669909694524403204,17102,1669909694299874243,,-2.342128166795583,-5.766821222604098,0.2913144358495005,-0.01200001641446321,-0.03499995949652515,0.05299997579433997,-7.001025809503636e-145,5.2474931112451234e-145,-3.482281273911069e-144,0.035658493794553436,0.04814373378847492,0.38039467844970254,-5.06069412582264e-07,1.324863909543118e-07,6.200680338598322e-07
1669909694646828144,17103,1669909694464515246,,-2.3420762291437134,-5.7724028289129565,0.3011259692775262,-0.013000016818281876,-0.03299995964911967,0.05099997519884701,0.0,0.0,0.0,0.03489264246019452,0.04203518703426745,0.3841875291727437,-5.066155552514034e-07,1.3126389106488747e-07,6.208299456493768e-07
1669909694910771594,17104,1669909694592112207,,-2.3417058177562295,-5.777035134147424,0.30801966478179255,-0.013000016818281876,-0.03299995964911967,0.05099997519884701,-5.630503959545967e-65,-9.640570467172214e-65,-2.6455387368720983e-64,0.03340766036393461,0.0372966580989722,0.3864608212072138,-5.07027997601807e-07,1.3038101955514184e-07,6.213226535941034e-07
1669909694924832209,17105,1669909694635623040,,-2.341583023615605,-5.778615244077491,0.31020900984673194,-0.013000016818281876,-0.03299995964911967,0.05099997519884701,4.140210802639048e-171,6.624337284222476e-170,2.070105401319524e-171,0.03228256649757455,0.03413581758964668,0.38785880808299567,-5.072895130669525e-07,1.298109711839844e-07,6.216161058486714e-07
1669909694924836794,17106,1669909694673758755,,-2.342728446144305,-5.779170594839114,0.3080517987916474,-0.015000017033877579,-0.029999959393912916,0.04799997488091785,-2.0270041634925237e-43,-1.8974222911325625e-43,-5.840893635419565e-42,0.03228135056459713,0.03413836732320341,0.38785611295346456,-5.072856127135774e-07,1.2983352648044995e-07,6.215936324201236e-07
1669909694938205482,17107,1669909694808425543,,-2.342796731930775,-5.7837837573514905,0.3189184182371934,-0.015000017033877579,-0.029999959393912916,0.04799997488091785,5.6902623986817984e-160,9.104419837890877e-159,7.283535870312702e-158,0.028423013901026195,0.02560353376073543,0.3914100468800523,-5.081251708374007e-07,1.286344379669076e-07,6.222507125852668e-07
1669909695087154004,17108,1669909694883836897,,-2.3434395762502795,-5.786124634676246,0.31885613775677724,-0.016000016938049987,-0.028999958913712622,0.04699997502223044,-2.7831614518114616e-142,-3.586630779236742e-143,-1.5667221101724792e-140,0.026235240736671273,0.021780831465783024,0.3931468416279067,-5.086434400611246e-07,1.278930516349603e-07,6.22694108367061e-07
1669909695416920644,17109,1669909695025425825,,-2.343198866594961,-5.790253562544461,0.3297912231118901,-0.014000016612813377,-0.027999958195120373,0.04799997550184203,-1.3449736135973502e-77,-5.1277250795873265e-78,0.0,0.02281073151712576,0.015945901695832987,0.3960174000910879,-5.091787890966689e-07,1.2700183718625964e-07,6.232636521413926e-07
1669909695428450275,17110,1669909695157247378,,-2.343345452054579,-5.794463725200792,0.33469473705828306,-0.014000016612813377,-0.027999958195120373,0.04799997550184203,1.878692982383553e-223,3.001480775231662e-222,6.934538604811557e-220,0.019010982747040828,0.00821360484247613,0.4001162859125884,-5.097672556826899e-07,1.2582857523993672e-07,6.240985135271932e-07
1669909695454297798,17111,1669909695220990717,,-2.3433388934653836,-5.797835880667734,0.33881411914719173,-0.014999955230348326,-0.030999774447247018,0.047000037056205465,0.0,0.0,0.0,0.017595873544671292,0.004793058950770757,0.4021956463693659,-5.099307894632644e-07,1.253520915309309e-07,6.24511584786273e-07
1669909695519381173,17112,1669909695399719850,,-2.343556146994755,-5.804106692384923,0.34852138434941193,-0.014999955230348326,-0.030999774447247018,0.047000037056205465,0.0,0.0,0.0,0.015355892572678442,-0.0025809996909291755,0.40760636749396895,-5.102179304477058e-07,1.243362401578338e-07,6.256291462195651e-07
1669909695653038176,17113,1669909695458740167,,-2.342149862728164,-5.807443502223687,0.3513049190677884,-0.013000015600485184,-0.034999956475243635,0.04799997699467623,0.0,0.0,0.0,0.015152672374441067,-0.004152696056699767,0.4093471582437065,-5.101578982609003e-07,1.2425914587730352e-07,6.259185990095385e-07
1669909695706959639,17114,1669909695580821453,,-2.3418910203582506,-5.812087928414347,0.35796342240286827,-0.013000015600485184,-0.034999956475243635,0.04799997699467623,-1.1764542308223005e-292,-2.857396500559674e-291,-1.0688298860628024e-292,0.015281062149146152,-0.007217516836949045,0.41411965465953315,-5.101005670001975e-07,1.2397441195333654e-07,6.268334517992219e-07
1669909695966536606,17115,1669909695647123386,,-2.3403111863507844,-5.815561362562385,0.3611775133650622,-0.011000015186593956,-0.037999955724443986,0.05099997760502274,0.0,0.0,0.0,0.01562891011037415,-0.008136849606664498,0.41657934947015995,-5.100196328636375e-07,1.2400799482506648e-07,6.272020491234077e-07
1669909696023046257,17116,1669909695837639832,,-2.3379423175746914,-5.824094440863725,0.36821137159263767,-0.009000168384362095,-0.040999724383493176,0.05499967100240515,-4.143236160494335e-294,-1.3576193325545322e-292,-2.7207028492097916e-293,0.01703274422308354,-0.008526185487214732,0.4238940109905389,-5.098535569069947e-07,1.2434391477529812e-07,6.286005413574381e-07
1669909696086228215,17117,1669909695958854195,,-2.3368899226831195,-5.8291984594129405,0.3787568094585224,-0.009000168384362095,-0.040999724383493176,0.05499967100240515,1.888997995313695e-215,1.478200810110542e-214,1.4241450969636004e-216,0.017508447472781796,-0.007459770267297827,0.4274674993516676,-5.098296500719939e-07,1.2464158190791233e-07,6.292076691929585e-07
1669909696206613130,17118,1669909695999809665,,-2.335808261024078,-5.8297968917962715,0.3810969190054551,-0.006000014728451323,-0.03899995411489679,0.05799997828062478,0.0,0.0,0.0,0.017977047276906077,-0.0064520488796251385,0.42995607743960207,-5.097377496081865e-07,1.248772783486273e-07,6.296576543471758e-07
1669909696467305599,17119,1669909696150069390,,-2.3341532224521693,-5.835662931182504,0.38835633816132153,-0.006000014728451323,-0.03899995411489679,0.05799997828062478,-2.950654062694559e-297,-4.1673412760487215e-295,-3.356134172150327e-296,0.019407472409131543,-0.004047627088674233,0.4345779388144795,-5.094615170195063e-07,1.2538672437475352e-07,6.304412207458174e-07
1669909696501119869,17120,1669909696190661418,,-2.3331432994867467,-5.837460206305777,0.3906955139464272,-0.005000014813870112,-0.03999995385861814,0.05899997815466159,0.0,0.0,0.0,0.019916638894605043,-0.0033275716840677205,0.4357492250522892,-5.093586100039373e-07,1.2553577650163681e-07,6.306858355090434e-07
1669909696573025710,17121,1669909696369740674,,-2.331004994195739,-5.8450345669839345,0.4003830698031121,-0.006000014977793329,-0.04099995376239628,0.0589999779129315,-1.1567665057830682e-66,-5.5216456202066875e-65,-2.507680808463089e-64,0.023435953137875387,0.0012194815158057537,0.4427414660707374,-5.088374863572637e-07,1.263500362979143e-07,6.319435104819469e-07
1669909696646014669,17122,1669909696519112707,,-2.329068241994011,-5.851132627895051,0.4119408528587017,-0.006000014977793329,-0.04099995376239628,0.0589999779129315,0.0,0.0,0.0,0.025345279028190504,0.004847946283231153,0.4483526424988096,-5.088266172628397e-07,1.2700831016635286e-07,6.3292899662109e-07
1669909696995914254,17123,1669909696585747422,,-2.3291721459286086,-5.853828161128976,0.41114901924168423,-0.007999851405981117,-0.04000003567153394,0.05899997765042779,3.111420887843014e-154,3.3018423625782527e-155,0.0,0.025409143577270754,0.006442354182418342,0.45056244337920504,-5.08981563300208e-07,1.2728268912574858e-07,6.332941502063259e-07
1669909697008008405,17124,1669909696762053643,,-2.327477291974289,-5.8594412773379245,0.41999524115593967,-0.007000015547072506,-0.035999953957091615,0.061999977073441466,0.0,0.0,0.0,0.024032386042673437,0.010513680748125864,0.4557886576538941,-5.094453012463925e-07,1.2799359846055873e-07,6.342339519806708e-07
1669909697021689792,17125,1669909696887164550,,-2.326115548846087,-5.863994262756923,0.4302011136491473,-0.007000015547072506,-0.035999953957091615,0.061999977073441466,0.0,0.0,0.0,0.02268438981250398,0.013419225954960368,0.4602346575474776,-5.097223191111222e-07,1.284201425781399e-07,6.350448781458681e-07
1669909697066101006,17126,1669909696969231817,,-2.325204554263456,-5.86696815017293,0.4388842322167722,-0.007000015547072506,-0.035999953957091615,0.061999977073441466,0.0,0.0,0.0,0.022010450267424986,0.01483608173493245,0.4628078303321299,-5.098561826593902e-07,1.2863385743376194e-07,6.355157392100571e-07
1669909697209892236,17127,1669909697005097654,,-2.325360602548344,-5.868997401621863,0.4410825933673421,-0.009000015791506244,-0.03699995414793335,0.06199997671298618,0.0,0.0,0.0,0.02176406769254058,0.015347291106554195,0.46384907546522847,-5.098957083503608e-07,1.2869710649361593e-07,6.356923192941294e-07
1669909697259757887,17128,1669909697135852489,,-2.3240501359068135,-5.873946593164215,0.4473241235054609,-0.009000015791506244,-0.03699995414793335,0.06199997671298618,5.482458128001028e-216,6.031904954200213e-216,2.069885681346287e-216,0.020656607260237436,0.01700147448311462,0.4684662922852816,-5.10182024374696e-07,1.2886317715470293e-07,6.365518357692102e-07
1669909697558293203,17129,1669909697204538121,,-2.323145979187966,-5.876952274980651,0.4515384276808165,-0.00900001579329804,-0.0379998476677179,0.06199997671034391,-1.0790161189510063e-218,1.5949312641739932e-218,-6.895339079953899e-217,0.02022306948658681,0.017217257068372405,0.4701192364728648,-5.102651678547622e-07,1.2882560698820668e-07,6.36813044951703e-07
1669909697592036199,17130,1669909697363155030,,-2.3221541232227,-5.883409459175703,0.45872348545987457,-0.010999813195958023,-0.0379999544185784,0.06000017934221743,0.0,0.0,0.0,0.019288924483184644,0.01674419813662098,0.4755298910998249,-5.10400917791843e-07,1.2858974043469312e-07,6.377860533672572e-07
1669909697609774849,17131,1669909697479202758,,-2.32110441529539,-5.887980009471765,0.46946438829446707,-0.010999813195958023,-0.0379999544185784,0.06000017934221743,2.11174106223413e-79,1.8960524740290566e-79,5.382194257095982e-80,0.019049310501326744,0.015381920984806285,0.4789854871594841,-5.104950120794863e-07,1.2826609853755535e-07,6.38420909966667e-07
1669909697647068055,17132,1669909697544125256,,-2.32051434662988,-5.890536897629977,0.4680957075244256,-0.010999813195958023,-0.0379999544185784,0.06000017934221743,-1.540399738906085e-292,-1.0174703438764179e-294,-1.9922581493772564e-295,0.0189929044778534,0.014493317255990235,0.4806156918935134,-5.105143279223382e-07,1.2807713614538291e-07,6.38732211352306e-07
1669909697801878573,17133,1669909697585733078,,-2.320336753632131,-5.8927986940396915,0.470568211443631,-0.011999895824724304,-0.038999834616473286,0.05999997691365545,-2.2329875491671615e-216,-1.9868654933006515e-216,-2.6038350771570898e-214,0.019032076844707646,0.013672879464039056,0.4818461056587964,-5.105001279491561e-07,1.2793937320580483e-07,6.389230444947626e-07
1669909697930365709,17134,1669909697748776130,,-2.3196339928303313,-5.900727452715906,0.4882020167633295,-0.015000015553487745,-0.040999954286138555,0.05899997706398121,0.0,0.0,0.0,0.01954993192628507,0.009962514909776843,0.48684498360353246,-5.104186190717128e-07,1.2730682651682387e-07,6.398267782623662e-07
1669909697987140250,17135,1669909697860669568,,-2.318852960225204,-5.905653222229768,0.489972270304222,-0.015000015553487745,-0.040999954286138555,0.05899997706398121,0.0,0.0,0.0,0.020490637809423617,0.006606490188893588,0.4909754134505988,-5.102861584276658e-07,1.2680858034348726e-07,6.405373678347915e-07
1669909698212556676,17136,1669909697928272745,,-2.3191405425761853,-5.909048944505706,0.49389774740221043,-0.016999207038582424,-0.04099995404037446,0.05999957293978209,1.8409282892765554e-298,2.504091742357805e-297,-4.865199693464252e-295,0.021010783045454673,0.0049756004497076844,0.49292559371342115,-5.10199677747346e-07,1.2649585442106325e-07,6.409718459941558e-07
1669909698270040217,17137,1669909698108394124,,-2.318186315811568,-5.9171926075123364,0.5022207419044439,-0.016999207038582424,-0.04099995404037446,0.05999957293978209,-2.233051316687245e-218,-2.6668055110992785e-216,-2.185993317373673e-215,0.022798613478007823,0.00042494400923764886,0.49848098887736114,-5.099599903513369e-07,1.259139398330399e-07,6.419999814335496e-07
1669909699138630479,17138,1669909698210754375,,-2.3167450719327105,-5.922464412147959,0.5114578341399262,-0.016000161070632613,-0.042999661925379414,0.059999977213413644,0.0,0.0,0.0,0.023955444987425523,-0.0015933629099578184,0.5021880422524188,-5.098986945229182e-07,1.2577270296025992e-07,6.42649743142293e-07
1669909699157718703,17139,1669909698387722922,,-2.3142585451530344,-5.930118296243347,0.5215558963299155,-0.013000568689503883,-0.04299995280256781,0.0629994240151063,-5.523170590353009e-144,-1.4683795440650834e-143,-2.410536189003668e-142,0.024120841774118773,-0.00334503408109299,0.5076039786329947,-5.10204897583627e-07,1.2569237271364756e-07,6.436284132631768e-07
1669909699213785030,17140,1669909698569360088,,-2.3120265511781612,-5.93707612985327,0.538934770969409,-0.011000015469464908,-0.040999952466165994,0.06599997718788585,-3.561991711655475e-78,2.903345681344039e-78,2.0743417265280782e-80,0.022474846556027828,-0.004038843084257948,0.51293050883468,-5.106381596803793e-07,1.2569552678693664e-07,6.445968186996463e-07
1669909699213825826,17141,1669909698711036716,,-2.310264129598024,-5.943444727570222,0.5432108342887318,-0.011000015577878532,-0.04199972994656804,0.0669997549684791,1.4641705603716786e-296,-7.483580119251623e-297,7.570365131857988e-296,0.020967704434994516,-0.0043847980063738135,0.5179417566725917,-5.109335948121503e-07,1.257223146127997e-07,6.455200228928437e-07
1669909699213865275,17142,1669909698831021822,,-2.308860143946266,-5.948637608335825,0.5568629543770505,-0.011000015577878532,-0.04199972994656804,0.0669997549684791,3.3518035596050593e-44,1.593526207697883e-43,7.889734994015448e-42,0.020121677028916096,-0.0042157426540470055,0.5211318414127124,-5.110912633442934e-07,1.2584600475818106e-07,6.461074979165829e-07
1669909699213938067,17143,1669909698897552463,,-2.308076130750669,-5.951512809110255,0.561260052784422,-0.011000015577878532,-0.04199972994656804,0.0669997549684791,-3.2728918040285327e-230,-2.094559501822872e-229,5.342612555645883e-231,0.019771350267461685,-0.003971976541219391,0.5226672807009116,-5.111635940023553e-07,1.2592851888428118e-07,6.463538753868505e-07
1669909699227739658,17144,1669909698962737981,,-2.3068145565028377,-5.9551778203385215,0.5600284437889875,-0.01100001552096906,-0.04399923256206444,0.0669999770320851,2.326710689409084e-66,7.350011431073736e-66,-5.718231590733502e-64,0.01935780662247133,-0.0035610260000620286,0.5246692863976463,-5.112398798579208e-07,1.2606413287291334e-07,6.467664549152346e-07
1669909699608268675,17145,1669909699174716666,,-2.303371598514965,-5.9648613214504405,0.5793300135676952,-0.010000792071967773,-0.044999174327146264,0.06899842393428074,0.0,0.0,0.0,0.018707394748195938,-0.0015896119952358845,0.5304690450714045,-5.114070417196306e-07,1.2650610785665786e-07,6.478334759402166e-07
1669909699676907528,17146,1669909699320283437,,-2.3012141791700627,-5.971426047719231,0.5841046558010027,-0.010000015608416322,-0.044999951081535636,0.07099914230770922,0.0,0.0,0.0,0.018500096804693555,0.0006158064569294908,0.5348790886689514,-5.114742391571819e-07,1.269512453416857e-07,6.486440039763252e-07
1669909699677735469,17147,1669909699443348694,,-2.2993593389027995,-5.9769523162085845,0.5971770880690457,-0.010000015608416322,-0.044999951081535636,0.07099914230770922,5.413457031821208e-44,5.1490697585458855e-43,2.749578220566917e-41,0.018771108955593974,0.0021005290932833987,0.5375013932192996,-5.114030341878473e-07,1.272086847054825e-07,6.491210866277937e-07
1669909699694750122,17148,1669909699482244153,,-2.298553875546668,-5.97905695051117,0.59992944148346,-0.010000015272260526,-0.04599936491970937,0.07199939055337828,0.0,0.0,0.0,0.018795786964014738,0.0021625912302258854,0.5376127749099986,-5.11397327469414e-07,1.2721933793428605e-07,6.491395520330258e-07
1669909699763686832,17149,1669909699642441771,,-2.296000809279521,-5.986376757325402,0.6079872902370188,-0.010000015272260526,-0.04599936491970937,0.07199939055337828,-6.871172610516272e-43,-3.622411166948598e-42,-1.7871072286523632e-40,0.020536284297993035,0.003995389434892971,0.5416073326763744,-5.110574765070144e-07,1.274532991554364e-07,6.49894759053491e-07
1669909700007513650,17150,1669909699700001944,,-2.294654196762029,-5.989708304556413,0.612077759074138,-0.010000015295294946,-0.04799829180454232,0.07199997695784982,0.0,0.0,0.0,0.021405323821216626,0.004298563063841243,0.5429059934490397,-5.109424548078778e-07,1.2745790473963324e-07,6.501329897618183e-07
1669909700028017857,17151,1669909699855991255,,-2.2919455443297023,-5.9971094679843535,0.6283496246907321,-0.010000015295294946,-0.04799829180454232,0.07199997695784982,4.957429332683685e-44,2.5661977683137114e-43,1.1005844757954805e-41,0.023485901485473804,0.004499723487382923,0.5456992829734819,-5.106327846755388e-07,1.2744443409886698e-07,6.506683496534813e-07
1669909700098963096,17152,1669909699909944815,,-2.2902046003761574,-6.000170186147241,0.6320971779652846,-0.009005621265657085,-0.049988730310058564,0.07001118913669285,5.848402890984184e-260,1.362810729234098e-259,5.939645935915095e-258,0.024364705870747017,0.004362153910156152,0.5467958177652577,-5.104905424928296e-07,1.273861797961229e-07,6.509062881365683e-07
1669909700166223245,17153,1669909700046335314,,-2.287544161017959,-6.006816316926391,0.6377236315599291,-0.009005621265657085,-0.049988730310058564,0.07001118913669285,1.8616668091719652e-283,2.027212906000478e-282,1.3050320974776636e-279,0.026345346386259294,0.0036802134533377995,0.549156983316708,-5.10227069195599e-07,1.2724909387226936e-07,6.51365400299281e-07
1669909700309441003,17154,1669909700104966515,,-2.2874503800468777,-6.009765146892377,0.6417531026199343,-0.010999913939926734,-0.0490000017685526,0.06999997774677652,4.7934028618741574e-231,3.5084497234109744e-229,-7.26958810864741e-232,0.02764292583925787,0.0029156271122126043,0.5508944585683135,-5.101331629497175e-07,1.2711796797923796e-07,6.516221782428386e-07
1669909700351585915,17155,1669909700236053962,,-2.2851591523395536,-6.016198668850904,0.6568183561081155,-0.010999913939926734,-0.0490000017685526,0.06999997774677652,1.864849816120018e-296,2.5128289405969476e-295,5.144082983695257e-294,0.02946091103271442,0.0014779013412926645,0.5536740480120912,-5.099612489561543e-07,1.2691417866122627e-07,6.521081911348742e-07
1669909700756347538,17156,1669909700291583151,,-2.2853910973348333,-6.0186419999013925,0.6606243606011992,-0.01300001570645339,-0.04699995136891689,0.06999997683840975,0.0,0.0,0.0,0.030199386641562853,0.0008485037166163778,0.5547985717990827,-5.098609998519265e-07,1.2677561865922363e-07,6.524295256213409e-07
1669909700785314722,17157,1669909700415687208,,-2.283544374264325,-6.024672292971265,0.6630262866066311,-0.01300001570645339,-0.04699995136891689,0.06999997683840975,-3.209694265016146e-220,1.6398046122660538e-217,1.962509641369284e-217,0.03138523015158867,-0.0005211176541006779,0.5569707460654598,-5.097913012264976e-07,1.265839116441831e-07,6.528369031243327e-07
1669909700785373873,17158,1669909700478913903,,-2.2822550294690886,-6.027548769692179,0.6688016161521128,-0.012000171784774416,-0.04699995117087262,0.0709998206413981,-8.236092143148846e-84,-1.3177747429038154e-82,2.1084395886461046e-81,0.031943825565694084,-0.0014248668415337562,0.558350755288231,-5.097772909592234e-07,1.2646369410061061e-07,6.531045501375957e-07
1669909700839671237,17159,1669909700659103145,,-2.2792546876500253,-6.035658017894128,0.6879506984632849,-0.011000070386871614,-0.04600000530103528,0.0719999219830993,0.0,0.0,0.0,0.032698334199979584,-0.0033816980683791797,0.5616376161471983,-5.098429971081479e-07,1.262318159733713e-07,6.537641950838042e-07
1669909700943728414,17160,1669909700785541943,,-2.277201316449985,-6.04158939105454,0.6911095135683353,-0.011000070386871614,-0.04600000530103528,0.0719999219830993,0.0,0.0,0.0,0.03255299358683672,-0.004373671572404092,0.5638054877515764,-5.100065993019985e-07,1.2615493396028774e-07,6.541938160983903e-07
1669909701273665995,17161,1669909700883380105,,-2.2754796481967006,-6.045645331923867,0.6994242383497952,-0.010000080684336424,-0.04500001512898053,0.07299991161361158,3.182477853852437e-290,1.7679000176195948e-290,5.227033604448472e-293,0.03194324373525603,-0.005022947603515959,0.5657633713082184,-5.102567367607825e-07,1.2612363602820077e-07,6.545961029743077e-07
1669909701288126112,17162,1669909701041375525,,-2.2727025020763048,-6.0522413766427565,0.71357877499453,-0.009000045007529224,-0.04399997927901032,0.07499991852699084,-6.115974055362225e-300,1.1613588386507561e-297,9.565632950200619e-296,0.030012162539566845,-0.005382393467479929,0.569251720075183,-5.10687071229469e-07,1.262187343150652e-07,6.552686011890792e-07
1669909701432029802,17163,1669909701235959564,,-2.2688166873334747,-6.0609273010349565,0.722786171135374,-0.008000102282382052,-0.0449998642131651,0.07599989000912556,-4.529638363948073e-307,3.42940921860986e-307,3.58668121315656e-309,0.028343488131140404,-0.004654200438507061,0.5742349122101444,-5.109334968604487e-07,1.264907081323811e-07,6.562098515240816e-07
1669909701786795484,17164,1669909701371857489,,-2.2662841834421927,-6.066919373741038,0.7381585097216774,-0.008000102282382052,-0.0449998642131651,0.07599989000912556,1.0767643219771815e-231,-3.023986603247653e-230,1.1384184744038885e-232,0.027874288831355898,-0.003979664829071083,0.5768334483561688,-5.110417882873134e-07,1.2665187659256057e-07,6.567388680261828e-07
1669909701817621330,17165,1669909701447926843,,-2.264598464736693,-6.070674447775954,0.7465288854560943,-0.008000016139975781,-0.04599992046632046,0.07699994654942162,0.0,0.0,0.0,0.02768309808793923,-0.003527873574242335,0.5786303694152011,-5.110653509828365e-07,1.2673305367961782e-07,6.570553584184996e-07
1669909701817624254,17166,1669909701630607852,,-2.2610421956999263,-6.078852380211679,0.7540913989316114,-0.008000016139975781,-0.04599992046632046,0.07699994654942162,0.0,0.0,0.0,0.027265493986680767,-0.0027290020135879445,0.5822085098870602,-5.111834459366405e-07,1.2686902896748497e-07,6.576770883618193e-07
1669909701907130694,17167,1669909701689142470,,-2.2606995715671707,-6.082009084096256,0.759297547193529,-0.009999869109739653,-0.04599994997542033,0.0779999029389274,7.834126631810381e-67,-2.8864165927551855e-66,8.955413132851634e-65,0.027028919448197186,-0.0022105221797446006,0.5849268297593593,-5.112739206812671e-07,1.2701486512995742e-07,6.583593124032366e-07
1669909701983439230,17168,1669909701847751135,,-2.257817764439877,-6.089254637445911,0.7735480739514556,-0.009999869109739653,-0.04599994997542033,0.0779999029389274,0.0,0.0,0.0,0.02715238033185763,-0.001445095711293476,0.5901473440732055,-5.113020001674482e-07,1.2715874241081024e-07,6.593804826168817e-07
1669909702337576732,17169,1669909701904683721,,-2.256378515542547,-6.091590349777155,0.7801928203570118,-0.009000077818974838,-0.04599994989486327,0.07799997644401248,0.0,0.0,0.0,0.02724348993906922,-0.001302028383101117,0.5921249978225305,-5.113117849324476e-07,1.2717725181725054e-07,6.597171880335498e-07
1669909702348487710,17170,1669909702054190358,,-2.2542116746641048,-6.098801757185033,0.7850519469199491,-0.010999888914254876,-0.04599994982717872,0.07799997646448387,0.0,0.0,0.0,0.027522866123648626,-0.0011201124291488895,0.5953787331116089,-5.112876659007303e-07,1.272201271992342e-07,6.602879731230187e-07
1669909702348958487,17171,1669909702195309661,,-2.2516848188321967,-6.105301859686329,0.7967146594852318,-0.010999888914254876,-0.04599994982717872,0.07799997646448387,-3.4769415333190175e-71,6.740183038698272e-70,7.852334521795532e-69,0.02807705420554818,-0.0011896212169304476,0.6000724317891528,-5.112774351430009e-07,1.272037242717928e-07,6.61199799803495e-07
1669909702462096820,17172,1669909702260261687,,-2.250519169160044,-6.108281165662187,0.8063545786888447,-0.011000015955333488,-0.04599994973510949,0.07700007432232046,1.9699966156215127e-231,-1.5194357761714085e-230,-1.5629023636671461e-232,0.028276173591109455,-0.0013218072012275428,0.6025672073217017,-5.113013021808878e-07,1.272027264434545e-07,6.61691703988571e-07
1669909702832704704,17173,1669909702394024716,,-2.249318568252828,-6.114207563797926,0.8185839231592315,-0.012999948924367066,-0.04400001671453126,0.07799994288610372,1.9632468123622477e-44,3.737025005558333e-43,1.3141255494957017e-41,0.02843514378990264,-0.001508749207802751,0.605872185567403,-5.113595595530514e-07,1.2720822572419277e-07,6.622663926379113e-07
1669909702850487893,17174,1669909702522828841,,-2.2473100480473915,-6.120060201927287,0.8226714054511484,-0.012999948924367066,-0.04400001671453126,0.07799994288610372,0.0,0.0,0.0,0.02839962736095636,-0.0017175478742395,0.6099095156856471,-5.114297292700775e-07,1.2719520014730939e-07,6.630042021903604e-07
1669909702850509169,17175,1669909702582868077,,-2.246488587735996,-6.121900257543035,0.8281649947883415,-0.012000085046390163,-0.04200008746388182,0.0789999073273467,-1.0542219792095266e-77,-9.060545749607857e-78,-1.3029040471518566e-79,0.028415653181335543,-0.0018595334521886997,0.6115617544885108,-5.114465718720852e-07,1.2718618760780662e-07,6.632645343578023e-07
1669909702850881402,17176,1669909702734629001,,-2.2441340454641905,-6.12845328156387,0.8418190709128555,-0.012000085046390163,-0.04200008746388182,0.0789999073273467,0.0,0.0,0.0,0.028444105000541953,-0.002355155933514652,0.6162469453808423,-5.115055820039019e-07,1.2713843472729753e-07,6.640501371374306e-07
1669909702986658507,17177,1669909702783308019,,-2.244371308403947,-6.130712775066439,0.8477187260541788,-0.01399980392083306,-0.04100005542409927,0.07999987019351992,-3.725398186097541e-307,-4.1589476664143094e-307,-1.25111460669059e-309,0.028461360165346505,-0.002605262784959095,0.6183868938183714,-5.115344117702034e-07,1.2711334455937345e-07,6.644931003838765e-07
1669909703367925665,17178,1669909702926634793,,-2.242120751947631,-6.136727200862292,0.8521600805146131,-0.013000052435458754,-0.04099994911123804,0.07999997626726708,-4.453552120384975e-156,-2.807235461257671e-156,-2.327998353260483e-157,0.028499126237491623,-0.0031832265816742478,0.622847776148518,-5.116063428542426e-07,1.2705982854017555e-07,6.652755654860581e-07
1669909703386431926,17179,1669909703051204302,,-2.240313881479414,-6.142068030394303,0.8630693075993787,-0.013000052435458754,-0.04099994911123804,0.07999997626726708,-2.999092578232614e-154,-4.763279160562892e-155,2.807959095778099e-155,0.028279556763443736,-0.0036794001993296632,0.6268165141444726,-5.117709904540326e-07,1.270346101507673e-07,6.65997984269076e-07
1669909703388648692,17180,1669909703110537453,,-2.239447433890975,-6.144609486866959,0.8688588088364949,-0.013000052435458754,-0.04099994911123804,0.07999997626726708,0.0,0.0,0.0,0.028071129255021532,-0.003853387132856767,0.6283905218668089,-5.118551932504146e-07,1.2702566052772897e-07,6.662949790007876e-07
1669909703388652471,17181,1669909703149557937,,-2.2397648494568414,-6.145820353722435,0.872027819898509,-0.01399998637870236,-0.03900000838676554,0.08099994655453076,1.1945241503020495e-146,1.0443992509357244e-146,1.3046158620166817e-145,0.02796394692885329,-0.0039139030306429845,0.6290163494407963,-5.118841075249824e-07,1.270411783699511e-07,6.663204213187323e-07
1669909703435156076,17182,1669909703276987845,,-2.238141226691492,-6.151140818638236,0.8867803367145278,-0.01399998637870236,-0.03900000838676554,0.08099994655453076,0.0,0.0,0.0,0.026868416281722318,-0.0042205274271029936,0.633634719602659,-5.122290346731336e-07,1.2707969665656976e-07,6.672045573263698e-07
1669909703558658913,17183,1669909703350876317,,-2.2373497910067286,-6.153285934136271,0.8926842182058445,-0.013000016091724947,-0.036999948702208775,0.08099997627026737,5.435403721149301e-221,9.902598032192541e-219,1.6067645999210488e-216,0.02627558893797044,-0.004207381766558882,0.6351528984345833,-5.123807699201873e-07,1.271166703520035e-07,6.674261834141625e-07
1669909703827119034,17184,1669909703487552192,,-2.236689329665065,-6.157932904065068,0.897591415202016,-0.013999977555619275,-0.034000064108469105,0.0829998992463953,-7.494814967254662e-299,2.1828962255685444e-297,-9.292491338346399e-296,0.024466942041357242,-0.004033567551083195,0.6387022234158,-5.127894310281498e-07,1.2720511355225992e-07,6.680307966273386e-07
1669909703836534896,17185,1669909703629337284,,-2.235273003492992,-6.163237075187071,0.9107241540781991,-0.013999977555619275,-0.034000064108469105,0.0829998992463953,1.3151387076447416e-144,1.97745059928685e-143,1.7152495657191335e-141,0.022339038317110038,-0.0035914377566363953,0.6427896327700076,-5.131005955516648e-07,1.2732246470463723e-07,6.686762136660824e-07
1669909703901557371,17186,1669909703688984626,,-2.234124017643805,-6.165534249017451,0.9174905771658233,-0.013000136891843825,-0.03499982741440412,0.08299997641582874,3.98991705706632e-153,1.356677942409644e-153,-5.742604193728471e-155,0.021354862427575227,-0.0033171292896589932,0.6448762997376711,-5.133124001461871e-07,1.2741302310347776e-07,6.691440189465874e-07
1669909703992422533,17187,1669909703855978054,,-2.232197524427703,-6.171762693461897,0.9322764538352408,-0.013000136891843825,-0.03499982741440412,0.08299997641582874,-1.652945934823539e-220,-5.421387868409416e-221,-7.000490237363707e-220,0.0198931322705036,-0.002683300000317246,0.6493898639708906,-5.135026012995058e-07,1.275506227742242e-07,6.699380911243951e-07
1669909704359737722,17188,1669909703929302849,,-2.23201803557382,-6.174391667061316,0.9384932268206464,-0.013999931531308955,-0.034000032543731656,0.08299997660358024,0.0,0.0,0.0,0.01960936399897406,-0.0024474674169461252,0.6510856079383736,-5.135386201063009e-07,1.2760209202241783e-07,6.70279751553996e-07
1669909704389358916,17189,1669909704070237143,,-2.2305580250784343,-6.179593329108128,0.9456347498812588,-0.013999931531308955,-0.034000032543731656,0.08299997660358024,-7.927462729769126e-300,6.0491121015611683e-297,2.375049506438299e-296,0.0193819137873259,-0.0017802614041393383,0.6551749133767029,-5.135988248710735e-07,1.2777303833297026e-07,6.710746849671387e-07
1669909704389438340,17190,1669909704132205079,,-2.2301845476857554,-6.181515399637317,0.9507370300796749,-0.014000015639497917,-0.03299999074059853,0.08299997693183779,8.30537956476948e-146,5.603719099405997e-146,5.850547220315516e-144,0.01939297032092746,-0.0015434317243787632,0.656667154544321,-5.136030706586986e-07,1.2781519553879634e-07,6.713322587702789e-07
1669909704484183950,17191,1669909704297327432,,-2.2284408151940585,-6.186810424290609,0.9672462409056141,-0.013000126199364078,-0.032000058627580326,0.08399986642262726,0.0,0.0,0.0,0.019604704394946992,-0.0009839531339128627,0.6609382707317959,-5.136617982287871e-07,1.2794144308382411e-07,6.721595110801192e-07
1669909704590260310,17192,1669909704425347766,,-2.2273653757888177,-6.19091417899098,0.9779185741406364,-0.01300001551951402,-0.03100002845481697,0.0839999771183133,1.7877779172606837e-248,1.1441778670468376e-246,-7.151111669042735e-248,0.01932344312342238,-0.0007100951935186117,0.6635926810757979,-5.138481157272988e-07,1.2800152780233906e-07,6.72643084331633e-07
1669909704871089994,17193,1669909704530073332,,-2.226336077120318,-6.194444859924654,0.9845769091005533,-0.01300001551951402,-0.03100002845481697,0.0839999771183133,3.6234305985009667e-298,-1.8988999148002855e-296,5.963158629080805e-295,0.018603800015748462,-0.0004509884703001177,0.6661314345014002,-5.140625152959581e-07,1.280507763352127e-07,6.731186527133895e-07
1669909704900261323,17194,1669909704582468821,,-2.227069936921053,-6.19523342146115,0.9902822825794917,-0.013999966194973732,-0.02700014511516279,0.08499992776852801,-1.5683042156910963e-145,-1.250250427775453e-143,-1.540843247412444e-141,0.01817709790441313,-0.00034779746940039047,0.6674363435085056,-5.141635846096539e-07,1.280665608048557e-07,6.733402551834385e-07
1669909704900375644,17195,1669909704712558411,,-2.2262651919197367,-6.199789238438856,0.994375763550729,-0.014999933432384,-0.027999865617031758,0.08499997706243746,-4.175760516324408e-78,1.0850958691574782e-79,-1.8668520445912585e-80,0.017465986703587788,-0.00023398277069830442,0.6701018597300017,-5.142798912722525e-07,1.2808761123760208e-07,6.73813491014662e-07
1669909704935383960,17196,1669909704826931789,,-2.2255149828552985,-6.203497340099986,1.0042341176887402,-0.014999933432384,-0.027999865617031758,0.08499997706243746,0.0,0.0,0.0,0.01723293221471245,-0.00023904626818094243,0.6726836108550671,-5.142815507808319e-07,1.2809422479261524e-07,6.74323980086087e-07
1669909704967463187,17197,1669909704870983212,,-2.2252236862709673,-6.204924800446718,1.009292831098604,-0.014999933432384,-0.027999865617031758,0.08499997706243746,4.128727202471357e-68,-4.363423346047842e-67,9.490846335366513e-65,0.017284036804127823,-0.0002588640496359318,0.6734503625577126,-5.142781867158673e-07,1.280945885970078e-07,6.744756104597452e-07
1669909705125879496,17198,1669909704905104473,,-2.2252233192733053,-6.205746606934579,1.0122242846880867,-0.015000015489651002,-0.027000050850026013,0.08599987391949382,0.0,0.0,0.0,0.017443914106646474,-0.0003292171519948539,0.674800426465314,-5.142443718675735e-07,1.280839108624981e-07,6.747259881888985e-07
1669909705400412358,17199,1669909705061765374,,-2.224267601359635,-6.210705342537215,1.0284730420402608,-0.015000015489651002,-0.027000050850026013,0.08599987391949382,2.560743858200004e-67,1.552659892120634e-66,-2.0666686692195144e-64,0.018119958954990523,-0.0005913969849906664,0.6776985294477811,-5.141501841274656e-07,1.2804232171192262e-07,6.752983013654325e-07
1669909705425715843,17200,1669909705128300546,,-2.223787134839579,-6.21219317518271,1.0341622521495133,-0.014000060177621341,-0.02599999230259905,0.08599997724164017,0.0,0.0,0.0,0.018671652998932586,-0.0008293526991298705,0.6794084505418478,-5.140804794307807e-07,1.2801839734169178e-07,6.755997088020421e-07
1669909705488944346,17201,1669909705263596152,,-2.223181363711953,-6.215970951187156,1.0486108655626079,-0.01400001540318822,-0.02500003468122997,0.08699989005941944,1.052362985705232e-66,-8.921959178355399e-66,8.465631838937284e-64,0.019561585476031595,-0.0012494573930474928,0.6816310397188374,-5.139928018815139e-07,1.2795586543106494e-07,6.760105388201111e-07
1669909705643529556,17202,1669909705429233853,,-2.22248170578869,-6.220538882511999,1.0643053717450748,-0.014000015423913473,-0.02400003502253001,0.08699997724741076,0.0,0.0,0.0,0.02047256690034871,-0.0017858350959336633,0.684910335457305,-5.140259635922094e-07,1.2793360527150964e-07,6.766419228954122e-07
1669909705935574427,17203,1669909705583746261,,-2.222212376106159,-6.224321644244212,1.0705754251258857,-0.014000015485042261,-0.022000131345513603,0.08799988510824311,0.0,0.0,0.0,0.020665134252995543,-0.002107861151923629,0.6877247494768532,-5.140783752765426e-07,1.279237143909763e-07,6.771648203204646e-07
1669909705978346703,17204,1669909705741181984,,-2.2217733656362864,-6.227653214453544,1.0868319133395359,-0.013000064070830021,-0.020000044143573016,0.08899992853934666,4.624393850183378e-141,1.0964745918788912e-139,8.760209339671903e-141,0.021000286868755325,-0.002248405216240812,0.6901201553183576,-5.140860662280874e-07,1.2797207627363859e-07,6.776213332638424e-07
1669909706145756185,17205,1669909705920217252,,-2.221772652885742,-6.232119433352297,1.103649817208159,-0.014000015622370831,-0.01899994700626744,0.08999997696240246,-1.4220326592114037e-298,-1.4803851775694957e-297,-6.8432439266665e-295,0.021548890517124164,-0.0018449125154251789,0.6929906502973715,-5.140404583582574e-07,1.2812017785510453e-07,6.781179002969103e-07
1669909706479759432,17206,1669909706088645104,,-2.2209884503712427,-6.236061552529,1.1208934823080388,-0.013000090253521517,-0.018999946884921633,0.0899999769315697,9.666956746039134e-224,5.08876132642708e-221,5.59173184348596e-219,0.022476303358951455,-0.000977910637644186,0.695456287049355,-5.139613653144539e-07,1.2834844298546142e-07,6.786346472948467e-07
1669909706490960810,17207,1669909706266309674,,-2.2209916602630964,-6.239673493712129,1.1388595571244198,-0.013000015677884651,-0.01699994680765297,0.09099997688053876,7.486916783805256e-110,4.0912684581373976e-107,5.665274313250494e-106,0.023597912028048285,0.00018673084851172916,0.6973610987894414,-5.138370942833456e-07,1.2860036629821267e-07,6.790308901860235e-07
1669909706641804482,17208,1669909706412850319,,-2.2205789638684377,-6.242359455437827,1.1531124874905767,-0.012000076674308973,-0.016000007714197052,0.09099997681115438,-1.1985091468012028e-94,-1.1985091468012028e-94,-2.996272867003007e-95,0.024503826468606604,0.0013175402804410652,0.6986767618520933,-5.137928763278849e-07,1.2884479943038578e-07,6.793018303055786e-07
1669909707152409884,17209,1669909706541269737,,-2.220169292866209,-6.244482935356469,1.156822066639966,-0.011000141209555198,-0.015000072170528851,0.09199985129978624,0.0,0.0,0.0,0.024864620037167384,0.002828775221020763,0.6999307344908843,-5.139092601018363e-07,1.2915291276327467e-07,6.795785173620413e-07
1669909707190378384,17210,1669909706706025949,,-2.2202931582232295,-6.2470678505656085,1.1726317194586457,-0.011000015910000426,-0.013000220900407115,0.09299983949643834,-6.798817023290858e-296,2.211457325929791e-297,-7.24711040031563e-295,0.024872201309639408,0.00448513987465482,0.7012820191789615,-5.139614209994045e-07,1.293718502557383e-07,6.798778584296913e-07
1669909707202885435,17211,1669909706870859700,,-2.2199409209979892,-6.249410773503828,1.1893305123620757,-0.010000090429920718,-0.01200002128378872,0.09200005082588827,-4.46972670026235e-66,1.467049462867369e-66,-3.9655744938234965e-64,0.025069809732951143,0.005422231934000266,0.7023058663305601,-5.139923153345183e-07,1.2952916185119918e-07,6.801566807795965e-07
1669909707712179958,17212,1669909707068184707,,-2.220720471567374,-6.253063053991048,1.209069836192347,-0.01199937059124426,-0.011000269702951275,0.09199997630661304,2.0559270309027368e-66,9.631143203771323e-66,3.14809052710092e-64,0.02593837882508332,0.006177684777656012,0.7036729262543417,-5.138557468652939e-07,1.296093941450871e-07,6.805007180878439e-07
1669909707745710478,17213,1669909707236636554,,-2.2203253885756364,-6.255693833429474,1.2263024471564201,-0.011000278842327915,-0.01099994710527488,0.09199997623535487,-2.3861795796839726e-298,-1.2622935643370607e-296,4.124294889945344e-297,0.026831470163134696,0.006311177744052543,0.7047391754060293,-5.138298658542648e-07,1.296026712506696e-07,6.807837803245981e-07
1669909707746241384,17214,1669909707383737702,,-2.2208827219600384,-6.257405004284119,1.2406241723913178,-0.011000016157716445,-0.009000026577480311,0.09199997618835645,0.0,0.0,0.0,0.026991970065001425,0.00601669972754415,0.7056102111853058,-5.139775555655124e-07,1.29550706616502e-07,6.809647741771279e-07
1669909707762582745,17215,1669909707543141450,,-2.2220454561405716,-6.258609138829899,1.2471241946750735,-0.011000016263367877,-0.005000213669157058,0.09199997601715336,-1.0119448748608625e-282,-9.847258164969155e-282,-5.349731367836585e-279,0.02655051012675891,0.005638529504391698,0.7062089718991942,-5.141711741982052e-07,1.2948192863384582e-07,6.811478081580057e-07
1669909708243079856,17216,1669909707714091054,,-2.2225897184006773,-6.260738826484201,1.2717594647609471,-0.011000016305258344,-0.004999947079233216,0.0919999759553794,-2.2864800673622563e-219,-2.3876050479509132e-219,-8.723904692906858e-221,0.025605172728731418,0.004788909651933793,0.7068790238795408,-5.143624020844312e-07,1.2936448787808153e-07,6.813290891118125e-07
1669909708243122000,17217,1669909707847945204,,-2.2232818568582733,-6.26211281921431,1.2774525406750028,-0.011000016290359443,-0.00399994700799849,0.09199997597735013,5.672427484158606e-78,5.686734407008914e-78,3.227417278043719e-79,0.024988021820492534,0.003937085356108483,0.7074516289697996,-5.145757653938872e-07,1.2921784280344577e-07,6.815477280555621e-07
1669909708246521621,17218,1669909707983836542,,-2.223545228024885,-6.263462738059304,1.290567524825487,-0.01000024434670834,-0.003999946939060079,0.09199997607483583,0.0,0.0,0.0,0.024284012692188384,0.0032933113039739226,0.7078641648316726,-5.148184499655943e-07,1.2918281573810725e-07,6.817072619355072e-07
1669909708258042182,17219,1669909708117148101,,-2.2239894300872844,-6.2649333205392495,1.3035314513544394,-0.01000024434670834,-0.003999946939060079,0.09199997607483583,-4.22006958091155e-145,-2.2816885147146063e-143,-9.29512033947243e-143,0.023729172479747263,0.0031347733324711413,0.7080562253010161,-5.149597447664872e-07,1.2920616548540196e-07,6.817847395852075e-07
1669909708749187115,17220,1669909708203734796,,-2.2251492154569252,-6.2641249080960435,1.3124413380943027,-0.009000707220590667,-2.7104390136400637e-06,0.09399859436987959,0.0,0.0,0.0,0.022806027031395004,0.003084774624792175,0.7083417627138715,-5.151558023625405e-07,1.2924341761547647e-07,6.819071489861596e-07
1669909708770649392,17221,1669909708359929770,,-2.225688161760969,-6.265583476484899,1.3282922933669459,-0.0090000162849356,-0.0009996739469336502,0.09499970232424933,1.3049490843582142e-66,3.230389091277373e-66,2.907829454043756e-65,0.022273348689973105,0.0032900270147280253,0.7087968337022943,-5.151968712323596e-07,1.2932811650376057e-07,6.821005014678717e-07
1669909708770675680,17222,1669909708501788731,,-2.2254925640907723,-6.267075564843354,1.3422390457753275,-0.008000288134941523,-0.002999402416980548,0.09499997628924896,0.0,0.0,0.0,0.022319369546726975,0.0034850940287647347,0.7092628442204365,-5.152018476599616e-07,1.2938489358326707e-07,6.822453414758478e-07
1669909709276664335,17223,1669909708632819216,,-2.2260691888909756,-6.267943493109118,1.355806760645653,-0.008000015994442842,-0.00200011134886846,0.09499997647982691,-1.9113353711810825e-154,-2.1762887015523793e-154,-3.871845191639646e-155,0.02276332616824206,0.003863072924145783,0.7100245023690821,-5.151857263923304e-07,1.2948463238861992e-07,6.824819050368229e-07
1669909709335076156,17224,1669909708799842827,,-2.2265727224468814,-6.26930866736072,1.372180027435359,-0.008000015928509928,-0.0019999466569428316,0.0959999765109531,-5.372429401774358e-220,-4.857319399607593e-219,6.313679820949355e-218,0.023145759608789618,0.004265457626441815,0.7106863797120742,-5.152320032786741e-07,1.295708065184771e-07,6.826802951967252e-07
1669909709335170182,17225,1669909708927131780,,-2.2274479151137996,-6.269768134331087,1.3847493090900278,-0.008000015948569004,-1.6070340900808423e-06,0.09699914628699519,-2.4011647384389165e-231,-6.241300737706732e-231,0.0,0.023371037871395828,0.004505212839392314,0.7111901875621349,-5.152492457778305e-07,1.296339029826949e-07,6.828449782053685e-07
