%time,field.header.seq,field.header.stamp,field.header.frame_id,field.position.x,field.position.y,field.position.z,field.velocity.x,field.velocity.y,field.velocity.z,field.acceleration.x,field.acceleration.y,field.acceleration.z,field.orientation.x,field.orientation.y,field.orientation.z,field.angular_velocity.x,field.angular_velocity.y,field.angular_velocity.z
1669909328879895785,13240,1669909328829540029,,-0.9613888282110916,-3.891528007186743,1.2426959297904936,-0.015000012328458535,-0.00699996508662187,0.06799998181978466,0.0,0.0,0.0,0.005970262345513788,0.0004656209570583769,0.5242034067330401,-3.5934173906347495e-07,1.0849521654097414e-07,4.6239024229775583e-07
1669909328981384679,13241,1669909328855056868,,-0.9611254431708207,-3.8920200066212596,1.2457296507178202,-0.014000104350842974,-0.0079998728859638,0.06899988982326591,-1.932953770921984e-70,-1.558237146360594e-69,-5.030840178277298e-67,0.006379089878565836,0.00034219238219179715,0.5260657481827806,-3.592783714201527e-07,1.0850136592347938e-07,4.627033020232303e-07
1669909329033470937,13242,1669909328962038402,,-0.9619640982353842,-3.89355295575318,1.2493985517548891,-0.014000104350842974,-0.0079998728859638,0.06899988982326591,-1.4772765788457177e-126,1.8909140209225187e-124,4.840739893561648e-122,0.007255822875512408,0.00019370643162908152,0.5292212234018017,-3.5913596363171833e-07,1.0851212916672249e-07,4.6328307122607047e-07
1669909329072673623,13243,1669909329007192847,,-0.9623167795271037,-3.8942016333839122,1.252511783575592,-0.014000104350842974,-0.0079998728859638,0.06899988982326591,-3.2645437393141754e-78,-5.118718312759008e-78,-6.6115362599912006e-80,0.007925789537488015,0.00014510304787407335,0.5311418295550485,-3.5902565216085977e-07,1.0853400921640246e-07,4.6361227671434715e-07
1669909329424836660,13244,1669909329045169935,,-0.9626092016588353,-3.894752434738958,1.2576781441560698,-0.014000012228606416,-0.007999964735324251,0.06999998196703203,-8.105876426737135e-78,-4.526028220622881e-78,-3.069311713299105e-81,0.007925653496407392,0.000145303502815608,0.5311401146462931,-3.5902711442283426e-07,1.085348091861097e-07,4.6360294628256473e-07
1669909329473014668,13245,1669909329147863232,,-0.9634010126721911,-3.8962396962390313,1.267702144077404,-0.014000012228606416,-0.007999964735324251,0.06999998196703203,0.0,0.0,0.0,0.009081898525511889,0.00023787421752885507,0.5342001028689918,-3.5891606276625893e-07,1.0861249370681687e-07,4.6408068149000887e-07
1669909329473065214,13246,1669909329198531713,,-0.9634672293200628,-3.8967948285210934,1.2713096829838624,-0.013000112760178513,-0.007999964580622082,0.07199978092278632,-3.063078204044949e-220,-7.029102808630191e-220,-6.649848641044825e-217,0.009654595855774772,0.00038796275806873837,0.5358592262942992,-3.5888105404020527e-07,1.0865913591733184e-07,4.6433374910382996e-07
1669909329473135707,13247,1669909329294414546,,-0.9641105331227134,-3.898147395767273,1.2809913907081678,-0.013000112760178513,-0.007999964580622082,0.07199978092278632,-1.0508209054130332e-155,-8.724727780153754e-156,-1.0657659093618601e-157,0.010546766691533094,0.000844272050423811,0.5390552712285377,-3.5885485226184365e-07,1.088037338154135e-07,4.6486580714578474e-07
1669909329473197238,13248,1669909329335876197,,-0.9643846439162979,-3.898734423396059,1.283973411670229,-0.013000112760178513,-0.007999964580622082,0.07199978092278632,0.0,0.0,0.0,0.010610978525434689,0.000905668915150315,0.5393646994635937,-3.588567194161686e-07,1.088203761965048e-07,4.649187013309787e-07
1669909329473287619,13249,1669909329353384101,,-0.9646896137712617,-3.898662876498676,1.2782842687913991,-0.013000012331443008,-0.0070000663041718345,0.07299987994765376,0.0,0.0,0.0,0.010836800295159321,0.0011632958772658242,0.5406019691325827,-3.5886424362893193e-07,1.0887880438610574e-07,4.651137545021835e-07
1669909329528367490,13250,1669909329462474663,,-0.9654583522503106,-3.900117217352863,1.2887225600768335,-0.013000012331443008,-0.0070000663041718345,0.07299987994765376,3.5854885723607657e-66,6.156267842769675e-66,7.641150569805741e-63,0.011212646989877229,0.0016636355961630045,0.5427701660635975,-3.5883074183042367e-07,1.0898520641215547e-07,4.6547555149622585e-07
1669909329634954206,13251,1669909329507838203,,-0.9655375694756824,-3.899800785401533,1.2921144958161996,-0.011000202671028846,-0.005000154549378013,0.07499979141612352,0.0,0.0,0.0,0.011452814170894499,0.0019615071319325494,0.5440163382857648,-3.5881415468498877e-07,1.0903329270022033e-07,4.656775951565229e-07
1669909329950134565,13252,1669909329616004607,,-0.9662104733720072,-3.9009517588188136,1.3018410854393518,-0.011000202671028846,-0.005000154549378013,0.07499979141612352,-2.3952588077334264e-299,-1.3567590676011962e-297,-1.2448257734838964e-296,0.012097685431271543,0.002726286008567058,0.5476173294499027,-3.5880294225726994e-07,1.0916405419987848e-07,4.662858066572661e-07
1669909329968455930,13253,1669909329661379667,,-0.9666193022790824,-3.9019598163053577,1.299495975696782,-0.011999907733708287,-0.005999859488353933,0.07499998155054712,6.187208651324944e-67,1.0190645547887536e-65,1.8839836322725136e-63,0.012176152611187874,0.002830236890813964,0.5481617626286841,-3.588074539453026e-07,1.091811771447737e-07,4.6636786302797754e-07
1669909329968469385,13254,1669909329761690389,,-0.967264961930203,-3.903168546921005,1.3087176148542088,-0.011999907733708287,-0.005999859488353933,0.07499998155054712,0.0,0.0,0.0,0.012578774525985992,0.0032848227991078005,0.550884340158257,-3.587915688978973e-07,1.0926035199024559e-07,4.668280512299763e-07
1669909329968512180,13255,1669909329800763673,,-0.9677083963457569,-3.903322375659727,1.3116468758433968,-0.012000012558904281,-0.005000068055341838,0.07499998146390778,-6.833834512758386e-299,-4.505973994852925e-298,-1.5252956456268384e-295,0.012817427260003456,0.003477129706453752,0.5525200302594939,-3.58778203893406e-07,1.092783203008229e-07,4.67101892750925e-07
1669909330046754389,13256,1669909329926348602,,-0.9682732050158899,-3.9045525981933147,1.3217214127178405,-0.011000012630267234,-0.0049999641466876455,0.07499998137472112,0.0,0.0,0.0,0.013106970016352193,0.0036354011401691366,0.5553564242329223,-3.588295482694749e-07,1.0929432476655926e-07,4.6760753438532825e-07
1669909330088575890,13257,1669909330032065421,,-0.9689031519238783,-3.90568813868704,1.3273028659740098,-0.011000012630267234,-0.0049999641466876455,0.07499998137472112,-9.248815606955535e-216,-2.0248822784836132e-216,-1.2203474951328473e-215,0.01327161331752258,0.0036381593260639278,0.5578363019537687,-3.5885745081884797e-07,1.0930600925304014e-07,4.6801115057237797e-07
1669909330123627903,13258,1669909330077170552,,-0.9691709290668897,-3.90617332391817,1.3306842694251775,-0.011000012630267234,-0.0049999641466876455,0.07499998137472112,7.106097734094915e-156,5.048853395476246e-158,2.468626190113576e-158,0.013316597073480096,0.0035970354205581145,0.5591868520420249,-3.5888006253476727e-07,1.0930651835045442e-07,4.682311583485301e-07
1669909330154701323,13259,1669909330103206832,,-0.9693249073987936,-3.9064539279915866,1.3326360995529118,-0.011000012630267234,-0.0049999641466876455,0.07499998137472112,7.106097734094915e-156,5.048853395476246e-158,2.468626190113576e-158,0.013316587773568145,0.00359703810390144,0.5591868642699076,-3.5888006253476727e-07,1.0930651835045442e-07,4.682311583485301e-07
1669909330484503857,13260,1669909330132429937,,-0.9694943423660786,-3.9067720493193168,1.3364717246182622,-0.011000012687728633,-0.004999964069635554,0.07599998128998542,-2.1561705555078818e-66,-5.503345356066364e-66,-3.897020745718629e-64,0.013344854426810215,0.0035696331579888607,0.5602325831633728,-3.589039211978873e-07,1.0931252417735884e-07,4.684173647721397e-07
1669909330502957533,13261,1669909330235825207,,-0.9701034017356377,-3.907888494661889,1.346783949505549,-0.011000012687728633,-0.004999964069635554,0.07599998128998542,2.4778661243001366e-44,9.421255429031945e-44,7.070560653876404e-42,0.013318920164392622,0.003490356503544234,0.5623485794810144,-3.5896497683364054e-07,1.093048150615807e-07,4.6877400258281213e-07
1669909330502963988,13262,1669909330265535944,,-0.9702781811993555,-3.9082094674298253,1.349040911062731,-0.011000012718281086,-0.004999963993428868,0.07599998124493111,-2.1248434762729598e-151,0.0,0.0,0.01332196918112416,0.00344788247281258,0.5629270513397451,-3.5896003687024356e-07,1.0930505516804925e-07,4.688557061697565e-07
1669909330502967485,13263,1669909330358924838,,-0.9708264109542335,-3.9092197902382395,1.3583978701260289,-0.011000012718281086,-0.004999963993428868,0.07599998124493111,0.0,0.0,0.0,0.013408072356055456,0.003281629917925244,0.565061261842402,-3.58961574276963e-07,1.0929215641550129e-07,4.691969985081988e-07
1669909330502994940,13264,1669909330402602401,,-0.9710822250919988,-3.90969325965808,1.361715696519696,-0.011000012718281086,-0.004999963993428868,0.07599998124493111,0.0,0.0,0.0,0.013453469590915645,0.00323544119722996,0.5655869413856252,-3.5896016093872694e-07,1.092894530628202e-07,4.692771834315739e-07
1669909330503040764,13265,1669909330429310799,,-0.9712386837582423,-3.9099827073441666,1.3637445200156355,-0.011000012718281086,-0.004999963993428868,0.07599998124493111,0.0,0.0,0.0,0.013591728012654514,0.003106845363884503,0.567059324907591,-3.5897319997017063e-07,1.0928076593892283e-07,4.695153975530451e-07
1669909330602307975,13266,1669909330460896574,,-0.9710871831034023,-3.9101208623300487,1.3591079055616606,-0.010000325083480496,-0.00499996391081386,0.07699966887277347,0.0,0.0,0.0,0.013590078691333218,0.003104085394433298,0.5671055577671353,-3.58986561196094e-07,1.0927659411320629e-07,4.695597992424716e-07
1669909330994340778,13267,1669909330585664771,,-0.9717049962229162,-3.9114160453888065,1.370023052035606,-0.010000012738261222,-0.004999963820275172,0.07799998121546732,0.0,0.0,0.0,0.013846798643770697,0.002616009113109996,0.5707448771588801,-3.5902661913844465e-07,1.092192770962076e-07,4.70181430079124e-07
1669909331049050124,13268,1669909330688267568,,-0.9722137183499199,-3.9124842993542073,1.380006830894912,-0.010000012738261222,-0.004999963820275172,0.07799998121546732,0.0,0.0,8.36561132014058e-122,0.014051873011299065,0.0023991312549096477,0.5722339986146707,-3.589947883345655e-07,1.0920004157156099e-07,4.7045943680269565e-07
1669909331049072583,13269,1669909330724074793,,-0.9721992611577064,-3.913158112152261,1.382893413318612,-0.010000012738645675,-0.005999963715650405,0.07799998121490039,-9.316362230118352e-79,3.310283010367059e-79,1.534519485322775e-79,0.014228272554515087,0.0022674875254065086,0.5731462873730049,-3.589745755998339e-07,1.0918328054391778e-07,4.7067061808448527e-07
1669909331049092730,13270,1669909330825233702,,-0.9726437553499407,-3.914302245844375,1.3929215617823134,-0.010000012738645675,-0.005999963715650405,0.07799998121490039,0.0,0.0,0.0,0.014818695478782118,0.0019202565586908804,0.5754344152941595,-3.5890414509910605e-07,1.0914390590653145e-07,4.710802905956135e-07
1669909331049139176,13271,1669909330864431535,,-0.9726243029018198,-3.91504251657734,1.3981761564613118,-0.010000012750516428,-0.006999963618659236,0.07899998119739512,0.0,0.0,0.0,0.015050089806710076,0.001811865878492469,0.5761648669317196,-3.5887617496084293e-07,1.0914182098544278e-07,4.712052292515198e-07
1669909331054120961,13272,1669909330973381036,,-0.9730379054429882,-3.9163774127361393,1.400162048177821,-0.010000012750516428,-0.006999963618659236,0.07899998119739512,-1.7402134430444206e-143,-4.268186753782605e-139,-8.153143700393985e-140,0.015597831010079943,0.0015754822872011687,0.5778863238622876,-3.5883368904645746e-07,1.0911470857512001e-07,4.715280598928037e-07
1669909331054252140,13273,1669909331007375401,,-0.9731662986565645,-3.916795148910086,1.4028441091186918,-0.010000012750516428,-0.006999963618659236,0.07899998119739512,-1.525715353637852e-222,-1.936894700278567e-220,1.5885448650233327e-218,0.01586064409929655,0.0014523596816786721,0.5788325954962801,-3.5883253508816165e-07,1.0911767948362623e-07,4.716942356209752e-07
1669909331160446624,13274,1669909331032884175,,-0.9728449706214504,-3.9164091763946676,1.404921837026577,-0.008001284493464276,-0.006000599369622075,0.07999934531739239,0.0,0.0,0.0,0.016075649078063137,0.0013585301463177046,0.5801043982777276,-3.5888952757219695e-07,1.0913987400628856e-07,4.7192987489433845e-07
1669909331204737165,13275,1669909331135491964,,-0.9731123566732905,-3.9174785803058283,1.4151263675814791,-0.008001284493464276,-0.006000599369622075,0.07999934531739239,-2.5516019074809773e-203,6.532100883151302e-201,1.6722178260867333e-198,0.016105222338762104,0.0013379183905932734,0.5811764496366436,-3.5896904817118026e-07,1.0916840486273768e-07,4.7213968574183147e-07
1669909331525397450,13276,1669909331181887536,,-0.9732327437400897,-3.9179622775879275,1.4196031527941362,-0.008001284493464276,-0.006000599369622075,0.07999934531739239,1.3817869688151111e-76,1.105429575052089e-75,7.074749280333369e-74,0.015932730804230744,0.001377824407187589,0.5822493376448268,-3.590897908719807e-07,1.0920476196673933e-07,4.7233451313884734e-07
1669909331533081580,13277,1669909331230025215,,-0.9732211191642445,-3.917840338459689,1.4233796548328792,-0.007000012777187232,-0.004999963423534602,0.08099998115806491,0.0,0.0,0.0,0.01551773106965193,0.0015010081286277455,0.5834715499026544,-3.592352941321237e-07,1.0925935273765755e-07,4.72484987193401e-07
1669909331533493884,13278,1669909331357417369,,-0.9736180122480196,-3.91803927061291,1.427685701740417,-0.0060000128176433505,-0.002999963323141028,0.08299998109840612,-9.408142505562838e-79,-1.6882080790388542e-78,1.075856790048722e-79,0.01439286662446726,0.0018671200818083378,0.5857489399868143,-3.5953613976656045e-07,1.0938368197856181e-07,4.7286212906028705e-07
1669909331564007287,13279,1669909331498728222,,-0.9739785597483454,-3.9189846984397403,1.4403862488737391,-0.0060000128176433505,-0.002999963323141028,0.08299998109840612,1.0863250599890093e-67,-4.6996558951559226e-67,-1.8662502095800844e-64,0.013267021008363855,0.002439554089210816,0.5881718414123327,-3.5973618261387774e-07,1.0950783910508313e-07,4.732843505356397e-07
1669909331696921145,13280,1669909331540919784,,-0.9736182747320309,-3.919968815428396,1.4443979994372813,-0.006000012866362739,-0.004999963218882576,0.08299998102656186,-7.973723174592831e-156,-1.4512227199809394e-156,-3.3190599802323325e-158,0.012846290246757874,0.0026994018367378914,0.5891756510770154,-3.598297266906458e-07,1.0957902504180395e-07,4.734901490112971e-07
1669909332061016221,13281,1669909331680772189,,-0.9735865686238719,-3.9214623117439236,1.4587216713532742,-0.006000012849258513,-0.0059999631686873545,0.08299998105178469,0.0,0.0,0.0,0.012012756397995261,0.003674625454790359,0.5926950771448514,-3.5993483153115845e-07,1.097741539480633e-07,4.741296481875112e-07
1669909332071188684,13282,1669909331791241259,,-0.9731519681164775,-3.9225605654138684,1.469497167328415,-0.005000039316063563,-0.0069999365944621375,0.08399995461309984,-1.4955966574751722e-145,3.1326735264795025e-145,-1.4609801320099741e-143,0.011813499881480283,0.004312651792334421,0.595193170540405,-3.599946173611173e-07,1.0988186787620635e-07,4.745696504849613e-07
1669909332071206875,13283,1669909331890010841,,-0.973087958484138,-3.9234704234771196,1.470194285721192,-0.005000039316063563,-0.0069999365944621375,0.08399995461309984,0.0,0.0,0.0,0.011627654405115706,0.00484440539018216,0.5978168451064612,-3.600704989688731e-07,1.0997618675632467e-07,4.7504333577457666e-07
1669909332071224033,13284,1669909331926321347,,-0.9730630207916375,-3.9238038464198195,1.473242028542798,-0.005000039316063563,-0.0069999365944621375,0.08399995461309984,1.5332636641585854e-156,1.273657324957724e-156,9.834670469055132e-159,0.011595848863555247,0.004938158932924708,0.598353222642352,-3.600923202968939e-07,1.0999430045870674e-07,4.7513343135142317e-07
1669909332071242265,13285,1669909331943424245,,-0.9732625203661351,-3.9236496283864915,1.474678227595686,-0.005000012744390461,-0.0059999897077281095,0.08399998120676419,1.96158089408983e-310,9.27062531279303e-310,2.935506210161e-311,0.011524163414785349,0.0050986962126060575,0.5994177854970886,-3.601182407138839e-07,1.0999790020747922e-07,4.7529864540193427e-07
1669909332105167928,13286,1669909332050197354,,-0.9732455521328025,-3.924539071725795,1.4844914421078506,-0.005000012744390461,-0.0059999897077281095,0.08399998120676419,-8.157617341508278e-155,5.791645304229066e-156,-3.213792296732792e-157,0.011357983542744421,0.005303296781718814,0.6017100807403857,-3.601920430935401e-07,1.1001401721013087e-07,4.7570262291842304e-07
1669909332143056929,13287,1669909332083505712,,-0.9732395469905102,-3.924815936314701,1.4877083827534967,-0.005000012744390461,-0.0059999897077281095,0.08399998120676419,-6.546338090498884e-231,-3.532444070473661e-232,-1.4759125810416657e-232,0.011307991250788518,0.005329650941549247,0.6022511316455876,-3.602204301963235e-07,1.1001627258363724e-07,4.7579508594834415e-07
1669909332223694906,13288,1669909332099205492,,-0.9730388530685925,-3.9252387628499448,1.4890254267361844,-0.005000012727667673,-0.0069999358344335,0.08399998123108915,-2.342367889335582e-147,-2.4360412810666034e-148,8.142187420012883e-144,0.011177647632733212,0.005335815716914993,0.6033102200352296,-3.6027323420043776e-07,1.0999719116002469e-07,4.759555948851387e-07
1669909332267304265,13289,1669909332202944261,,-0.9729604027545729,-3.926184520846516,1.4991628597543503,-0.005000012727667673,-0.0069999358344335,0.08399998123108915,-6.010343058693209e-81,9.93597379517322e-81,2.002337073873398e-82,0.010805184018060743,0.005271388811715738,0.6057234885573397,-3.604383569957504e-07,1.0999961543508415e-07,4.764133785215642e-07
1669909332515004819,13290,1669909332233768794,,-0.9729366874140175,-3.9264659319435276,1.5017502878807747,-0.005000012727667673,-0.0069999358344335,0.08399998123108915,1.5894200012066593e-77,3.6654204329123514e-78,1.0114538621032368e-80,0.010152739875234573,0.005302782290952379,0.606820896639725,-3.608969032155478e-07,1.1006251797463773e-07,4.766193675623723e-07
1669909332515007669,13291,1669909332285106737,,-0.9731351541570639,-3.926588302073149,1.5079657397839574,-0.005000012727754951,-0.006000022316908337,0.08399998123096045,-4.916759631868915e-144,7.527369065989027e-145,-7.604090713114826e-143,0.008005871161147482,0.005527391207374777,0.6084158129168902,-3.616573274190121e-07,1.1014203741683439e-07,4.768806921522981e-07
1669909332550117629,13292,1669909332428540986,,-0.9700561567876166,-3.920874676431138,1.511863328103542,0.013999987279832378,0.005000037125441666,0.04699998124214913,-4.475971777637819e-185,-3.132316725297665e-185,1.8181381523894632e-183,0.0016693688874251933,0.0058973242236177725,0.6113884934101002,-3.63181420537609e-07,1.1017488147973973e-07,4.773931337727779e-07
1669909332597461248,13293,1669909332528637939,,-0.9691759944087183,-3.919641129882545,1.5124321249240438,0.013999987279832378,0.005000037125441666,0.04699998124214913,2.070105401319524e-171,3.312168642111238e-170,2.587631751649405e-172,-0.0060862114011790425,0.006046590640909955,0.61464599971438,-3.646757055871988e-07,1.1020776271579088e-07,4.780648574625781e-07
1669909332612353738,13294,1669909332571115783,,-0.968808436690294,-3.9191096579602847,1.5093402923310246,0.013999987279832378,0.005000037125441666,0.04699998124214913,7.423225589292187e-67,-1.337905387672231e-66,1.1477048656281856e-64,-0.010285741265903425,0.00618468275118822,0.6165241014983955,-3.654714132011797e-07,1.1026940141942907e-07,4.784491362046109e-07
1669909332712076090,13295,1669909332594919669,,-0.9711478314946439,-3.920972356352335,1.5099948234739835,0.004999987308467967,0.004000037225636442,0.0019999812843767284,-5.4587475603687196e-67,4.224857207834673e-66,3.115997101464736e-64,-0.010282907081215598,0.006184739639662595,0.6165157333275744,-3.653910564011952e-07,1.1026103707781811e-07,4.784031646821556e-07
1669909332758763692,13296,1669909332694694532,,-0.9709727391791371,-3.9203553025084164,1.5013371350595373,0.004999987308467967,0.004000037225636442,0.0019999812843767284,0.0,0.0,0.0,-0.018707786099035673,0.006815975376815331,0.6207090671020037,-3.668339069502939e-07,1.1044450292084484e-07,4.79252808677166e-07
1669909333054336180,13297,1669909332741689612,,-0.9712796901045846,-3.9208686402784902,1.4997083000583065,0.002999987572358854,0.0030000372107399425,-0.03000001832647542,0.0,0.0,0.0,-0.02329424949284231,0.00743255043628821,0.6234586962812525,-3.673498606340774e-07,1.105995198380053e-07,4.797556533932736e-07
1669909333068673101,13298,1669909332846192214,,-0.9711837591638309,-3.9205053941312307,1.4984816010229116,0.002999987572358854,0.0030000372107399425,-0.03000001832647542,0.0,0.0,0.0,-0.029718793896536866,0.008921257055149567,0.6288147953496672,-3.681515109177302e-07,1.1090765858386498e-07,4.808021376118732e-07
1669909333068702828,13299,1669909332884237432,,-0.9711468701389906,-3.9203793934645095,1.4910068821326548,0.002999987572358854,0.0030000372107399425,-0.03000001832647542,0.0,0.0,0.0,-0.029718807741007325,0.008921261816357884,0.6288148135092442,-3.681515109177302e-07,1.1090765858386498e-07,4.808021376118732e-07
1669909333068774119,13300,1669909332904816636,,-0.9711271714016247,-3.9203094187225487,1.490387611137062,0.002999987572358854,0.0030000372107399425,-0.03000001832647542,-4.951664920627052e-78,-3.6050259548458324e-79,-1.3160126432104885e-79,-0.031737745879622636,0.009698084085620451,0.6314155959943584,-3.6826850398331443e-07,1.1102973517171826e-07,4.812584695216832e-07
1669909333083873313,13301,1669909332931098748,,-0.9723733342637624,-3.924581849539765,1.49399681547898,-0.006000011913526806,-0.003999962707303936,-0.035000017568334464,0.0,0.0,0.0,-0.03281449811883341,0.010105980502318701,0.6327518675820869,-3.6829640126683846e-07,1.1112237493155025e-07,4.815338473352824e-07
1669909333197798559,13302,1669909333071514849,,-0.9707484935457245,-3.927706174294029,1.4874956882718724,-0.0050000113334367335,-0.010999962591233292,-0.0400000167129021,0.0,0.0,0.0,-0.03495448696949488,0.013112331432624913,0.642624409385423,-3.678341887783144e-07,1.1157315717549288e-07,4.833508386550957e-07
1669909333234282385,13303,1669909333175933448,,-0.9704340691785808,-3.9290881564514297,1.4829664748406506,-0.0050000113334367335,-0.010999962591233292,-0.0400000167129021,-7.657609973133198e-66,-1.1981063154852536e-65,2.0219671233991018e-64,-0.03274840619352837,0.014929435817906622,0.6497268098535312,-3.6705403320502116e-07,1.1184594152464905e-07,4.847326357131934e-07
1669909333552816447,13304,1669909333213109677,,-0.9679714838930235,-3.932181513809162,1.4808556054369526,-0.004000010827253152,-0.019999962456055658,-0.04800001596645626,-2.635549485807631e-82,-5.271098971615262e-82,6.747006683667535e-80,-0.032416440620897546,0.015036099756873256,0.6502016638304795,-3.669633220256547e-07,1.1181739779028837e-07,4.846482560838808e-07
1669909333576146737,13305,1669909333319728604,,-0.9669819965764342,-3.9343084817737153,1.4787662101682288,-0.004000010827253152,-0.019999962456055658,-0.04800001596645626,-1.0202051964366436e-144,2.5653851942831164e-145,-1.2821176766303388e-142,-0.02731607465744723,0.016811417325557798,0.6583400459913751,-3.6576318522719904e-07,1.1204299270936441e-07,4.861203160398093e-07
1669909333576149262,13306,1669909333380044858,,-0.9681394675514933,-3.9412123766015363,1.4718786146034284,-0.01500001054691209,-0.027999962342884314,-0.05200001555305009,-6.284231752049177e-139,-1.4818417501387383e-138,-1.1013184266620849e-138,-0.023208760910309323,0.01757153565713665,0.6630143990995165,-3.648133740671438e-07,1.1205788458353632e-07,4.868621437467207e-07
1669909333576152032,13307,1669909333487382208,,-0.9675563719531892,-3.9447248570418374,1.470673079395573,-0.01500001054691209,-0.027999962342884314,-0.05200001555305009,0.0,0.0,0.0,-0.0143134389960764,0.018240110555030498,0.6711161557115233,-3.6314917998999126e-07,1.1203913910674656e-07,4.881890514699886e-07
1669909333588986206,13308,1669909333533193441,,-0.9673088999788678,-3.946213039303664,1.4683243860660888,-0.01500001054691209,-0.027999962342884314,-0.05200001555305009,0.0,0.0,0.0,-0.00857154248910419,0.01823220708754114,0.6756558280336993,-3.6214506029193686e-07,1.1195732355655693e-07,4.889160792721469e-07
1669909333692786281,13309,1669909333563615049,,-0.9654248815741796,-3.9486476091456115,1.4676113603560363,-0.014000010482895713,-0.03399996203709928,-0.039000015458648056,0.0,0.0,0.0,-0.0031650284571007603,0.017967985013937593,0.6796919236752075,-3.613085827579496e-07,1.1181175559968996e-07,4.894557285904043e-07
1669909333720024771,13310,1669909333670777354,,-0.9643509460182239,-3.9524764530212533,1.4716912832971076,-0.014000010482895713,-0.03399996203709928,-0.039000015458648056,-1.227586317453875e-153,-2.2361151636305253e-155,1.9132247102697568e-155,0.003478502982968479,0.017316655790569513,0.6844804770492896,-3.602194585670153e-07,1.1159609465048031e-07,4.90269970776754e-07
1669909333835028239,13311,1669909333697593851,,-0.9639003547896696,-3.9541956037561663,1.4704843212311196,-0.014999983289338199,-0.035999906777507945,-0.03200020857561153,3.7245124131738153e-152,4.7729057699707003e-153,-1.1394945563811666e-153,0.0055395648879041914,0.016794620101727276,0.6859827583990246,-3.6018928593074024e-07,1.1148946539260662e-07,4.902851219057931e-07
1669909334077693572,13312,1669909333795970107,,-0.962849064579095,-3.9578845500748305,1.4703773088192502,-0.014999983289338199,-0.035999906777507945,-0.03200020857561153,-4.912040830688345e-78,3.133435770627463e-78,1.688576117860757e-78,0.014061590716202943,0.014829565856524951,0.6923960653152399,-3.5924736955765566e-07,1.1108720578525875e-07,4.911524771499616e-07
1669909334096542752,13313,1669909333822157271,,-0.9637347022727213,-3.9584588691947054,1.4695838338883946,-0.017000011361137858,-0.032999961563690575,-0.027000016753751677,1.3524673254320497e-79,-7.583385997758813e-80,-2.402335598791973e-80,0.018470348594789243,0.013630144064926242,0.6958128257914744,-3.585898176952151e-07,1.1076502487547136e-07,4.917611760440458e-07
1669909334096546674,13314,1669909333921963782,,-0.9629839615136393,-3.962055086810806,1.4632338631556259,-0.017000011361137858,-0.032999961563690575,-0.027000016753751677,0.0,0.0,0.0,0.027192205317778217,0.009346094246389214,0.7036683505397328,-3.5763979991842536e-07,1.0992509707059629e-07,4.930235053628256e-07
1669909334096636713,13315,1669909333957778111,,-0.9627111709739702,-3.963339794739292,1.4622447313366436,-0.017000011361137858,-0.032999961563690575,-0.027000016753751677,0.0,0.0,0.0,0.03022261163036788,0.007089613710236975,0.7070170444582242,-3.5735876435010676e-07,1.0952519108547578e-07,4.935859917082281e-07
1669909334115704446,13316,1669909333988856572,,-0.9639315488328223,-3.9637961833522426,1.4607394430687786,-0.0190000121005246,-0.028999961270013523,-0.024000017844091576,0.0,0.0,0.0,0.03086934189171231,0.0065915700028895685,0.7077567858391127,-3.5735405342422326e-07,1.0941146020233515e-07,4.936981316827118e-07
1669909334184973770,13317,1669909334099177507,,-0.9635068096794024,-3.9675350231993733,1.4599947548616237,-0.0190000121005246,-0.028999961270013523,-0.024000017844091576,-1.171305353896659e-65,-2.4795327484861237e-65,1.9645724191923548e-63,0.03493344615398186,0.0015805935709884977,0.71423443815711,-3.5715347055443635e-07,1.085414823633101e-07,4.948025588035083e-07
1669909334264002012,13318,1669909334139179781,,-0.9655116772240205,-3.9674385217897563,1.459205128889271,-0.021000012871728726,-0.021999960928965195,-0.020000018981351116,3.073985341420618e-299,3.212242228504336e-297,9.795410323652333e-294,0.03608842705646964,-0.0014480984001536967,0.7178289666951034,-3.57333093170898e-07,1.0812966648362117e-07,4.95299962563555e-07
1669909334302107214,13319,1669909334250455181,,-0.9657126873307869,-3.9707564135629347,1.4588794198408652,-0.021000012871728726,-0.021999960928965195,-0.020000018981351116,0.0,0.0,0.0,0.03626103661251712,-0.006732987766557841,0.7238667079796848,-3.5774623560272375e-07,1.0727599940562416e-07,4.963089971749151e-07
1669909334621075850,13320,1669909334281091355,,-0.9673709710240056,-3.970337817093821,1.4605806479829855,-0.02200001347799512,-0.01599996048025659,-0.014000019875384512,1.7550437e-317,8.75607357e-316,2.7329543637e-314,0.03624129505080731,-0.006722296432940311,0.723848252518124,-3.5780932861297424e-07,1.0734352824439385e-07,4.962166190089403e-07
1669909334635646931,13321,1669909334376339508,,-0.9679563432795545,-3.972824945572986,1.4591782541384504,-0.02200001347799512,-0.01599996048025659,-0.014000019875384512,0.0,0.0,0.0,0.034224953566678096,-0.01125980003266136,0.7289588833460172,-3.584484744339199e-07,1.0679171295609754e-07,4.969484700189306e-07
1669909334635651300,13322,1669909334410555288,,-0.968160979356666,-3.973718578889766,1.459976233397643,-0.02200001347799512,-0.01599996048025659,-0.014000019875384512,0.0,0.0,0.0,0.03339216825551716,-0.012451510386942033,0.7302973058659088,-3.5866103450056783e-07,1.0666066052825962e-07,4.971113047937416e-07
1669909334635654078,13323,1669909334447837376,,-0.9696108926853416,-3.9720510006175562,1.4596565271635835,-0.020000013743095815,-0.008999960114604367,-0.008000020266316408,-1.0751164508818222e-219,-6.025146701650567e-219,-4.018126638122104e-217,0.0321496393728431,-0.01408651537393979,0.7321058876672133,-3.5907849257763247e-07,1.0646677488706511e-07,4.973634079287085e-07
1669909334635682386,13324,1669909334563315730,,-0.9706396025104997,-3.9743378224208445,1.4595422671690943,-0.020000013743095815,-0.008999960114604367,-0.008000020266316408,-4.794036587204811e-94,-5.992545734006014e-95,-9.588073174409622e-94,0.02774904952343249,-0.017467403204902254,0.7345502326726105,-3.5994132077383713e-07,1.0616351866082379e-07,4.970392411068776e-07
1669909334737249737,13325,1669909334609831850,,-0.9724190118968005,-3.9714790222219603,1.4600014158331662,-0.016000013882162375,0.0010000405868897857,-2.0471391519448666e-08,0.0,0.0,0.0,0.025518577484266558,-0.018538622410048333,0.7334482871285122,-3.602842035214057e-07,1.0618136525226644e-07,4.962206255107913e-07
1669909334775595559,13326,1669909334717822629,,-0.9737758451432125,-3.972553840593349,1.4599994082091883,-0.016000013882162375,0.0010000405868897857,-2.0471391519448637e-08,2.319923421725255e-146,-9.559903819345927e-147,-6.872258078486295e-144,0.021926169904469717,-0.019725908154038407,0.7253256505745345,-3.607187837452321e-07,1.0610782087633193e-07,4.937057248229091e-07
1669909334804162578,13327,1669909334757757029,,-0.9742783446613562,-3.9729503822483645,1.4599878481160704,-0.016000013882162375,0.0010000405868897857,-2.0471391519448637e-08,0.0,0.0,0.0,0.020607304493429623,-0.02008386447163346,0.717438652868406,-3.608523077593536e-07,1.0608894488671363e-07,4.921036746805329e-07
1669909335119617841,13328,1669909334779796665,,-0.9781917409559447,-3.966761197182294,1.4604014375429266,-0.012000013716555251,0.01900004111071798,0.005999979772821749,0.0,0.0,0.0,0.020612317444182793,-0.02007353930406275,0.7174269360292858,-3.607715071966077e-07,1.0615260415462057e-07,4.92017414695012e-07
1669909335136528667,13329,1669909334899219244,,-0.9807618822751829,-3.966004492427065,1.4607717974957513,-0.012000013716555251,0.01900004111071798,0.005999979772821749,-5.556896873712694e-163,-8.89103499794031e-162,-7.112827998352248e-161,0.019092160127559765,-0.02021792259785471,0.7030404809116906,-3.610117800352296e-07,1.0622467367591053e-07,4.897547204607927e-07
1669909335136827529,13330,1669909334936027813,,-0.9832507270460816,-3.965116448704376,1.4598087382253753,-0.014000013378822177,0.02300004151040509,0.008999980270861309,0.0,0.0,0.0,0.01849541945865596,-0.019986155721799292,0.697055600471769,-3.611538377980599e-07,1.0634362129292769e-07,4.889198173825313e-07
1669909335136862584,13331,1669909335052598553,,-0.9862252184830159,-3.9641316670855624,1.459887662816886,-0.014000013378822177,0.02300004151040509,0.008999980270861309,1.6867516709168837e-80,8.433758354584419e-81,-5.397605346934028e-79,0.016769734700138983,-0.01897001935451037,0.6859648741768503,-3.6166298745599135e-07,1.0658484588623529e-07,4.874602103585357e-07
1669909335238896068,13332,1669909335095163119,,-0.9808065490317998,-3.9602975196858026,1.460013063311872,0.0029999869647428998,0.01900004140226028,-1.9222498951963983e-08,5.386301055801478e-233,1.722970422880127e-233,-1.4393950111331311e-233,0.015101509739539054,-0.018152506828185366,0.6801957734099204,-3.6208724972060916e-07,1.0676816953134688e-07,4.86978989740706e-07
1669909335334925392,13333,1669909335222259485,,-0.9809513939744842,-3.9589271596400413,1.4574260519794917,0.002999987184931465,0.015000040914981711,-0.04600001889779692,-6.817033767476325e-232,-1.3338353988258404e-231,-9.138044367050741e-233,0.010654552935513095,-0.016234690610186675,0.6720467377291186,-3.632037372944609e-07,1.0721685210136465e-07,4.86232162501e-07
1669909335372919378,13334,1669909335318742718,,-0.9816003513926905,-3.9575302761018625,1.4483040177011197,0.002999987184931465,0.015000040914981711,-0.04600001889779692,-2.1529663482438598e-154,-2.979494997301691e-154,-3.927197884037708e-156,0.004080515234528903,-0.013423561021975061,0.6658818008443017,-3.645721320929579e-07,1.0781316268453244e-07,4.856009172104229e-07
1669909335413370954,13335,1669909335357116010,,-0.9818512506313352,-3.9569862905497644,1.44141766888714,0.002999987184931465,0.015000040914981711,-0.04600001889779692,-2.1529663482438598e-154,-2.979494997301691e-154,-3.927197884037708e-156,0.004080500994341207,-0.013423556960907135,0.6658818194967857,-3.645721320929579e-07,1.0781316268453244e-07,4.856009172104229e-07
1669909335755099732,13336,1669909335377367012,,-0.9824862393509861,-3.956367109650859,1.4401535799654868,0.002000014064200281,0.016000013685153053,-0.07699918836656318,-4.121814083270026e-152,-2.3181153445722713e-152,5.61552964832107e-154,0.0006534072897519394,-0.011876676611583648,0.6635957943445447,-3.6518729960272053e-07,1.0811486620422711e-07,4.853727617419849e-07
1669909335755146664,13337,1669909335476904105,,-0.9832383264557064,-3.954939909203589,1.4308215223504261,0.002000014064200281,0.016000013685153053,-0.07699918836656318,-8.818327692779247e-141,-6.476309308864585e-139,-1.7314126614573926e-142,-0.0043277434512880575,-0.009466893856414416,0.6607651858349115,-3.6600331132445916e-07,1.0858802453646957e-07,4.85092948087712e-07
1669909335760609766,13338,1669909335502033634,,-0.9834266807596193,-3.9545829516984248,1.4288862113832155,0.002000014064200281,0.016000013685153053,-0.07699918836656318,-2.2722755084661406e-231,2.4182371683445383e-230,3.9861864562580774e-233,-0.008842967751263586,-0.006996912880737227,0.6585651835980162,-3.667364383678468e-07,1.0906365623755432e-07,4.848944391813693e-07
1669909335761989856,13339,1669909335525070455,,-0.9835963713027557,-3.9542680539503356,1.427109578616931,0.002000014064200281,0.016000013685153053,-0.07699918836656318,-2.2722755084661406e-231,2.4182371683445383e-230,3.9861864562580774e-233,-0.008842976277668058,-0.0069969102695885965,0.6585651947460107,-3.667364383678468e-07,1.0906365623755432e-07,4.848944391813693e-07
1669909335762020583,13340,1669909335544534422,,-0.9834583106719809,-3.954749709124938,1.414002493557984,0.0010000436994971494,0.014000152695002878,-0.10699832908428578,-1.2804313477069987e-42,-1.616009992049065e-42,-1.8289502853377426e-40,-0.01035563518219007,-0.0061129579922187816,0.6579378348920812,-3.6690986376421105e-07,1.0919421384173635e-07,4.84937112879277e-07
1669909335762046219,13341,1669909335652730487,,-0.9841669866162649,-3.9535500921197038,1.4028914555686758,0.0010000436994971494,0.014000152695002878,-0.10699832908428578,0.0,0.0,0.0,-0.019501656923628374,-0.0002761445990628886,0.6548976677452387,-3.6811488756820624e-07,1.1008885147449703e-07,4.847800718516087e-07
1669909335858228006,13342,1669909335704367799,,-0.9865340900321398,-3.9560987471572537,1.397966697872387,-0.00799977939387566,0.011000117240012113,-0.10899996633408614,-2.5450274755717766e-144,3.1009751649108515e-142,1.0809257366876016e-140,-0.020586542610612213,0.00045110777210766173,0.6545447064108458,-3.6826474494616115e-07,1.102477076177576e-07,4.848022912838453e-07
1669909335907243514,13343,1669909335840641043,,-0.9881329550369898,-3.95586716322968,1.3838127666398516,-0.00799977939387566,0.011000117240012113,-0.10899996633408614,4.9784122222889134e-60,1.9913648889155653e-59,6.372367644529809e-58,-0.02654664188889022,0.0066031922755538375,0.6535852303630456,-3.687282471607125e-07,1.1121595881751498e-07,4.85042588921041e-07
1669909336222632473,13344,1669909335889186605,,-0.9864775662953174,-3.9593890189914522,1.3785872334499647,-0.00899990867894132,0.001001070273624784,-0.10600032673063094,-6.785465096215242e-78,-2.3319475155960523e-77,5.072229334736922e-79,-0.026821386839543493,0.008960027172475904,0.6540048107104397,-3.6816433702838295e-07,1.114735778415022e-07,4.852987996658208e-07
1669909336245856923,13345,1669909335996771866,,-0.984522910623373,-3.962448354058945,1.3679294728803932,-0.007000164411210442,-0.007999272230507337,-0.10699994019028777,-2.3662208093394817e-144,-5.894232632594201e-143,-1.2131787668220524e-141,-0.025376639337753915,0.011329487719230258,0.654914098597505,-3.674048951714758e-07,1.1174038464030062e-07,4.856336518600918e-07
1669909336245879376,13346,1669909336093131798,,-0.9845374778443186,-3.963745543801744,1.3579520939876897,-0.007000164411210442,-0.007999272230507337,-0.10699994019028777,-1.1875318772499318e-145,4.780491971629608e-146,-1.9622175954381186e-143,-0.020925276560902262,0.014482979115681971,0.6571072475456479,-3.662562628827783e-07,1.121906682805996e-07,4.862166545473351e-07
1669909336245944209,13347,1669909336130607909,,-0.9845548669823484,-3.96424618333528,1.3548581161581028,-0.007000164411210442,-0.007999272230507337,-0.10699994019028777,-4.166070542435128e-153,4.034944547286623e-154,1.1683998882461698e-155,-0.01781554161340182,0.015831330776832075,0.658523845503332,-3.655805715063459e-07,1.1237765872447091e-07,4.865531600652334e-07
1669909336296553417,13348,1669909336154448820,,-0.9848515175401705,-3.9682097006225443,1.3521143448136068,-0.013973129720773272,-0.015969236890252564,-0.09305377931429244,-4.198994010812477e-64,-1.340138564194398e-63,-3.922963767164519e-62,-0.01862317742650177,0.015522343381590531,0.6581581202211648,-3.657143536152609e-07,1.123344690455447e-07,4.864853149348305e-07
1669909336316997299,13349,1669909336258315142,,-0.9850148887060806,-3.970626915027797,1.35082140944415,-0.013973129720773272,-0.015969236890252564,-0.09305377931429244,1.9027386868169317e-139,2.975808626726778e-140,1.246161117386743e-139,-0.010298148377724914,0.01803909980886864,0.6620054411249328,-3.642928758911467e-07,1.1258612586135031e-07,4.872472767731884e-07
1669909336417954624,13350,1669909336300628724,,-0.9841414045559117,-3.9727729143450805,1.3472604098793681,-0.014000001612412938,-0.020998221370731963,-0.08300349413973665,3.0005566311247587e-218,2.0847965378423992e-218,3.3497563057136556e-217,-0.005670877994308654,0.018950595559463324,0.664277190007498,-3.6352546587922924e-07,1.1266777605582266e-07,4.876984675570852e-07
1669909336445321288,13351,1669909336396281849,,-0.9840549908287121,-3.975298402022638,1.3384708454678302,-0.014000001612412938,-0.020998221370731963,-0.08300349413973665,0.0,0.0,-1.5332315495548913e-124,-0.0006513879018310575,0.01948601638327574,0.6669840623392282,-3.6279268350833436e-07,1.1265093091788714e-07,4.882140876349532e-07
1669909336480487590,13352,1669909336424600955,,-0.9840340364304272,-3.976039649155569,1.3361286377497936,-0.014000001612412938,-0.020998221370731963,-0.08300349413973665,0.0,0.0,2.029952508005037e-278,0.002645496699514638,0.019617934534625903,0.6689029785423575,-3.6232880137682673e-07,1.1260880704929642e-07,4.885584691724035e-07
1669909336759622969,13353,1669909336459620601,,-0.9841204848814038,-3.977937119285451,1.332375353113843,-0.016000011207391873,-0.022999961756245073,-0.07800001652702948,0.0,0.0,0.0,0.007143230051180893,0.019497987863667632,0.6717386078289014,-3.6173318380941743e-07,1.1248974625249798e-07,4.890716988757117e-07
1669909336775635569,13354,1669909336559931031,,-0.9840971185581029,-3.9807903799228015,1.330667638321986,-0.016000011207391873,-0.022999961756245073,-0.07800001652702948,0.0,0.0,0.0,0.014055667992149523,0.01833333264080217,0.6768142053213761,-3.6085579563716106e-07,1.1211892691287063e-07,4.89995845401707e-07
1669909336775638537,13355,1669909336614840226,,-0.9840904131672958,-3.9823350933095814,1.3263869934864125,-0.016000011207391873,-0.022999961756245073,-0.07800001652702948,0.0,0.0,0.0,0.017494058942098434,0.016968635978610536,0.6799888693209812,-3.6050804481027e-07,1.1176754535245993e-07,4.905730525675156e-07
1669909336775641106,13356,1669909336651092200,,-0.9840857698058869,-3.9833398620348452,1.3221310042357006,-0.016000011207391873,-0.022999961756245073,-0.07800001652702948,0.0,0.0,0.0,0.017494046175912104,0.01696863971868723,0.6799888871759734,-3.6050804481027e-07,1.1176754535245993e-07,4.905730525675156e-07
1669909336795573814,13357,1669909336662168116,,-0.9853721678131244,-3.9841036963289476,1.3212459795292193,-0.019000011649215113,-0.021999961751068053,-0.07300001717856607,-4.36449788942422e-64,-8.498279864117864e-65,9.106713517995808e-63,0.017502249536129,0.016964016686872085,0.6799976573828328,-3.60510875995466e-07,1.1176595422640391e-07,4.905727226011447e-07
1669909336841721169,13358,1669909336776505598,,-0.9856773741671738,-3.9873839399334194,1.3117193971329122,-0.019000011649215113,-0.021999961751068053,-0.07300001717856607,0.0,0.0,0.0,0.022603657145330303,0.012752321420968826,0.686550935265192,-3.6009842443418205e-07,1.1088371265157662e-07,4.916939404226024e-07
1669909336951747425,13359,1669909336824161947,,-0.9879270046086778,-3.9885039102189968,1.3088046419086155,-0.022999154832736263,-0.018000819366866698,-0.06800109066717572,0.0,0.0,0.0,0.024210950763130512,0.01016357142180091,0.6897071281978349,-3.6005102199630847e-07,1.1038831299824989e-07,4.922555703181364e-07
1669909336990867349,13360,1669909336936639113,,-0.98880442940459,-3.9916117109480718,1.3027022103318786,-0.022999154832736263,-0.018000819366866698,-0.06800109066717572,1.2780466021149302e-141,3.4692108621573347e-140,1.809531166462928e-142,0.025547344727721466,0.005826042845864521,0.6943893807122574,-3.601145615517378e-07,1.0955684015623344e-07,4.931211421314913e-07
1669909337256920225,13361,1669909336970664838,,-0.9904029942318415,-3.99269486775014,1.3003861203308151,-0.026000013056005366,-0.015999961436384807,-0.06400001925309547,4.016527228025422e-217,-1.1477733012568156e-213,-1.1300417505003769e-212,0.025628524773619432,0.0038263508248306266,0.6963451649059742,-3.6021232722949303e-07,1.0929227268944995e-07,4.934003199067994e-07
1669909337268526391,13362,1669909337134561163,,-0.9929953396983838,-3.9974640486289164,1.2929125556170953,-0.028000013376336504,-0.014999961088863202,-0.061000019725473184,-2.1239935108387337e-154,1.3614595286250733e-155,-2.5147480515298877e-154,0.024473861760803572,-0.005458605678771988,0.7054616301512144,-3.607490043097619e-07,1.0788832413402284e-07,4.949881599938178e-07
1669909337360445612,13363,1669909337242775564,,-0.9955139446006802,-4.000200970152876,1.2870833017988228,-0.02999953939501874,-0.012000671710502701,-0.055001442147409596,-3.379809497096376e-68,-4.400632519204367e-68,-8.042656525144704e-68,0.021611249786722908,-0.011536985775489228,0.7121756052214625,-3.6157838013149365e-07,1.0706453326281704e-07,4.961130383822043e-07
1669909337394406954,13364,1669909337343266223,,-0.997032754258285,-4.002951816176437,1.2818496468046914,-0.02999953939501874,-0.012000671710502701,-0.055001442147409596,-5.111850362730298e-154,-8.431954114273754e-155,-2.5824606413852026e-155,0.018326035426250442,-0.015469855779759456,0.7168966979465257,-3.623884350732305e-07,1.0648049278935107e-07,4.96963994598079e-07
1669909337500452420,13365,1669909337378872352,,-0.9981593250146444,-4.0027344355032834,1.2800264078540862,-0.02900001339342625,-0.007999959991579503,-0.04700001975067466,-6.036916229718389e-144,-2.942398763040482e-144,-5.246653294117782e-143,0.017284742828183042,-0.016460337936850422,0.7181358024139008,-3.62591691390039e-07,1.0635993628189505e-07,4.971456092300241e-07
1669909337535675367,13366,1669909337476521254,,-0.999761754292118,-4.005079213109615,1.2781846926791163,-0.02900001339342625,-0.007999959991579503,-0.04700001975067466,-8.546040237604445e-144,-1.8708228742681424e-145,-3.353949244436274e-141,0.011826117709457407,-0.02121221842308252,0.7247790991082468,-3.63381773243269e-07,1.0579725764829841e-07,4.982847782291705e-07
1669909337977505967,13367,1669909337510164726,,-1.000301098998683,-4.005890988540695,1.2765800844331667,-0.02900001339342625,-0.007999959991579503,-0.04700001975067466,-1.1380524797363597e-159,-3.556413999176124e-161,-5.826828696250162e-157,0.011406912625480103,-0.021574648916484307,0.7253821331477646,-3.6342160396063113e-07,1.0576660044329037e-07,4.983929953561265e-07
1669909337980596787,13368,1669909337528126532,,-1.0005914095077335,-4.006323563499173,1.2757237730525106,-0.02900001339342625,-0.007999959991579503,-0.04700001975067466,-5.951308309068445e-231,-1.315428900565546e-230,-3.246650609415332e-231,0.009666294774397954,-0.023097217147675764,0.7283750167977487,-3.635310593760968e-07,1.0567711456515676e-07,4.989293935466073e-07
1669909337980599191,13369,1669909337555039512,,-1.001288746893997,-4.007259377722021,1.2804248037915493,-0.030000013210712998,-0.007999959419787216,-0.04200001948123576,-4.6643878460706365e-231,9.977595815882019e-231,-8.633156938783322e-232,0.009589101254901422,-0.023171931903098297,0.7284686637735867,-3.636258824511925e-07,1.0562068847157102e-07,4.990085949531775e-07
1669909337980601396,13370,1669909337674859861,,-1.0032643080096908,-4.01025780812366,1.2732375230411923,-0.030000013210712998,-0.007999959419787216,-0.04200001948123576,0.0,0.0,0.0,0.00767382811946149,-0.025338452849775095,0.7347826404865749,-3.636183333871678e-07,1.0544587834983781e-07,5.001171626876139e-07
1669909337980603860,13371,1669909337729846147,,-1.0041593010018737,-4.0116379424833575,1.271970158389896,-0.030000013210712998,-0.007999959419787216,-0.04200001948123576,-8.681893390885642e-78,-5.43942742535792e-78,4.110787983876324e-79,0.0076135389420830535,-0.026114864150784456,0.7385031658773098,-3.633771328595644e-07,1.0543538381456565e-07,5.007880901742063e-07
1669909337994188841,13372,1669909337758351115,,-1.004622906952835,-4.012353529968887,1.2707497043497482,-0.030000013210712998,-0.007999959419787216,-0.04200001948123576,0.0,0.0,0.0,0.007967324816897658,-0.026250278968889873,0.7401675552303839,-3.632905764845412e-07,1.0545918009832428e-07,5.010245159341634e-07
1669909337994225012,13373,1669909337788071418,,-1.0013890458170327,-4.014664148290855,1.2695919617682578,-0.026000012841014563,-0.015999958783229788,-0.03500001893605834,2.480903281450202e-221,-3.0288846111217375e-224,-2.896999626484601e-222,0.00847329571192823,-0.026573869905961445,0.7431570288601783,-3.6307892495230083e-07,1.0550763120750814e-07,5.015894624306067e-07
1669909338504856398,13374,1669909337930863626,,-1.0008766181866762,-4.019999096836618,1.2680528962448658,-0.02500001225001211,-0.020999958029380806,-0.030000018064533986,-1.656084321055619e-170,-2.6497349136889905e-169,-1.656084321055619e-170,0.010928561713745566,-0.026079972634095228,0.752054511711659,-3.6263272831227384e-07,1.0588573115595293e-07,5.03050340994558e-07
1669909338518724326,13375,1669909338070204169,,-1.0008217452800978,-4.023933887787975,1.265568721934095,-0.023000262244696958,-0.020999957553573634,-0.02400076835511295,-2.802037730568978e-111,8.537333883845985e-110,4.142894038064966e-109,0.01338442996108391,-0.02343100493852468,0.7611828674696497,-3.6236108876916537e-07,1.0662224959245738e-07,5.045845006216443e-07
1669909338518727135,13376,1669909338187578549,,-1.0005365859204467,-4.026564683332601,1.2601671242998307,-0.02000029902064013,-0.020000052810344136,-0.018000591703324527,0.0,0.0,0.0,0.013942692610141805,-0.018954155562120434,0.7700035047146798,-3.628696531328269e-07,1.0771304782447014e-07,5.060395799094806e-07
1669909338518771525,13377,1669909338285410945,,-1.000570714935635,-4.029290458541965,1.259699219945775,-0.02000029902064013,-0.020000052810344136,-0.018000591703324527,1.0894147551326961e-146,-9.194046140349986e-146,-2.099410269996394e-144,0.012226509439328126,-0.016395104205194855,0.7734498284170641,-3.63602857771729e-07,1.0828718684284974e-07,5.065865988644266e-07
1669909338518780046,13378,1669909338318138803,,-1.0005800347992935,-4.030203735354004,1.2590911340257567,-0.02000029902064013,-0.020000052810344136,-0.018000591703324527,3.220568712457112e-300,-5.294259679231894e-299,-1.9546489178069183e-296,0.010026211831272391,-0.01402824023439564,0.7761824756418587,-3.642114372166768e-07,1.087747241175762e-07,5.070082347087824e-07
1669909338518787107,13379,1669909338343710043,,-1.000585547413295,-4.030918771920286,1.250988194417936,-0.02000029902064013,-0.020000052810344136,-0.018000591703324527,0.0,0.0,0.0,0.008770962221587908,-0.012798406596360223,0.7774893787899213,-3.6452387556069363e-07,1.0901867876355812e-07,5.072074096624609e-07
1669909338531318695,13380,1669909338363842287,,-0.9990812770137224,-4.02465974636769,1.2506585758623983,-0.005000012310541518,-0.009999956961826326,-0.024000018153793944,-8.685250623425464e-145,4.572214019246418e-145,-3.645993225793829e-144,0.007118390687978149,-0.011298300454411603,0.7789693697652034,-3.6483301295117653e-07,1.0926256647762376e-07,5.074130653810879e-07
1669909339060213246,13381,1669909338478254907,,-1.0000753945187575,-4.022187374333571,1.2403833238812825,-0.0010004027440747134,-9.323802785624751e-07,-0.05199728707839899,-1.8290911301345752e-153,9.522696059866698e-155,-3.0509539239009213e-155,-0.002804095864551215,-0.0025220840525541632,0.7869483187757922,-3.664783913316817e-07,1.1065068914261204e-07,5.086019600030902e-07
1669909339083169949,13382,1669909338593106357,,-1.0001336549812643,-4.022272512298013,1.238702291461722,-0.0010004027440747134,-9.323802785624751e-07,-0.05199728707839899,0.0,0.0,0.0,-0.010812300362768923,0.004864276123662137,0.793557579659204,-3.67721317101984e-07,1.1184161859445907e-07,5.096875583723056e-07
1669909339083173176,13383,1669909338629781001,,-0.9986359237559957,-4.02324882420122,1.2239288356457239,-2.0246726609054848e-07,-0.004999008437142725,-0.07799508458491784,-1.488868381127151e-286,-2.5841170003957264e-284,-8.533331957051455e-283,-0.01080657906950755,0.00485689900930808,0.7935481598916034,-3.6768195098892346e-07,1.118109271603688e-07,5.096590394825497e-07
1669909339083175211,13384,1669909338738567228,,-0.9982117663727615,-4.023735265796665,1.2130342177134055,-2.0246726609054848e-07,-0.004999008437142725,-0.07799508458491784,-4.653597376086219e-44,-7.093560291558068e-44,-4.4381233455512155e-42,-0.016726735035687668,0.011363049923968305,0.7991061273557847,-3.6827783110441865e-07,1.1266978385001565e-07,5.10448887501447e-07
1669909339083177124,13385,1669909338783935853,,-0.9980344036012226,-4.023958928537462,1.2094999209786013,-2.0246726609054848e-07,-0.004999008437142725,-0.07799508458491784,-1.1951332491253437e-77,-6.592845148886744e-77,-2.1279398229579815e-79,-0.018894599482589314,0.014382677603194338,0.8017363846239114,-3.684099873882475e-07,1.130125010880902e-07,5.107932541229868e-07
1669909339083225072,13386,1669909338821618530,,-1.0015838784902553,-4.028991430979049,1.2064117454968004,-0.01699756365677466,-0.0069996692066008614,-0.08499900905660487,0.0,0.0,0.0,-0.022943568619950838,0.020785250621246476,0.8075086305017933,-3.68871623696363e-07,1.1421454461169185e-07,5.120487180983903e-07
1669909339083617347,13387,1669909338914083165,,-1.0021861522760989,-4.030821308339017,1.203132810359921,-0.01699756365677466,-0.0069996692066008614,-0.08499900905660487,0.0,0.0,0.0,-0.023651548502034103,0.02393962165619712,0.8107767438257873,-3.6868429289154595e-07,1.14630319741286e-07,5.126477253193333e-07
1669909339098584329,13388,1669909338945650442,,-1.0023926141360384,-4.03145180544691,1.2006732362850365,-0.01699756365677466,-0.0069996692066008614,-0.08499900905660487,0.0,0.0,0.0,-0.023217031144197264,0.027356462403149706,0.8148407456463733,-3.6821253071495383e-07,1.1506299422356293e-07,5.134030200419114e-07
1669909339109270588,13389,1669909338980275962,,-0.9987774712051557,-4.033754088492162,1.1995801267007324,-0.013000411026408528,-0.017998859078011777,-0.07200131562114881,-1.662183606221295e-68,-2.7919626637430404e-69,-8.328669009019409e-67,-0.0226830289493698,0.028352213966556405,0.816197120862455,-3.6795570411670235e-07,1.1514462741932301e-07,5.136334921058054e-07
1669909339282999369,13390,1669909339085728159,,-0.9983638745588356,-4.0363264497909785,1.190849289061196,-0.013000411026408528,-0.017998859078011777,-0.07200131562114881,-2.136813643676785e-66,2.4382530460927175e-66,1.3756255967423298e-64,-0.01868352068304091,0.03213458520752788,0.8223940850009015,-3.6677323737008096e-07,1.1554440067879718e-07,5.147854039693537e-07
1669909339296494918,13391,1669909339127028074,,-0.9955674943903627,-4.041247216158598,1.1888750667226275,-0.015999738357712318,-0.03099877455674519,-0.06700047209343166,3.9147959545366716e-300,3.065296471719982e-297,7.604113747714785e-297,-0.014405140042724085,0.03391979177788507,0.8266223833096156,-3.6573301751505487e-07,1.1566781507845893e-07,5.155392441900255e-07
1669909339296556894,13392,1669909339231533712,,-0.9944093526726608,-4.044901848556185,1.1859595763602604,-0.015999738357712318,-0.03099877455674519,-0.06700047209343166,1.1167747133386555e-258,1.307936479465264e-259,4.193890495755553e-258,-0.005605818075618885,0.035392238351562355,0.8334017377866161,-3.640150568430631e-07,1.1563020143741321e-07,5.167038970361324e-07
1669909339310025509,13393,1669909339268255942,,-0.9940073724783568,-4.046179602299774,1.1815748467669127,-0.015999738357712318,-0.03099877455674519,-0.06700047209343166,5.125344021951278e-144,2.0676216045575798e-145,-4.964918736075965e-143,0.00034252695747660766,0.03546277606393744,0.8374831196957508,-3.6300267728454106e-07,1.1546789477676489e-07,5.174053868222324e-07
1669909339563562754,13394,1669909339298088377,,-0.992249222010631,-4.0495344037405445,1.1797190171660183,-0.01800001129413938,-0.03799995826596346,-0.06500001665495207,0.0,0.0,0.0,0.001380993978189693,0.03541116011792056,0.8381803412751374,-3.628498588305473e-07,1.1540566107379085e-07,5.174910375444457e-07
1669909339563643813,13395,1669909339418400741,,-0.9911588917303887,-4.055608888929819,1.177269860034545,-0.021999691893375698,-0.03899987836601014,-0.06200025689564709,-3.0199444764845392e-217,2.5966345426269164e-218,-8.423100967589982e-215,0.011710286961292837,0.033899584933072546,0.8451151884849146,-3.613548009598596e-07,1.1489572166156147e-07,5.185891867179385e-07
1669909339604661233,13396,1669909339512792415,,-0.9899684387787063,-4.0596901073361344,1.1686719594795634,-0.021999691893375698,-0.03899987836601014,-0.06200025689564709,-5.359810414384461e-231,-1.6805194594037686e-230,9.947275979461516e-233,0.02199771198157663,0.030370205432031838,0.8524696709708763,-3.6004355042744766e-07,1.1407229487924575e-07,5.19795178241049e-07
1669909339638545668,13397,1669909339586262315,,-0.9890421827125179,-4.062826103359814,1.1689130899963163,-0.021999691893375698,-0.03899987836601014,-0.06200025689564709,0.0,0.0,0.0,0.026446648127670613,0.027915287631333996,0.8560582299395687,-3.5952309335497656e-07,1.1357173060607375e-07,5.203968874450719e-07
1669909340122593753,13398,1669909339610520359,,-0.9900457383202124,-4.064758071385861,1.1675045122292558,-0.026000012256185156,-0.03799995815824176,-0.06000001807363709,0.0,0.0,0.0,0.030725529050977585,0.024686925606461685,0.859900203710918,-3.591261519268332e-07,1.1292303847355104e-07,5.210017604155186e-07
1669909340122610991,13399,1669909339714280916,,-0.9890638660680541,-4.069361570950552,1.1671549289148186,-0.026000012256185156,-0.03799995815824176,-0.06000001807363709,0.0,0.0,0.0,0.03435414788710389,0.020680289042669386,0.8638891182131054,-3.588389509387882e-07,1.121606304738197e-07,5.216809604494316e-07
1669909340122628306,13400,1669909339746103945,,-0.9911255615524841,-4.070652408474791,1.162367616444171,-0.030000013066157072,-0.03299995787593283,-0.057000019268065735,-3.158955580528109e-290,-1.7891969620654544e-291,-7.589439094823146e-291,0.03610464967219684,0.017997409026015987,0.8662988576827235,-3.5874311508405777e-07,1.1170154211246335e-07,5.220938663390024e-07
1669909340122643089,13401,1669909339871299926,,-0.9906792518368152,-4.076106798171981,1.1602666465774176,-0.030000013066157072,-0.03299995787593283,-0.057000019268065735,7.152618054981087e-65,1.5433121462384088e-63,6.662404486308803e-62,0.038496231701060424,0.010947893738821435,0.8720956176148267,-3.58893310112537e-07,1.1059062599791515e-07,5.230026018693922e-07
1669909340147008302,13402,1669909339919734955,,-0.9942736189116089,-4.076623897440098,1.157726061632657,-0.03300001358287485,-0.02399995760093881,-0.05200002003004586,0.0,0.0,0.0,0.03887190143836072,0.006815362835146388,0.8752137010702246,-3.590331540014207e-07,1.0988594834643696e-07,5.235714908967657e-07
1669909340147271788,13403,1669909340035607974,,-0.9947785613870085,-4.081213308444748,1.1477832871802016,-0.03300001358287485,-0.02399995760093881,-0.05200002003004586,0.0,0.0,0.0,0.03777770760204113,-0.0011684920004562116,0.8807325265765371,-3.595773725971963e-07,1.0857034318908139e-07,5.245074455587013e-07
1669909340608525929,13404,1669909340080386371,,-0.9963606018533021,-4.081780344081489,1.148182696393596,-0.03300001428021621,-0.018999956784802347,-0.04800002105838336,0.0,0.0,0.0,0.03637751927951527,-0.005893471496030145,0.8838053997248956,-3.599735752745678e-07,1.0787393745900034e-07,5.250101094431054e-07
1669909340620965281,13405,1669909340186425915,,-0.997136003929634,-4.085618941145142,1.1475914741095954,-0.03300001428021621,-0.018999956784802347,-0.04800002105838336,2.9609301694851095e-143,-9.099563234252686e-143,6.363972030105332e-142,0.032997306232582346,-0.014201641235899842,0.8892400885477851,-3.6078047549749e-07,1.0653188837924072e-07,5.259933880561102e-07
1669909340620967651,13406,1669909340222546428,,-0.99887175765517,-4.087632686859324,1.146180125641155,-0.03699972674208425,-0.017000099911214032,-0.044000308933248404,5.882654250735866e-296,3.4369988655687746e-295,-1.2724638167844175e-293,0.03105224599815415,-0.017847075578291793,0.8916940015356225,-3.611802415322861e-07,1.0607605424745238e-07,5.264052524266734e-07
1669909340620970566,13407,1669909340316822418,,-0.9998644772843127,-4.0912132023895325,1.1395855659875505,-0.03699972674208425,-0.017000099911214032,-0.044000308933248404,0.0,0.0,0.0,0.028553088045349284,-0.021692902686357485,0.8944751111735734,-3.6173965317838405e-07,1.0554961681074885e-07,5.268962138977191e-07
1669909340620972860,13408,1669909340361840855,,-1.0003504087206831,-4.092468856777994,1.1406231317075868,-0.036000014290490726,-0.015999955410757313,-0.0390000210735347,0.0,0.0,0.0,0.025532914275604668,-0.02532837052102721,0.8973261785475515,-3.623092009324109e-07,1.0522347009151666e-07,5.272982224877016e-07
1669909340620975317,13409,1669909340467876782,,-1.001410418779199,-4.0963610737726075,1.140189078012674,-0.036000014290490726,-0.015999955410757313,-0.0390000210735347,-3.6890753597313534e-65,-7.495211404604423e-65,1.041893362617907e-63,0.01968228954824447,-0.030487799076059474,0.9022387980066675,-3.634152328188623e-07,1.0468483411551939e-07,5.281777149245587e-07
1669909340639871012,13410,1669909340506468065,,-1.0016493837259206,-4.096595460888368,1.138920165305736,-0.03300022329294294,-0.014000094087447307,-0.03100057887947682,0.0,0.0,0.0,0.01608331825702436,-0.032695235366837494,0.9052401900853475,-3.6396111355576357e-07,1.0456580778775082e-07,5.286754914507839e-07
