%time,field.header.seq,field.header.stamp,field.header.frame_id,field.position.x,field.position.y,field.position.z,field.velocity.x,field.velocity.y,field.velocity.z,field.acceleration.x,field.acceleration.y,field.acceleration.z,field.orientation.x,field.orientation.y,field.orientation.z,field.angular_velocity.x,field.angular_velocity.y,field.angular_velocity.z
1669909929232663996,18917,1669909928731114959,,-0.07897362267141468,-3.3870147493646603,1.0609049579076868,0.003999982898715794,0.010000040741768327,-0.011000025218483622,4.848503620916865e-297,2.6378689939717857e-299,3.2211115861879997e-295,0.008619713087099967,0.008837546826548248,0.14081316085503914,-6.028526502503683e-07,1.4538419345579712e-07,6.648190421260225e-07
1669909929301921206,18918,1669909928882310965,,-0.0805004383294685,-3.3861786459050642,1.0594206368967782,-1.710225485708455e-08,0.00900004058993183,-0.014000025219914999,2.490947522240327e-147,4.370777239441684e-148,4.3972181818219964e-145,0.0055638370841091245,0.003979292007469937,0.13897412904785433,-6.03472393119265e-07,1.4448141706265012e-07,6.646619823076352e-07
1669909929301971150,18919,1669909929038172138,,-0.08164746137847016,-3.384908044421642,1.0591528495999176,-0.0020000169783529003,0.009000040528036442,-0.016000025037202433,-2.2169295277864324e-232,-7.875934676966224e-234,-8.608713330154584e-234,0.0018958418200156757,-0.0018861163321268748,0.13784009075301107,-6.042813083014077e-07,1.4331776765011667e-07,6.646434565262754e-07
1669909929659070137,18920,1669909929187799208,,-0.08337686247727538,-3.3842327520887494,1.0594851275186474,-0.005000016699993571,0.008000040724923656,-0.018000024626718632,0.0,0.0,0.0,-0.0019457730078560331,-0.009461390106704215,0.1379404444702903,-6.049396770720702e-07,1.4195849344232306e-07,6.648859472688506e-07
1669909929733744006,18921,1669909929402923750,,-0.08566020508221858,-3.3845596300208545,1.0595000075595797,-0.008000016162108471,0.004000041273179934,-0.01900002383352401,0.0,0.0,0.0,-0.005778439001135283,-0.02084385507030362,0.14021674061484113,-6.054450464052517e-07,1.401364073497383e-07,6.655060354074262e-07
1669909929749926248,18922,1669909929551384816,,-0.08703130749760558,-3.3858985701120643,1.0509982352533551,-0.009000015752217774,4.178150878400569e-08,-0.0200000232290769,1.377803855794173e-298,1.1201952114589527e-299,-3.294917873191559e-296,-0.0068655578809391216,-0.027758498134982545,0.14247376687101365,-6.055519436750329e-07,1.3913347317683846e-07,6.659678472338324e-07
1669909929793705561,18923,1669909929690370101,,-0.08818529108054647,-3.386084519970902,1.0489110942318458,-0.009000015752217774,4.178150878400599e-08,-0.0200000232290769,-1.3638858001576689e-145,-4.1983646463239227e-144,-2.6928268140943386e-145,-0.007059320133947722,-0.034593625904907555,0.14577665783611415,-6.054428910221405e-07,1.384511212139537e-07,6.665712575837215e-07
1669909929827528415,18924,1669909929750396258,,-0.08867697558750286,-3.386165303505246,1.050757682657121,-0.009000015752217774,4.1781508784006e-08,-0.0200000232290769,1.0146560026993514e-207,3.9139853872259073e-205,2.862978785797702e-207,-0.007025022558469374,-0.03500745293462337,0.1460319196878217,-6.054281626639669e-07,1.3841499508260426e-07,6.666166722693704e-07
1669909929866794758,18925,1669909929782707231,,-0.08894157683194572,-3.3862088105064156,1.0500790457925553,-0.009000015752217774,4.1781508784006e-08,-0.0200000232290769,0.0,0.0,0.0,-0.007156487987842297,-0.0345202090023875,0.14560743624943484,-6.054655442636164e-07,1.3838635763887717e-07,6.666100036933128e-07
1669909930198528628,18926,1669909929827980540,,-0.09015316589702058,-3.387363077491205,1.0493316844586194,-0.011000015203985582,-0.001999957309103058,-0.018000022420623905,-3.0469532723515246e-79,-2.8000369010877463e-78,6.4266953366726e-79,-0.006281954899000297,-0.03759340849278914,0.148464336762002,-6.052549900365766e-07,1.3826134267670287e-07,6.671749875928387e-07
1669909930241971495,18927,1669909929973874675,,-0.08975666221108432,-3.388934251791264,1.0499383908175672,-0.0070000148853819645,-0.004999956491514864,-0.01200002195079368,-1.5297121114750453e-65,2.473240088381054e-66,1.4982121692860583e-64,-0.005433983426053501,-0.03734393163873406,0.15293864500816312,-6.053628044330545e-07,1.3888952793396373e-07,6.680368753188371e-07
1669909930260022214,18928,1669909930099604552,,-0.08851690027032598,-3.3882390460016762,1.0498755228806027,-0.001000014724719141,-0.001999955707695216,-0.005000021713871544,0.0,0.0,0.0,-0.0058647404787599555,-0.03489420490266504,0.15570697298393021,-6.055154704461624e-07,1.3959183090750725e-07,6.68464542361999e-07
1669909930311498116,18929,1669909930225981113,,-0.08858101534231536,-3.3885087040081974,1.0497540557846927,-0.001000014724719141,-0.001999955707695216,-0.005000021713871544,-1.30498211860773e-144,3.2096777218136446e-145,8.298047138352015e-143,-0.005788876236310969,-0.030760400240477992,0.157905226610918,-6.054049953328904e-07,1.4058903392600988e-07,6.687604965583425e-07
1669909930361242204,18930,1669909930275058175,,-0.08860664093642433,-3.388613542332742,1.0500717644564441,-0.001000014724719141,-0.001999955707695216,-0.005000021713871544,0.0,0.0,0.0,-0.0052878574501527,-0.0276072750735743,0.1588632467974911,-6.052433943606479e-07,1.4125395050519973e-07,6.68891741786208e-07
1669909930714013307,18931,1669909930318736244,,-0.08658227333079531,-3.387924980949327,1.0500035384296238,0.003999985167787715,-0.0009999553828080516,-2.1872386779357982e-08,0.0,0.0,0.0,-0.004603359642121774,-0.02477807679035493,0.159474075320297,-6.050991867798741e-07,1.4175280741049824e-07,6.689495265516928e-07
1669909930774634816,18932,1669909930449763700,,-0.08387820582327302,-3.3883350363147917,1.0503342408513585,0.009999985054383851,-0.002999955431979069,0.004999977960381716,0.0,0.0,0.0,-0.0021195652974501655,-0.01577863884523012,0.1607512014824053,-6.046357768693571e-07,1.4350210888901018e-07,6.691115579545545e-07
1669909930774755919,18933,1669909930543852075,,-0.08291094478931893,-3.3884632231836114,1.0503992528038266,0.009999985054383851,-0.002999955431979069,0.004999977960381716,-1.5725460863274251e-235,3.931365215818563e-236,-5.0321474762477604e-234,2.1065029152111947e-06,-0.008884693193076387,0.16120153483448796,-6.042725672558934e-07,1.4475001661020526e-07,6.691538775584206e-07
1669909930775810278,18934,1669909930576194024,,-0.082577550029286,-3.3885073106036976,1.0499141784326282,0.009999985054383851,-0.002999955431979069,0.004999977960381716,-1.9135996297205764e-141,-4.766538645115226e-142,-3.0513619266166185e-141,0.0005129830157812876,-0.007278024957589224,0.1612565988900485,-6.041886013351137e-07,1.4504168918137762e-07,6.691553198569922e-07
1669909930775818337,18935,1669909930612528279,,-0.08220286927172697,-3.3885568451015797,1.0500987422964463,0.009999985054383851,-0.002999955431979069,0.004999977960381716,-4.23101166583985e-153,-1.7239562811197493e-153,-6.920406091184795e-154,0.0014121359210932383,-0.004575573784718401,0.1612877961079402,-6.040659341701071e-07,1.4544234088098518e-07,6.691514726006314e-07
1669909930775821113,18936,1669909930653685917,,-0.08177767962415074,-3.388613054677318,1.0503062055294092,0.009999985054383851,-0.002999955431979069,0.004999977960381716,-8.644689833336466e-306,-1.2239121746826332e-307,-3.2249890296830634e-307,0.002608520170442219,-0.0009797914703373323,0.1612593824320001,-6.038989654176439e-07,1.459983314402532e-07,6.691128156148545e-07
1669909930916206311,18937,1669909930686423532,,-0.07921533100678978,-3.3887425046248554,1.04988426632597,0.014999791219202127,-0.0039999170094979905,0.008999822786362629,-1.231276e-318,-4.104253e-318,-1.723787e-317,0.0028792738538179208,-0.00014225676777179785,0.16127872836582924,-6.038227541218877e-07,1.4621265833938261e-07,6.69096034217965e-07
1669909931265324051,18938,1669909930858576016,,-0.07603414722847113,-3.3873755276359496,1.0496490253457127,0.016999984345460593,4.3316717116860486e-08,0.00899997691496493,-1.4489707048834027e-279,-3.439205009248997e-283,-4.1788641690722066e-278,0.008106003037678278,0.013865092232002496,0.15976120236224212,-6.031224142163216e-07,1.480246871558729e-07,6.687478962696631e-07
1669909931422438280,18939,1669909930959838693,,-0.07432078675998481,-3.3871072077855473,1.0496537570382092,0.016999984345460593,4.331671711686048e-08,0.00899997691496493,-1.1089871315674391e-142,-7.079315041115883e-140,-2.7696031205120414e-143,0.010237570280560604,0.01957194203204793,0.1583939041818514,-6.029659247486188e-07,1.4869337234721304e-07,6.685207866220825e-07
1669909931423236882,18940,1669909931005721563,,-0.07574507508406995,-3.3861055350193574,1.050039258185559,0.011999983924754046,0.0030000425819148675,0.0059999762945681795,6.692267102986655e-138,2.6915791661837946e-139,3.051849276701741e-136,0.010775049933615222,0.021012251710892826,0.15810874098353622,-6.02809002993221e-07,1.4928443292354623e-07,6.684038567858808e-07
1669909931481118432,18941,1669909931146061206,,-0.07431288573644941,-3.3842585031796326,1.0503206949737425,0.011999983426224478,0.0060000416715790495,0.00599997555940937,0.0,0.0,0.0,0.012729717612458558,0.030111984056590657,0.15452839983036348,-6.028513744632361e-07,1.5050065228666876e-07,6.678271439255146e-07
1669909931481143053,18942,1669909931282718318,,-0.07279148143117271,-3.3832038447056743,1.0498966077720564,0.011999983426224478,0.0060000416715790495,0.00599997555940937,-6.768118642861259e-44,-2.5808469524880615e-44,-2.035219132539595e-42,0.012642877508865169,0.03347427410120041,0.1523436008026664,-6.030216534778905e-07,1.5079416462509375e-07,6.674948779731543e-07
1669909931481814944,18943,1669909931329302660,,-0.07227180319885684,-3.382844974182399,1.0501607834681306,0.011999983426224478,0.0060000416715790495,0.00599997555940937,0.0,0.0,0.0,0.012380557414866544,0.034280738945625444,0.15139619896115164,-6.031185824004694e-07,1.5080687632977003e-07,6.673677408353242e-07
1669909931625517063,18944,1669909931357500873,,-0.07329765035587009,-3.3823991674558695,1.0501573638285893,0.008999982860179893,0.007000040601902283,0.002999974724689242,-2.0613125911322352e-157,3.771186200017069e-157,-3.4418086682412354e-158,0.012302920158234087,0.03443434085857788,0.15116872580359164,-6.031482497577851e-07,1.5079751625108906e-07,6.673412125843294e-07
1669909931771297312,18945,1669909931492721824,,-0.07222121056316098,-3.3812847803461814,1.0499881242526719,0.008999982860179893,0.007000040601902283,0.002999974724689242,0.0,0.0,0.0,0.010843979014376615,0.034951986377027566,0.14815916663688888,-6.035375804033871e-07,1.5053194820002152e-07,6.669163260339396e-07
1669909931846605818,18946,1669909931549809545,,-0.07363313498747712,-3.3810838321348986,1.049994903086778,0.0049999825641850685,0.007000039872692232,-2.5711800820393855e-08,0.0,0.0,0.0,0.00986386387951299,0.03406630567729252,0.1466818156928511,-6.037509575819778e-07,1.502296782183941e-07,6.667223365606191e-07
1669909931881493693,18947,1669909931690790752,,-0.07444978469806877,-3.380201282667387,1.050032004051219,0.001999982452267302,0.007000039328754459,-0.002000025876840845,2.437923769852576e-294,6.171988834406919e-295,7.78067123347605e-296,0.00807231771577932,0.031487875299454515,0.1444502842874016,-6.041594859141346e-07,1.4955528141247667e-07,6.664161640792432e-07
1669909932030768013,18948,1669909931844054746,,-0.07522391182339648,-3.3792256258214812,1.0498619382380907,-1.7504043917006822e-08,0.007000039045319348,-0.003000025812414993,7.229102426247513e-79,3.893880823516074e-79,2.4528498713091562e-80,0.005384474816665374,0.0254323035320283,0.14219422127782266,-6.046267026675254e-07,1.484099300273559e-07,6.662842864879107e-07
1669909932326307722,18949,1669909931993666672,,-0.07707636883947834,-3.379345386811739,1.0500408997752042,-0.00400001733716396,0.005000038987974549,-0.005000025566324733,1.8263975409273461e-65,-6.775623210587264e-66,-5.318677700193197e-63,0.0027936652922839755,0.01745378351745508,0.14121900582913938,-6.051512249480964e-07,1.4680626226672932e-07,6.66321472149773e-07
1669909932347904057,18950,1669909932142701995,,-0.07939503775276506,-3.380293978143754,1.0497902257077032,-0.008000017079556797,0.0020000391676008194,-0.006000025186443204,-1.4094360326617038e-144,-7.59377119815069e-146,-2.3456747374495664e-143,0.0012560609585783311,0.010260991136632924,0.1414100259081188,-6.053824574733693e-07,1.455332072697222e-07,6.664984898307448e-07
1669909932469951832,18951,1669909932293136676,,-0.08186686188549441,-3.38125708186865,1.0501392560047347,-0.01100001678051759,3.9555474474865806e-08,-0.008000024745463729,-8.171573916534846e-231,-5.828791269442182e-230,-3.26067478177391e-230,-0.00048546672952198833,-0.0012757662473976694,0.14290245491318387,-6.056905459134351e-07,1.4367966887846238e-07,6.669457600242468e-07
1669909932539579031,18952,1669909932428683335,,-0.08333831209593073,-3.3814704820950623,1.0495814079641088,-0.01100001678051759,3.955547447486581e-08,-0.008000024745463729,-1.1925825734084475e-79,-8.436798512643493e-80,2.4057146197568338e-79,-0.001323169261235435,-0.01043429478697,0.14524020827165174,-6.05802839732736e-07,1.4242982818509732e-07,6.674749857011819e-07
1669909932840298478,18953,1669909932499737691,,-0.08522483749407334,-3.382586927440299,1.0499279965720802,-0.014000016249688272,-0.001999959452135858,-0.007000023962673949,4.352954377275758e-65,4.052452225924436e-68,5.391171874594744e-63,-0.0017487057293124053,-0.014256949450135892,0.14654974464397696,-6.059618950302496e-07,1.419431857561884e-07,6.677579497312202e-07
1669909932898290474,18954,1669909932627084722,,-0.08559891503030469,-3.3833405780831023,1.049878006262709,-0.011000016038265855,-0.002999958902683147,-0.005000023650898957,4.0815739436927734e-143,1.6038395855193323e-143,3.6193327790157055e-141,-0.0027918966205326967,-0.020563823083655564,0.14922941316137184,-6.062498803976464e-07,1.4100498649092406e-07,6.68313041169937e-07
1669909932898390711,18955,1669909932756970138,,-0.08693801499690204,-3.3839395122513625,1.0497126975153999,-0.011000016038265855,-0.002999958902683147,-0.005000023650898957,0.0,0.0,0.0,-0.0041456215268684815,-0.025943143230955812,0.1520578073917065,-6.065290498694966e-07,1.4024218692614374e-07,6.688599403867376e-07
1669909932924072159,18956,1669909932797207573,,-0.08735174794232002,-3.3841258986074365,1.0500534639959276,-0.011000016038265855,-0.002999958902683147,-0.005000023650898957,0.0,0.0,0.0,-0.00487786264442569,-0.0285857834125256,0.15370708624364937,-6.06652398084716e-07,1.3992363281450436e-07,6.691645467003334e-07
1669909933054107367,18957,1669909932848274961,,-0.08835831007048162,-3.3840068084447004,1.0497816616946647,-0.012000015671655337,-0.0019999576913548502,-0.005000023110275149,-6.759791325042158e-219,-2.1802805317459105e-220,-7.086124168328258e-217,-0.005312082998585765,-0.03029855919546698,0.15492832442458848,-6.066921769658625e-07,1.397773663578247e-07,6.693527489134543e-07
1669909933381780847,18958,1669909933015188068,,-0.08843896497855512,-3.385251143143695,1.0499594272718258,-0.008000015468791016,-0.003999956990174233,-2.2811120391898884e-08,-3.5830459274119566e-232,-3.382540784190033e-232,9.663254318780382e-232,-0.006008181541357516,-0.0348600552418219,0.15911899937428586,-6.066784935024256e-07,1.3950201118839184e-07,6.700308711272376e-07
1669909933405914971,18959,1669909933151782804,,-0.08766823940107087,-3.3860364971474803,1.0499145445543048,-0.0030000151188735854,-0.0049999560494904645,0.00499997770488688,-8.668395567983375e-301,-4.157092173425159e-301,-2.8682579256383773e-299,-0.005298234569993454,-0.035265669015759116,0.1613028460534185,-6.064503265281142e-07,1.39744752027542e-07,6.703635218977257e-07
1669909933408930239,18960,1669909933269154990,,-0.08794177009550351,-3.386672543998581,1.0500183761692619,-0.0030000151188735854,-0.0049999560494904645,0.00499997770488688,-3.346441726750289e-65,1.4598243263668994e-66,-2.8673525286820695e-64,-0.003943195597578608,-0.034230819676839275,0.16308620555766495,-6.062390084385085e-07,1.4012810626379429e-07,6.706165710940486e-07
1669909933408978432,18961,1669909933307971497,,-0.0880317594226348,-3.386883183924028,1.050209116226282,-0.0030000151188735854,-0.0049999560494904645,0.00499997770488688,-3.925885921983262e-223,-7.869871482851362e-224,-2.3291984032890935e-220,-0.003237391202185691,-0.03343893161424916,0.16378327024877493,-6.061136098859499e-07,1.403320020637127e-07,6.707310611166919e-07
1669909933418543725,18962,1669909933348484015,,-0.08812539433689694,-3.38710318728909,1.0499209616813108,-0.0030000151188735854,-0.0049999560494904645,0.00499997770488688,-8.217546274906742e-66,3.4596218608396115e-66,1.509894523248619e-63,-0.0022694105270542053,-0.03221112254690084,0.16460436659477296,-6.059545413748873e-07,1.406391901253877e-07,6.708651402592594e-07
1669909933858570545,18963,1669909933397389930,,-0.08705773418065557,-3.3871710671327886,1.0502638900602408,-1.4936476835318252e-08,-0.00499995544758892,0.007999977973859046,0.0,0.0,0.0,-0.002032019549591979,-0.031903281488959934,0.16482173434760483,-6.058751894731438e-07,1.407511232825092e-07,6.70935207097405e-07
1669909933964154690,18964,1669909933617494549,,-0.08515815989183531,-3.388416636905373,1.0506388816911034,0.003999984965103681,-0.005999955221012235,0.011999977828724322,-3.764453970167362e-297,8.466354625263833e-299,-5.57613589366727e-296,0.002934186186974941,-0.022510866857883727,0.16786379654702088,-6.05169730040903e-07,1.426254248932089e-07,6.71444220569026e-07
1669909934025355537,18965,1669909933761553679,,-0.08328100671341289,-3.388540535627299,1.0589224450499757,0.006999984760574798,-0.004999955287034878,0.01399997752711491,4.411212400359519e-78,4.779888192909591e-79,1.7734369576127605e-78,0.005410021277064914,-0.015994403213774433,0.1687255119674731,-6.0488722358753e-07,1.438465110482854e-07,6.714958970868099e-07
1669909934050921533,18966,1669909933922544762,,-0.08205968416261153,-3.389163523798656,1.0606788607561086,0.006999984760574798,-0.004999955287034878,0.01399997752711491,-5.444824905097905e-302,-2.3282163525701135e-299,-1.88126076122037e-297,0.0078899566835684,-0.00582565657674472,0.16897005123483133,-6.046788581371454e-07,1.456721894031551e-07,6.71509316054138e-07
1669909934403266438,18967,1669909934019487720,,-0.08009500799026469,-3.3883777139012348,1.0609745476214565,0.009999984301234622,-0.002999955707085534,0.01799997684974691,0.0,0.0,0.0,0.009012499386511053,0.002267852585115193,0.16867534983227728,-6.046966269550519e-07,1.469705261968557e-07,6.714029264441721e-07
1669909934448286063,18968,1669909934166124562,,-0.07783916746118683,-3.3869617946993014,1.0600265145285865,0.01199998402205466,4.3938498133725524e-08,0.019999976438052954,4.1846478679190634e-64,-1.7429668599464602e-65,3.736013470069833e-62,0.00934197118181146,0.009690120206514052,0.16798279452230958,-6.048338898278035e-07,1.4799937346942386e-07,6.712538216000005e-07
1669909934498212747,18969,1669909934306035154,,-0.07517384444661374,-3.3865321956088685,1.060753234098146,0.01399998368448045,4.337717965608729e-08,0.018999975940247667,7.004007681719798e-297,3.1285304543935198e-298,1.163109421013428e-295,0.008802951139410098,0.019924871151454582,0.166194867296106,-6.051454961228404e-07,1.4946407883059666e-07,6.709134830447347e-07
1669909934617302659,18970,1669909934460889961,,-0.07325763243048153,-3.3845080804406624,1.059786545445686,0.013999983211036817,0.00400004226898698,0.017999975242081943,5.444997955874337e-309,6.93209123758414e-309,1.433613319909e-311,0.007721019192816314,0.025766926608056906,0.1645063262288673,-6.054354157187875e-07,1.50147897690092e-07,6.706237898549025e-07
1669909934789632054,18971,1669909934580024463,,-0.07162852458063138,-3.383771735003095,1.0601595756942686,0.013999983211036817,0.00400004226898698,0.017999975242081943,5.145404709584553e-184,6.92693752702227e-184,-8.209793334866759e-181,0.005794917990531445,0.0312951280041851,0.1618083080376067,-6.058042055287209e-07,1.506763115738379e-07,6.702348059718273e-07
1669909934902200850,18972,1669909934689968605,,-0.07129990376633275,-3.3818597377165482,1.0607961637326957,0.011999982966480733,0.007000041271165741,0.014999974881446243,4.323593007876984e-223,1.0329686267218732e-222,4.335905363550356e-220,0.0037353266806938734,0.034279266861046764,0.15918180333806298,-6.062280666834496e-07,1.508413646157677e-07,6.698630456649866e-07
1669909935057170913,18973,1669909934863080382,,-0.07143801110247115,-3.380658771288118,1.0689240649625953,0.007999982886666361,0.0070000406071499145,0.010999974763747629,8.116064524853127e-66,-2.890678435824575e-66,2.0248854185148892e-64,0.0013805615156137208,0.03477887225837506,0.15650039641205815,-6.066769508262284e-07,1.5057457868716206e-07,6.695248852460772e-07
1669909935430520065,18974,1669909935018073434,,-0.07250593222458061,-3.3792065442170243,1.0702416730441355,0.003999982902103868,0.008000039975058002,0.007999974786512617,2.1183882167244934e-145,7.725745103124722e-147,-5.693056177091877e-143,-0.0005265203186368694,0.03262780727986225,0.15434950224832988,-6.069546873065122e-07,1.4992677567971733e-07,6.692877967359161e-07
1669909935497708862,18975,1669909935180203184,,-0.07385799116156842,-3.379644302931041,1.070059965929758,-1.697216699125777e-08,0.005000039491135626,0.0039999749719196445,-4.899515684772991e-108,-3.6356042164911897e-110,-3.862717841867245e-106,-0.0020608420348473544,0.026377513041689227,0.15232654077172825,-6.071747116233611e-07,1.4857737702838536e-07,6.691586690908495e-07
1669909935526977960,18976,1669909935340239658,,-0.07479801742957998,-3.379940844293086,1.0699666051930303,-0.002000016719832095,0.0030000392980167783,0.0009999753440264039,-1.5321574525509699e-220,-5.553422539670221e-220,-1.4523929094841408e-219,-0.0029376366016986566,0.01866356004691383,0.15160275510752186,-6.073412247957163e-07,1.4714719803196791e-07,6.692086915477131e-07
1669909935717085480,18977,1669909935487130749,,-0.07745191903277221,-3.380383803314939,1.0699585580484436,-0.007000016493777874,0.0020000394466674542,-0.002000024322621748,2.8967351154465064e-197,3.3194512208021036e-196,-1.680166617165176e-198,-0.0037305015843784872,0.008399625148939549,0.15185015152636083,-6.075152948857838e-07,1.4554383823406548e-07,6.694253522961977e-07
1669909935877107925,18978,1669909935678679820,,-0.08014254416838625,-3.3813938831662913,1.0699293102363998,-0.010000016266815043,3.984042116914403e-08,-0.005000023987930017,0.0,0.0,0.0,-0.004420196364314677,-0.0040301372920872325,0.15331272523139639,-6.076739039419456e-07,1.4343767419978733e-07,6.698538878945772e-07
1669909936015342885,18979,1669909935837644438,,-0.0834996245478549,-3.381924171667353,1.0703042982887367,-0.014000015992328854,4.060312471570503e-08,-0.009000023583157756,-1.4733768200793413e-79,-1.1414758746943756e-78,5.11064143504205e-78,-0.00452196688878459,-0.018045954603381986,0.15599205234795477,-6.076747914496082e-07,1.4118305989845042e-07,6.704428746771139e-07
1669909936163092125,18980,1669909935974977504,,-0.08596542646856273,-3.3841051904136346,1.0699006320174238,-0.016000015768528858,-0.003999958671698645,-0.011000023253130112,-1.1866730851274862e-140,4.069383816225304e-141,1.5548785902974965e-138,-0.0037996530537220963,-0.030052742270690658,0.15869340419682487,-6.074786915682533e-07,1.3952755933276191e-07,6.708891594980794e-07
1669909936236173692,18981,1669909936124483108,,-0.08817543940664664,-3.3850717446235445,1.0693252202745025,-0.016000015768528858,-0.003999958671698645,-0.011000023253130112,-1.1604018113288702e-300,-1.3172443477942947e-299,6.180464033976928e-300,-0.002221341426228207,-0.041303249968605016,0.16139054587895885,-6.071800070583239e-07,1.3789325673553443e-07,6.713607626526537e-07
1669909936546749268,18982,1669909936199851569,,-0.09021523362144161,-3.3879148431994093,1.0695479746084182,-0.019000015396665744,-0.008999957242240725,-0.012000022704760548,0.0,0.0,0.0,-0.0011271201004134923,-0.04730027133449077,0.16292597149930366,-6.070337419314872e-07,1.370738358469638e-07,6.716234335123264e-07
1669909936602579742,18983,1669909936329317149,,-0.0916970844834159,-3.388449256035805,1.0693602780606482,-0.017000015229564354,-0.006999956451948714,-0.009000022458343747,7.510120154880964e-232,3.193378484175479e-230,5.267026176359977e-229,-0.00042640591973608366,-0.05637924366260094,0.16539559999305808,-6.073797476848255e-07,1.361141041044028e-07,6.719570824316531e-07
1669909936634030891,18984,1669909936459778324,,-0.09171573212673295,-3.386401347468008,1.0700454070406453,-0.01100001507273386,4.458475907302001e-08,-0.006000022227072976,1.0991864146342295e-64,-1.9353727432690155e-65,-3.4690596525847064e-63,-0.0016102377074389551,-0.059572217074180145,0.16633762133168162,-6.077154147940086e-07,1.3608210857778768e-07,6.720279226718022e-07
1669909936694406089,18985,1669909936594326369,,-0.09312448996599366,-3.38664001856017,1.0698143865118286,-0.01100001507273386,4.458475907302001e-08,-0.006000022227072976,7.0053015964393e-82,2.5626927040415816e-82,2.1314912999314606e-81,-0.0033762086379205414,-0.060042870773662216,0.16674845813904682,-6.080274076707167e-07,1.3665807225934394e-07,6.720336604009915e-07
1669909936907780547,18986,1669909936649398410,,-0.09109552777540017,-3.385817863641305,1.070019681541026,-0.0050000150292831644,0.0010000454074181899,-0.0010000221629982145,1.6589684088702692e-217,1.5906208624435988e-221,3.1151508587360762e-220,-0.003987100808759081,-0.05840057990696934,0.16667284116954306,-6.080804790129251e-07,1.37347121580989e-07,6.720004387535128e-07
1669909936954512620,18987,1669909936770385885,,-0.09170429655171107,-3.385798212007461,1.0699918783774403,-0.0050000150292831644,0.0010000454074181899,-0.0010000221629982145,-7.748902997588884e-145,-8.59431919133066e-147,-7.869959506237959e-142,-0.004250434792181679,-0.05090618141657188,0.16601649656048423,-6.080645187703996e-07,1.3928678909907122e-07,6.718654644954488e-07
1669909936996271393,18988,1669909936823791229,,-0.08787084177214276,-3.385524848999931,1.0704319670316726,0.004999985036015946,4.631959363418299e-08,0.006999977933295405,0.0,0.0,0.0,-0.00403601481301763,-0.04424209402544044,0.1653356668710444,-6.079642348912643e-07,1.4073283808027264e-07,6.717411898635957e-07
1669909937066943439,18989,1669909936958938468,,-0.08724476903136723,-3.385416779964997,1.0699412931901153,0.004999985036015946,4.631959363418299e-08,0.006999977933295405,0.0,0.0,0.0,-0.0030050089310513783,-0.03207386421545344,0.16400701595650524,-6.07721245545962e-07,1.4305727090584407e-07,6.715014265809259e-07
1669909937108561753,18990,1669909937021386227,,-0.08695075873877707,-3.385366816769215,1.0703881048070616,0.004999985036015946,4.631959363418299e-08,0.006999977933295405,-1.1289616843177741e-296,-2.5106240547545112e-300,-1.176811486195372e-297,-0.002211720679650142,-0.02528883962810191,0.1631463973495535,-6.075713385526535e-07,1.4425158833921984e-07,6.713478434297196e-07
1669909937296154010,18991,1669909937063431418,,-0.0834098825349295,-3.384765560637618,1.069985231591333,0.012999985183028442,4.6528307485290236e-08,0.012999978150088024,-6.202450018683091e-144,7.510449801225074e-144,1.1093872182403556e-141,-0.0011874708394792322,-0.01807239593110488,0.16217185829276204,-6.073612447011294e-07,1.4543146102222017e-07,6.711992357086647e-07
1669909937591950461,18992,1669909937249928066,,-0.07723788582754174,-3.3842339877367977,1.0697791454390966,0.02099998500965242,-0.0009999539542805554,0.014999977894418315,5.8353272114704466e-154,1.624265517406867e-154,-1.6823151571007378e-155,0.0028205877093938625,0.005453409228245221,0.15859157877832786,-6.067067057624449e-07,1.492510161730332e-07,6.705985062660366e-07
1669909937616509521,18993,1669909937402458281,,-0.0727461530997221,-3.3840927232442906,1.0704808735207012,0.023999984458839833,-0.0019999554447466556,0.01299997708216012,1.1251102851759204e-296,-1.9945063697851544e-298,1.100982345621124e-295,0.006362631569102106,0.027023535044921942,0.15476084728559591,-6.063678910137627e-07,1.5248947277439606e-07,6.700124180540539e-07
1669909937616588830,18994,1669909937521538981,,-0.06984012735137006,-3.3838921216714284,1.0706675372128693,0.023999984458839833,-0.0019999554447466556,0.01299997708216012,0.0,0.0,0.0,0.007889259779275903,0.0404600900585077,0.15212962313950307,-6.062434988718503e-07,1.5450002806216564e-07,6.695965003778336e-07
1669909937667825655,18995,1669909937579036057,,-0.06842857279888528,-3.3837981802976427,1.0706069386509136,0.023999984458839833,-0.0019999554447466556,0.01299997708216012,-4.2770740485062595e-307,6.537178910505233e-309,-1.759357281960009e-306,0.008229530145232644,0.044237448363606546,0.15133462744766746,-6.062239945043374e-07,1.5508734656193807e-07,6.694659060058582e-07
1669909937803704363,18996,1669909937617541123,,-0.06833705035069784,-3.3814689868306798,1.0708965797679577,0.022999983894547524,0.0030000430762578585,0.010999976250024001,0.0,0.0,0.0,0.008980449422036685,0.05343404872898816,0.14924353493508136,-6.061808964773923e-07,1.562878668111868e-07,6.691381858049138e-07
1669909937952312307,18997,1669909937757442714,,-0.06567751806310203,-3.3798778765606823,1.0701019791772457,0.022000030936152333,0.004999944707662829,0.00800011876735772,-6.964511896886882e-214,-9.74841076239501e-215,-1.3875631283048226e-214,0.009769727933477412,0.0650047938747953,0.14614098695235178,-6.061230192615613e-07,1.5785820416933267e-07,6.686626452094596e-07
1669909937970607894,18998,1669909937883000886,,-0.0629723699710706,-3.3788590993653935,1.0651915917570656,0.022000030936152333,0.004999944707662829,0.00800011876735772,4.244621537916063e-65,1.840446556423962e-67,7.024931001534416e-64,0.010152278710901186,0.07406544192037856,0.1431855056613962,-6.061998594653174e-07,1.589194512053219e-07,6.682838023205177e-07
1669909938066869141,18999,1669909937924578888,,-0.06286037095604574,-3.3793433185916433,1.0646449555200759,0.01999998237298393,0.003000038636624504,-2.5993756411261332e-08,0.0,0.0,0.0,0.010079366595475037,0.07619710072264141,0.14242136644236147,-6.062842627297055e-07,1.5906410608074592e-07,6.682254534954349e-07
1669909938104100776,19000,1669909938021095484,,-0.06099594771123846,-3.378784978892773,1.0606552361767896,0.01999998237298393,0.003000038636624504,-2.5993756411268456e-08,0.0,0.0,0.0,0.009533048373848274,0.07967395811834699,0.14109287508856205,-6.065119737560316e-07,1.593640270325078e-07,6.68127900840855e-07
1669909938133151032,19001,1669909938063635480,,-0.060174119690149665,-3.378539800779803,1.0600562373069025,0.01999998237298393,0.003000038636624504,-2.599375641126863e-08,0.0,0.0,0.0,0.009331391999953809,0.08028823288871223,0.14084945747196187,-6.065824075252907e-07,1.5940476846357615e-07,6.681136234221965e-07
1669909938149200818,19002,1669909938090148846,,-0.05966191058619378,-3.3783869948550076,1.0600146966721515,0.01999998237298393,0.003000038636624504,-2.599375641126863e-08,6.18131551574886e-140,-3.092328820171002e-140,-2.4002323680720167e-135,0.00931372117099194,0.0802054169856028,0.14087163550603243,-6.065868861251863e-07,1.594021777630854e-07,6.681126516846451e-07
1669909938194274638,19003,1669909938110916742,,-0.05926070775721954,-3.3782672093873614,1.0599823438762666,0.01999998237298393,0.003000038636624504,-2.599375641126863e-08,4.5431899894839986e-231,-5.856660597634071e-230,4.194740191578391e-231,0.008223469894293345,0.08158222993238518,0.1402197392565494,-6.068545710546869e-07,1.5938588376986898e-07,6.681073943909044e-07
1669909938323245504,19004,1669909938148607148,,-0.061639157245575546,-3.3789163820614516,1.0601918176417586,0.012999982016927782,0.002000037195641808,-0.005000026518816176,1.436024272744932e-43,1.3808820667091328e-44,1.7462598664887968e-42,0.0077148236191835196,0.08214760843999613,0.13994660237235834,-6.07034319641079e-07,1.5931635924195094e-07,6.68121951928801e-07
1669909938616978412,19005,1669909938281371332,,-0.0621384919158531,-3.379540712886405,1.0599322085465241,0.00799998179536482,3.6089484973383464e-08,-0.010000026845544966,0.0,0.0,0.0,0.00510428314316691,0.08186489217816018,0.13979069925785836,-6.075785723602202e-07,1.589170477308228e-07,6.68289311206053e-07
1669909938681437131,19006,1669909938398331168,,-0.06333206754020529,-3.379693703701652,1.0597003538867242,0.002999981736738818,3.540395665578947e-08,-0.014000026931998056,1.474818053387335e-157,1.1826692634450063e-157,0.0,0.0020325556367648545,0.07935847651956607,0.1405511037312408,-6.081546618992192e-07,1.5819747095722667e-07,6.685937337418275e-07
1669909938681584748,19007,1669909938504416091,,-0.06313320748729183,-3.379663686410697,1.0596257903382449,0.002999981736738818,3.540395665578947e-08,-0.014000026931998056,1.1831348961516683e-145,4.4086041997284746e-148,3.802184676002842e-145,-0.00026954346144947294,0.07621931439949137,0.141661835268442,-6.085952165075566e-07,1.575016579317392e-07,6.688874565533693e-07
1669909938739471823,19008,1669909938555308297,,-0.0650618625150266,-3.379932206754574,1.0605233092155908,-0.0020000181380141722,3.509960732447212e-08,-0.017000026747302006,0.0,0.0,0.0,-0.001979883098311319,0.07321042853202187,0.1427559979920474,-6.088762719665651e-07,1.5689031992624817e-07,6.691390956364982e-07
1669909938781136594,19009,1669909938694831501,,-0.06550368591635355,-3.380002695423106,1.0517188873725374,-0.0020000181380141722,3.5099607324472045e-08,-0.017000026747302006,0.0,0.0,0.0,-0.005028070711619037,0.06401001370155335,0.14615130043157443,-6.092173067079188e-07,1.5523611992381731e-07,6.698032082800895e-07
1669909938976996564,19010,1669909938742124763,,-0.06776468600092132,-3.381195951506334,1.0505525232894783,-0.0070000178688401325,-0.001999964838981812,-0.02100002635036333,0.0,0.0,0.0,-0.0056622223736404464,0.06081361898932158,0.14735143737898326,-6.093334250588491e-07,1.5449134504137667e-07,6.701064110980021e-07
1669909939029483900,19011,1669909938856667277,,-0.06967704684431288,-3.383310976257216,1.050511463116382,-0.010000017476567834,-0.005999964446418849,-0.024000025771897266,-3.947802146021171e-65,1.4707160087286294e-66,8.085118895121807e-63,-0.0063824971465233915,0.05114001540445301,0.15100904668895154,-6.093693831750161e-07,1.5274505436857277e-07,6.708132243345184e-07
1669909939131424143,19012,1669909938993345554,,-0.07105598045416409,-3.3843719928187688,1.0496620183146388,-0.010000017476567834,-0.005999964446418849,-0.024000025771897266,-4.6863056965737457e-64,-2.8269989565745054e-65,9.87555275388385e-63,-0.006154120909290128,0.04263289274048354,0.1542786871297679,-6.092679271707033e-07,1.5123889635893806e-07,6.714326025219016e-07
1669909939283677153,19013,1669909939083706962,,-0.07268852590159101,-3.3865291178660817,1.0499761756793202,-0.012000016954869932,-0.008999963610391687,-0.02700002500257317,3.134811550223879e-64,-7.011258138470246e-66,7.26386323173676e-63,-0.005315542468613543,0.03365300671663718,0.15773533641886495,-6.090889589023712e-07,1.4974160651176017e-07,6.720427907370315e-07
1669909939655308651,19014,1669909939245142877,,-0.07518332706428707,-3.3897894798635924,1.0483897805569717,-0.01400001658076411,-0.011999962657444161,-0.028000024450896385,0.0,0.0,0.0,-0.002815407150009719,0.017674061697730892,0.1638634050458343,-6.086702054693537e-07,1.4711447575398035e-07,6.730987093566984e-07
1669909939716025110,19015,1669909939451785369,,-0.08017442612392886,-3.3942255677568385,1.0410363670701928,-0.019000016357194106,-0.01399996181972103,-0.030000024121207895,0.0,0.0,0.0,0.0010199540995543543,-0.004049704783627206,0.17155637040163896,-6.08117551177194e-07,1.4370989882857455e-07,6.742627023500461e-07
1669909939819638770,19016,1669909939617298137,,-0.08393623132798235,-3.396239380130895,1.0388048523103155,-0.021000016102638228,-0.011999960067045075,-0.02900002374582596,0.0,0.0,0.0,0.004395959567617069,-0.021976996146717553,0.17587621657566643,-6.076367555316965e-07,1.407928092176349e-07,6.747929385656574e-07
1669909940066349018,19017,1669909939775115332,,-0.08756920108735576,-3.396790883743184,1.0402944954528426,-0.02200001602196737,-0.007999958791932597,-0.029000023626864328,-1.0248223358017284e-63,8.810873194402886e-65,-9.597807276501045e-63,0.0075520868582774625,-0.037732318204474424,0.17810418664356398,-6.072413790024188e-07,1.3862437693285358e-07,6.750193110876465e-07
1669909940116673422,19018,1669909939934514101,,-0.08909199441651962,-3.397911264683352,1.0388758479818565,-0.01800001592025135,-0.00699995686109142,-0.024000023476868346,8.40085470124423e-65,-5.418006722061089e-65,-5.31418998811656e-63,0.008151706899070632,-0.04435463696167119,0.17867641007404522,-6.077610178783281e-07,1.3824288832045122e-07,6.750405626841778e-07
1669909940198376676,19019,1669909940086851530,,-0.09142823277840709,-3.399403746321187,1.0308618722160685,-0.01800001592025135,-0.00699995686109142,-0.024000023476868346,0.0,0.0,0.0,-0.0038150946312534018,-0.04815061826398548,0.17816963773557504,-6.113461819484298e-07,1.3875724401027429e-07,6.747769496878857e-07
1669909940370337407,19020,1669909940162802187,,-0.09123537981317488,-3.389312104649082,1.0305892550769093,-0.011000307056858016,0.013999170776163162,-0.013000480982384346,0.0,0.0,0.0,-0.01257639301979907,-0.04685548302684772,0.17699170379113305,-6.128119143156149e-07,1.392511619266e-07,6.745350715270813e-07
1669909940692104969,19021,1669909940332936084,,-0.09073205928181399,-3.3827165730251525,1.029648704830084,-0.003000015879555366,0.023000045657505016,-0.005000023416855841,0.0,0.0,0.0,-0.030215742145559332,-0.040547421030748154,0.17275982302102832,-6.148588522429059e-07,1.407913714500324e-07,6.738374794671303e-07
1669909940738585710,19022,1669909940464836129,,-0.08962841978219459,-3.380849088477752,1.029955002099089,0.000999984404845813,0.02000004587441319,-2.2997462395373462e-08,-2.360924425608428e-154,1.1565107336592304e-156,3.986799457711247e-158,-0.03536658823569638,-0.03452220555006136,0.16959669668221977,-6.150042431026538e-07,1.4211298007025514e-07,6.732817989181276e-07
1669909940738589015,19023,1669909940596897653,,-0.08993811929577127,-3.378223989963009,1.0299958289920512,0.000999984404845813,0.02000004587441319,-2.299746239537276e-08,2.2761049594727193e-159,-5.6902623986817984e-160,2.2761049594727193e-159,-0.031160469888311226,-0.023713732660377573,0.16454086363138565,-6.130141944292403e-07,1.4420689424255718e-07,6.725068753843051e-07
1669909940821105385,19024,1669909940649831484,,-0.0873820189500351,-3.383112596124743,1.0302274427841023,0.004999985846634657,0.005000045680995768,0.003999979128677834,4.552209918945439e-159,1.8208839675781755e-158,3.641767935156351e-158,-0.03114373887229327,-0.02371792457657662,0.16454410239031958,-6.129003844439138e-07,1.441567663256523e-07,6.725352828270147e-07
1669909940953452872,19025,1669909940780653817,,-0.0844544616704664,-3.387221846883253,1.029698453917154,0.00899998675041836,-0.00799995469276838,0.008999980461446427,-1.2283685803420877e-282,-2.404182210404127e-281,-1.3997632324490636e-279,-0.018808058859697496,-0.014823793293095022,0.16061265746591147,-6.098541354648821e-07,1.455004090150744e-07,6.720179396246516e-07
1669909941073011294,19026,1669909940906415958,,-0.08319461333031083,-3.3880203368943445,1.0300064660307982,0.00899998675041836,-0.00799995469276838,0.008999980461446427,0.0,0.0,0.0,-0.0009591956597763129,-0.006556939971790854,0.156923582106673,-6.071969136241298e-07,1.4653197359769184e-07,6.715226111238445e-07
1669909941104823398,19027,1669909940967172663,,-0.08258201566336258,-3.3884154533742996,1.030556786639531,0.00899998675041836,-0.00799995469276838,0.008999980461446427,0.0,0.0,0.0,0.008948192491549989,-0.002318085439666717,0.15490304990631287,-6.057860755025101e-07,1.4712789214608073e-07,6.712290336038969e-07
1669909941256818251,19028,1669909941026714560,,-0.0809329790955011,-3.3925807081931127,1.0301705538072514,0.009999986729637509,-0.016999955539640642,0.008999980430801859,0.0,0.0,0.0,0.014370567661693201,6.180786608744882e-05,0.15376330969712626,-6.044064172804617e-07,1.4766999414589203e-07,6.710099753456571e-07
1669909941396294300,19029,1669909941221964093,,-0.08019898776954054,-3.393949779755945,1.0399675702388405,0.007000107123236539,-0.013000118032858977,0.009999938589737458,-1.7315109302239435e-142,7.260698358354051e-141,-3.5913429878841153e-140,0.04074239538316071,0.01164195095428866,0.14712510285659164,-6.012140450597446e-07,1.4914243867404447e-07,6.698766840368852e-07
1669909941441767496,19030,1669909941353966540,,-0.07901131031374306,-3.395568563931839,1.0405103291032505,0.007000107123236539,-0.013000118032858977,0.009999938589737458,0.0,0.0,0.0,0.04937264546921938,0.015663764031586425,0.14303748366454982,-6.005784758812613e-07,1.4955600629907006e-07,6.691914098036811e-07
1669909941764897872,19031,1669909941396552039,,-0.07955512454171693,-3.392790046838443,1.0399624360577606,0.005999983288247958,-0.004999957575133912,0.00899997535594169,0.0,0.0,0.0,0.05259943154627145,0.01768123128812782,0.1401185470520936,-6.006928401073995e-07,1.496901738666358e-07,6.687260337568956e-07
1669909941805346984,19032,1669909941551259362,,-0.08025088632579508,-3.3902972743956545,1.0403963366237086,0.002999981650872185,0.003000041446555886,0.008999972941378338,-2.4334456200210988e-223,1.2800219619075162e-221,-1.793312495177395e-219,0.05318775031266654,0.019615250586921817,0.1351644551238813,-6.014395188585907e-07,1.4972776088402397e-07,6.679369118024213e-07
1669909941849461301,19033,1669909941683497596,,-0.0815554573951875,-3.386814902659102,1.0397567123483773,-1.957556941632063e-08,0.011000040548211382,0.00799997113280086,0.0,0.0,0.0,0.04764862882163179,0.01932820205829522,0.12958493024700246,-6.031555644138378e-07,1.4929679263347514e-07,6.672355889433062e-07
1669909941972592888,19034,1669909941811673857,,-0.08348102602020029,-3.384075789254904,1.0405734244114986,-0.004000020301247024,0.015000039811529049,0.0049999700626772005,0.0,0.0,0.0,0.040343836096676355,0.017273720943103754,0.12662701434568469,-6.047649504427623e-07,1.4872800878865328e-07,6.670104126961684e-07
1669909942140723088,19035,1669909941927108371,,-0.08592766301740251,-3.382604410082274,1.040118033574935,-0.009000020389382971,0.015000039372981978,0.0009999699327071405,-1.3812681586607644e-154,-6.926348491593718e-155,-1.95648819484041e-155,0.030433622803789362,0.013548905042254589,0.12476191722399221,-6.066472392566113e-07,1.4792585201018485e-07,6.670096452717504e-07
1669909942165737891,19036,1669909942056269762,,-0.0873189497512974,-3.380829659191732,1.0399802073376436,-0.009000020389382971,0.015000039372981978,0.0009999699327071405,-6.223015277861142e-61,-1.2446030555722283e-60,-7.965459555662261e-59,0.020131832618847767,0.008867287290330594,0.12429377098460037,-6.084261930408273e-07,1.4702495642220077e-07,6.67185208032171e-07
1669909942251675860,19037,1669909942100421987,,-0.0899613507647501,-3.381216802537564,1.039953664140505,-0.015000019944668326,0.013000039268731008,-0.002000029411492464,-7.063038072986556e-195,-5.271585719238582e-196,1.2261314434839529e-197,0.015709502326908265,0.006522448658591529,0.12445619857534318,-6.090457031340458e-07,1.4664399245927786e-07,6.672821288480476e-07
1669909942308193134,19038,1669909942213513611,,-0.09182867330629661,-3.379966312936551,1.039913416749344,-0.015000019944668326,0.013000039268731008,-0.002000029411492464,1.371483395397724e-156,2.7603028074575857e-157,-1.4066389898337017e-156,0.005772593847378715,0.00047055560523823203,0.12542395031876552,-6.104287027671953e-07,1.4564014831988218e-07,6.676091142109313e-07
1669909942409154860,19039,1669909942260685776,,-0.09312858534583146,-3.380906559241534,1.0400118815081234,-0.0169999094920112,0.009000258328958226,-0.0029999731120909667,0.0,0.0,0.0,0.0014066167237416494,-0.002733935435756507,0.12625318210099934,-6.109051192284486e-07,1.4515325924787103e-07,6.678359033991492e-07
1669909942453497911,19040,1669909942370942459,,-0.09511190962963474,-3.380159205479654,1.0399793861523483,-0.0169999094920112,0.009000258328958226,-0.0029999731120909667,0.0,0.0,0.0,-0.004011978842582309,-0.007472438887317523,0.1279785206692292,-6.1146182866015e-07,1.4447865868619104e-07,6.682435106972158e-07
1669909942481453887,19041,1669909942408133000,,-0.09578076919682171,-3.3799078641398994,1.0398624451765612,-0.0169999094920112,0.009000258328958226,-0.0029999731120909667,0.0,0.0,0.0,-0.0074046446410669375,-0.01140732591410476,0.12995555646412527,-6.116239828265019e-07,1.4400105952614266e-07,6.686560348175204e-07
1669909942523373486,19042,1669909942440167920,,-0.0963568911604106,-3.379693121086809,1.0401057487146126,-0.0169999094920112,0.009000258328958226,-0.0029999731120909667,0.0,0.0,0.0,-0.007404664478325884,-0.011407321142566929,0.12995557785108502,-6.116239828265019e-07,1.4400105952614266e-07,6.686560348175204e-07
1669909942805231876,19043,1669909942465984677,,-0.09845974962864153,-3.3825614503334362,1.0400232185966496,-0.022000017712045593,0.002000040220219065,-0.003000026119145578,0.0,0.0,0.0,-0.008149833971240028,-0.01309062481489498,0.13108234977481636,-6.116065330784061e-07,1.4380231672553262e-07,6.688219784817181e-07
1669909942855903294,19044,1669909942589302226,,-0.1011757812605495,-3.3826756359438175,1.039919134133895,-0.022000017712045593,0.002000040220219065,-0.003000026119145578,2.635787404068099e-222,-5.2511215870611245e-220,2.6196805107204894e-218,-0.008895833317554391,-0.017736295621652687,0.1344355670792865,-6.112581986255921e-07,1.433398861560446e-07,6.693332857456443e-07
1669909942855918172,19045,1669909942634730794,,-0.10045654634392963,-3.3862911765907464,1.040011686806959,-0.019000016642710258,-0.006999959050910597,-2.4542245543549345e-08,1.5656747155453028e-282,9.772615308544665e-282,1.2769811561299978e-281,-0.00876038201938023,-0.018604355044981702,0.13518192055953193,-6.109824622298508e-07,1.4328190523399706e-07,6.69518573226471e-07
1669909942954927535,19046,1669909942774322086,,-0.10075011810330471,-3.3899883940122217,1.0400402940895248,-0.014000015590898402,-0.013999958069879278,0.004999977008813417,-3.643383609180469e-78,-2.6713929588146146e-78,0.0,-0.004453945052093289,-0.020911542993744092,0.1383061998630577,-6.100825229582033e-07,1.4318553434392412e-07,6.698266084314789e-07
1669909943011571436,19047,1669909942913596180,,-0.1024250261874964,-3.3921902819587317,1.040227114850252,-0.014000015590898402,-0.013999958069879278,0.004999977008813417,0.0,0.0,0.0,0.003058152867581043,-0.022678876177948837,0.1408419443220481,-6.088232907992843e-07,1.43125582958052e-07,6.700371320400244e-07
1669909943420694851,19048,1669909942969935598,,-0.10183509506447688,-3.3924548694024415,1.0400293356877208,-0.011000015209288123,-0.012999957432532992,0.005999977571556683,0.0,0.0,0.0,0.00717206614813648,-0.022982607109611308,0.14140927110541313,-6.07923605357407e-07,1.4317711031576193e-07,6.701806697375544e-07
1669909943468042252,19049,1669909943138309184,,-0.10268920473040553,-3.393935247729894,1.0486523775666197,-0.009000015268777284,-0.010999956802713026,0.009999977483830734,3.646748526194822e-293,1.3464711409786764e-291,5.566319470674548e-292,0.014855479863397747,-0.02250555984278435,0.14138069168990874,-6.068727880573856e-07,1.4343288270924004e-07,6.700693257925319e-07
1669909943484240853,19050,1669909943267752760,,-0.10260278653097275,-3.39410166053833,1.0499234030292734,-0.006000015642283843,-0.00799995661412461,0.011999976933037651,3.36959141762345e-144,-8.114344627645786e-145,-1.2460689609833393e-143,0.02081468577913448,-0.021083596403668636,0.13785979512774205,-6.060096948843687e-07,1.4377876106762334e-07,6.686242075001852e-07
1669909943517818548,19051,1669909943414617267,,-0.10334737436622003,-3.3954288531486942,1.0505730227628354,-0.006000015642283843,-0.00799995661412461,0.011999976933037651,0.0,0.0,0.0,0.028097775707696115,-0.018381517713624618,0.12432571827475414,-6.049447178288601e-07,1.4427517016878502e-07,6.651509126822944e-07
1669909943540149289,19052,1669909943474591693,,-0.10365527007961234,-3.3959711936416284,1.0501215823277845,-0.006000015642283843,-0.00799995661412461,0.011999976933037651,0.0,0.0,0.0,0.03092792021586277,-0.017040056362173317,0.11612575160341265,-6.04573780534576e-07,1.4448027288833937e-07,6.633458200481753e-07
1669909944081822324,19053,1669909943495192796,,-0.10149074312793435,-3.3818114157401884,1.0504893066769723,0.003999983478018609,0.025000043394594974,0.01499997563578781,0.0,0.0,0.0,0.03200378879473931,-0.01647355797577177,0.11251785067988607,-6.044336279387893e-07,1.4456779492786583e-07,6.625867708150455e-07
1669909944413270738,19054,1669909943630137095,,-0.10083739869412034,-3.3694330146096814,1.0511917762939464,0.007999982919923232,0.04700004319193682,0.01699997481279002,1.525375317970108e-231,1.6005986558846377e-232,0.0,0.037584874718374905,-0.012971371703418555,0.08881526881099511,-6.037895836932511e-07,1.4501249370220804e-07,6.57937223905636e-07
1669909944413288328,19055,1669909943757345821,,-0.0999992353454837,-3.3553901703189304,1.0587514416663877,0.010999982324453554,0.06800004252265877,0.018999973934678054,4.294880895093298e-43,1.9688834774918917e-42,4.638283300696098e-41,0.04278968719177101,-0.008910755407811166,0.05625040569158557,-6.03245119399799e-07,1.4544376458127425e-07,6.518568346967229e-07
1669909945072321988,19056,1669909943872137166,,-0.09911645394151396,-3.347630861516686,1.0599524665486963,0.010999982324453554,0.06800004252265877,0.018999973934678054,4.909093465297727e-91,1.5340917079055395e-92,3.835229269763849e-93,0.046050608933368764,-0.0051512222491858495,0.022991095765416247,-6.029817663409397e-07,1.458023708828688e-07,6.460378821606155e-07
1669909945072367000,19057,1669909943936490378,,-0.09933665374500424,-3.3371527070755596,1.0590234364738913,0.009999981738203356,0.08300004146762953,0.01899997307016163,-1.2224630320705437e-44,-1.4504731418072633e-43,-3.096283071901086e-42,0.04704848286692531,-0.0035452838361305083,0.008303273849481485,-6.029529486848928e-07,1.4591783329493208e-07,6.438120632396938e-07
1669909945072408553,19058,1669909944123197379,,-0.09572861032842522,-3.3137678046728927,1.061481421907384,0.013999981204103947,0.10100004008205142,0.0209999722825496,0.0,0.0,0.0,0.049205700772880334,0.0031761026565231276,-0.06436543444454834,-6.030009841131044e-07,1.4619440161477627e-07,6.330669318821694e-07
1669909945072412124,19059,1669909944284902794,,-0.09167567139394424,-3.2936746880335765,1.060520499367111,0.01399998071400687,0.11099915753622136,0.020000059608503654,0.0,0.0,0.0,0.04816653884980404,0.007582124725935557,-0.12733038170878785,-6.036010900680853e-07,1.464060324785435e-07,6.214208049438547e-07
1669909945093784493,19060,1669909944444709277,,-0.08898780828551377,-3.2736306333544922,1.0690628575724488,0.0090004186409974,0.11699951102017393,0.021999796088564925,-1.7396717744264616e-78,6.39548055863132e-77,-1.1130722546994289e-79,0.04159480786790404,0.01008181442802858,-0.18384969931699402,-6.052341714705775e-07,1.4625548966637324e-07,6.134344099523696e-07
1669909945093799879,19061,1669909944659085243,,-0.08787301501717372,-3.258300623524775,1.069859159073382,5.019874883115813e-07,0.09800113534609432,0.02399985528045586,-1.0060736288042274e-141,-4.058127512616645e-142,-2.898791972025428e-142,0.029497461905590328,0.009895314671615196,-0.24034043278077633,-6.074385769561638e-07,1.4565527098288336e-07,6.05546627438411e-07
1669909945110184416,19062,1669909944857640894,,-0.08453014043473943,-3.2424471539151383,1.0792802861138031,-0.001999924348028449,0.09200031746556823,0.025999876487696114,8.581672563959466e-77,6.017050368831509e-77,4.880563859338444e-79,0.01918678238569349,0.006860948389771693,-0.27980913520434747,-6.090037768545234e-07,1.4481666656854199e-07,6.000835457143687e-07
1669909945487614676,19063,1669909945081476508,,-0.08288575953375214,-3.2304795470076755,1.0804889420819503,-0.005999880099845667,0.0750003525480411,0.02799992714380134,1.6369155071065796e-145,-8.995349281865056e-145,-1.656354478129717e-142,0.00600786563447997,-0.0033777871366389434,-0.33579457328887763,-6.104179963834128e-07,1.4292847193203507e-07,5.93035855881788e-07
1669909945497495080,19064,1669909945244749413,,-0.08128162199637512,-3.220644543679322,1.0892421251152846,-0.007999927603148495,0.07000025478878126,0.029999884081427966,0.0,0.0,0.0,0.0023974600188712003,-0.0128998621624703,-0.36771370410055226,-6.109592740193472e-07,1.4114180882043018e-07,5.878457446963276e-07
1669909945613181045,19065,1669909945387927287,,-0.08008289223532325,-3.2159516087635387,1.09064643354188,-0.007000016854480152,0.05900002936215381,0.030999975145467058,5.17526350329881e-172,1.035052700659762e-171,2.587631751649405e-172,0.000577370345691719,-0.023209676413440405,-0.39462299870506534,-6.114315340315717e-07,1.3964844593074337e-07,5.844182665087917e-07
1669909945937944162,19066,1669909945576934193,,-0.07640635653415251,-3.207585295843428,1.1002569362145163,-0.004000159709144685,0.05500022040388439,0.03000002388785287,1.6796417625585107e-155,8.89461722250312e-155,3.4707885165401723e-156,-0.002136723242170291,-0.03112171061479252,-0.4112858499893193,-6.119856404697829e-07,1.3895201309051016e-07,5.839488894379738e-07
1669909945953488347,19067,1669909945740334112,,-0.08294992534344954,-3.213748081283335,1.1082776133706145,-0.011999652081363167,0.011001638667992374,0.026999925163849886,-3.838671748988261e-65,-5.578516451403956e-66,-4.5038360697960964e-64,-0.005170696071159497,-0.033841145306841014,-0.4041826184630022,-6.124846894973472e-07,1.3921049931356768e-07,5.877213961020588e-07
1669909946030549276,19068,1669909945885245502,,-0.08681514556444989,-3.2110872758344087,1.110409055475231,-0.019999615613884917,0.0090001292568464,0.026000027422111095,1.6867516709168837e-80,-4.2168791772922093e-81,1.6867516709168837e-80,-0.007071995720570712,-0.032312716757529,-0.39126725755654945,-6.126202283718515e-07,1.3985631607561578e-07,5.905431426631461e-07
1669909946081920118,19069,1669909945989910123,,-0.08847121314416456,-3.209378582504073,1.1106213732783217,-0.019999615613884917,0.0090001292568464,0.026000027422111095,9.707200418696934e-156,1.0255521350668816e-155,0.0,-0.007639893366990336,-0.028268149388971153,-0.3722786059873471,-6.123451535788879e-07,1.408476712479364e-07,5.943215367861882e-07
1669909946121411410,19070,1669909946036760287,,-0.0892187679294552,-3.208623790437077,1.1091353423969097,-0.019999615613884917,0.0090001292568464,0.026000027422111095,-1.791987519786878e-154,-1.4106410839233295e-153,-1.8525826553809712e-154,-0.0071293902108955365,-0.02570929525455945,-0.36244578492540924,-6.120897454547241e-07,1.4142686478030753e-07,5.962108410120957e-07
1669909946456660418,19071,1669909946071637506,,-0.09490296981341298,-3.207596142402275,1.1100209956856881,-0.03300001510534138,0.0050000298743762255,0.0259999777248422,0.0,0.0,0.0,-0.007077768482107061,-0.0255885469555448,-0.3620782198120587,-6.120486874713748e-07,1.4145560232792735e-07,5.961553745475679e-07
1669909946516981476,19072,1669909946176034978,,-0.09800722132054913,-3.2058804091445996,1.1102758508387716,-0.03300001510534138,0.0050000298743762255,0.0259999777248422,2.32861518840711e-63,7.838440001030808e-64,1.4134472756489659e-61,-0.003958176847900674,-0.018038641501526342,-0.33758856333244225,-6.111890340375712e-07,1.429460833412265e-07,6.004437854727999e-07
1669909946516999835,19073,1669909946225107576,,-0.09947458811612311,-3.2051035869850226,1.111522413028738,-0.03300001510534138,0.0050000298743762255,0.0259999777248422,3.813279557706653e-228,1.76030969624409e-229,4.6358361246641243e-231,-0.0016778055434620853,-0.01374797440698039,-0.32459644319831327,-6.106968028150599e-07,1.4373619321952322e-07,6.027585018931431e-07
1669909946517018097,19074,1669909946261224466,,-0.10325616795597485,-3.205764177856785,1.1098354109351385,-0.03799976122920943,2.842387352717038e-07,0.025999977919045947,0.0,0.0,0.0,-0.00013061822079230012,-0.011065858681966745,-0.31633663489929553,-6.103127606970599e-07,1.4428076277226845e-07,6.044727219092014e-07
1669909946619257028,19075,1669909946428358659,,-0.11088622198166216,-3.2070430003752946,1.1168487013455097,-0.03899996576347082,-0.007999575227846764,0.025000027105251413,-3.139266219281034e-233,3.1134391162081026e-231,-7.511636231715358e-232,0.010747547545182812,0.005012499879335053,-0.26928468869984457,-6.084391273265955e-07,1.4706206089306988e-07,6.11392139872953e-07
1669909946977488559,19076,1669909946577443895,,-0.11472368288125177,-3.2014740360441873,1.120158651213037,-0.038000015335809094,0.005000031403651874,0.02099997738498198,-2.203988060381604e-43,-2.7934122876621027e-43,-1.5279475493704455e-41,0.018998379916153496,0.015286490424944787,-0.24627409564002534,-6.070822781383914e-07,1.4878269479622846e-07,6.141075299523644e-07
1669909947000520969,19077,1669909946721470251,,-0.12027565076516486,-3.1905385158171473,1.12095789454793,-0.04500001615943067,0.027000031725421748,0.01399997617042482,-4.9361953975960616e-216,-8.815341404658486e-218,-4.5915374908130196e-216,0.029483187449255155,0.028526060086074168,-0.22530073181828314,-6.057231044933603e-07,1.5102221749504097e-07,6.164567084505241e-07
1669909947073577250,19078,1669909946878793419,,-0.12791554081144996,-3.1783762287209707,1.1201087250140753,-0.05300001703911088,0.04200003161950634,0.009999974873200548,0.0,0.0,0.0,0.03693967024609357,0.04164329865889904,-0.21068019872692645,-6.051342994349961e-07,1.530847273356395e-07,6.178416246262416e-07
1669909947230211870,19079,1669909947032156122,,-0.1349068635157048,-3.1629085156815657,1.120479333225298,-0.05800001797298782,0.06000003117411734,0.0029999734960548235,-5.112615599200727e-78,1.157302494434206e-78,-8.672735979634494e-79,0.039676565638389505,0.051116313367625565,-0.20912494057427367,-6.051367917820958e-07,1.5429292813419243e-07,6.165384330354365e-07
1669909947550654222,19080,1669909947193915963,,-0.14604177581296365,-3.1403813194095465,1.117233820050034,-0.07300001884798772,0.08400003049549341,-0.0060000277942676115,7.359997567245527e-67,2.1538188443295212e-66,-4.170319561643365e-65,0.039707885676037336,0.05918989211289549,-0.22222908602017455,-6.0522847883974e-07,1.5510694983495716e-07,6.127320677621557e-07
1669909947583177015,19081,1669909947306616647,,-0.15245983853724412,-3.120643033391853,1.1119781379122253,-0.0790000194335235,0.10600002966722037,-0.014000028657730501,-5.50769172283748e-144,-9.845596690121566e-144,-4.122086395064843e-141,0.038711408294904714,0.0628139023519605,-0.2382592750382191,-6.053646002825614e-07,1.5528013563958117e-07,6.094311275350795e-07
1669909947583191775,19082,1669909947423839482,,-0.15846994916421484,-3.1062920993949468,1.1102955694207581,-0.0790000194335235,0.10600002966722037,-0.014000028657730501,-2.5832036061079563e-217,-1.4307485345131963e-217,2.1005047753504074e-217,0.03722183625093045,0.0649786365656766,-0.2640077265636691,-6.052671638044458e-07,1.5518952644873837e-07,6.038130777108473e-07
1669909947583328125,19083,1669909947477985871,,-0.16113303939095053,-3.099617459343502,1.1100544549474631,-0.0790000194335235,0.10600002966722037,-0.014000028657730501,2.3714041741420468e-76,9.887738294914772e-77,4.3180842775472223e-78,0.03662122323810735,0.06534820243646777,-0.27881299959798156,-6.051978046490015e-07,1.5504864045492045e-07,6.00707007917578e-07
1669909947714201214,19084,1669909947509948081,,-0.1626373542471125,-3.091135566896684,1.1094617868738559,-0.08100001971528907,0.11600002862111658,-0.022000029073237337,7.67254115112257e-154,3.7840309941945707e-153,4.0223059436483964e-154,0.036402585681257094,0.06540845522538419,-0.28447529429362106,-6.051682163980386e-07,1.549921561271097e-07,5.995627203909153e-07
1669909948095793266,19085,1669909947676098899,,-0.16655185339146053,-3.0593710156713225,1.101493556891035,-0.07900012831739639,0.13799883327966855,-0.025999811998573735,3.0560361905505775e-64,9.355306201150674e-65,-5.291066900037433e-63,0.03496117422483458,0.06479518400020368,-0.3355671106253446,-6.047942080702299e-07,1.5439198390766652e-07,5.904050923860341e-07
1669909948156931620,19086,1669909947825412238,,-0.16911016193858727,-3.0290362041438796,1.0991925212136622,-0.07999998261854505,0.1549993972694758,-0.03299976993938817,4.335227777653342e-295,6.92993342951053e-294,1.4926228431290031e-292,0.033210237424299294,0.06184868513595987,-0.39694366565177575,-6.047609212658135e-07,1.5340153344942505e-07,5.821028865842869e-07
