%time,field.force.x,field.force.y,field.force.z,field.torque.x,field.torque.y,field.torque.z
1669909689120344570,-0.060156037501928106,6.157643858742565,28.505656779295197,-0.9626192661658882,-4.213291252963991,4.230704831154948e-12
1669909689138992534,-0.060156037501928106,6.157643858742565,28.505656779295197,-0.9626192661658882,-4.213291252963991,4.230704831154948e-12
1669909689139040521,-0.060156037501928106,6.157643858742565,28.505656779295197,-1.0,-5.434708859607313,4.230704831154948e-12
1669909689139092896,0.049861298957007916,6.180447978888269,28.501683279925636,-1.0,-5.434708859607319,4.129946158954714e-12
1669909689139155717,0.049861298957007916,6.180447978888269,28.501683279925636,-1.0,-3.4891120335959878,4.129946158954714e-12
1669909689139160916,0.049861298957007916,6.180447978888269,28.501683279925636,-1.0,-3.4891120335959878,4.129946158954714e-12
1669909689139359717,0.049861298957007916,6.180447978888269,28.501683279925636,-1.0,-5.212734794097094,4.129946158954714e-12
1669909689139365604,0.049861298957007916,6.180447978888269,28.501683279925636,-1.0,-5.212734794097094,4.129946158954714e-12
1669909689139367652,0.049861298957007916,6.180447978888269,28.501683279925636,-1.0,-5.204613879452238,4.129946158954714e-12
1669909689139565757,-0.142588461634872,6.16310663938969,28.45838963542179,-1.0,-3.022492294386933,4.074860178441428e-12
1669909689139611507,-0.142588461634872,6.16310663938969,28.45838963542179,-1.0,-5.069140320335071,4.074860178441428e-12
1669909689139658982,-0.142588461634872,6.16310663938969,28.45838963542179,-1.0,-5.069140320335071,4.074860178441428e-12
1669909689156326182,-0.142588461634872,6.16310663938969,28.45838963542179,-1.0,-5.0582207296858686,4.074860178441428e-12
1669909689161786417,-0.142588461634872,6.16310663938969,28.45838963542179,-1.0,-5.052426388465317,4.074860178441428e-12
1669909689174650364,-0.142588461634872,6.16310663938969,28.45838963542179,-1.0,-5.052426388465317,4.074860178441428e-12
1669909689197231964,-0.142588461634872,6.16310663938969,28.45838963542179,-1.0,-5.041497493992722,4.074860178441428e-12
1669909689215100171,-0.07215566068869628,6.120945418585571,28.83261335205865,-1.0,1.912917151063563,3.898472708504084e-12
1669909689236686569,-0.07215566068869628,6.120945418585571,28.83261335205865,-1.0,1.912917151063563,3.898472708504084e-12
1669909689280551825,0.13061889230312584,6.250279401435618,28.811954878947102,-1.0,-2.1028412855768632,3.753479871311401e-12
1669909689302419037,0.13061889230312584,6.250279401435618,28.811954878947102,-1.0,-2.1028412855768632,3.753479871311401e-12
1669909689313186920,0.13061889783438518,6.2502794021466705,28.811954874139406,-1.0,-2.7104672226138384,3.709498027473258e-12
1669909689324364498,0.2019965311282368,6.291286452413832,28.803468639156115,-1.0,-2.7104672226138384,3.709498027473258e-12
1669909689336562210,0.2019965311282368,6.291286452413832,28.803468639156115,-1.0,-4.054507095261734,3.709498027473258e-12
1669909689354435899,0.2019965311282368,6.291286452413832,28.803468639156115,-1.0,-4.054507095261734,3.709498027473258e-12
1669909689376774498,0.2019965311282368,6.291286452413832,28.803468639156115,-1.0,-4.0320254969337315,3.709498027473258e-12
1669909689420436665,0.2019965311282368,6.291286452413832,28.803468639156115,-1.0,-4.0320254969337315,3.709498027473258e-12
1669909689528031744,0.2019965311282368,6.291286452413832,28.803468639156115,-1.0,-4.009285486668233,3.709498027473258e-12
1669909689528071414,0.2019965311282368,6.291286452413832,28.803468639156115,-1.0,-3.9976105080262934,3.709498027473258e-12
1669909689528107816,0.2019965311282368,6.291286452413832,28.803468639156115,-1.0,-3.9976105080262934,3.709498027473258e-12
1669909689528144356,0.2903747991890543,6.259635579962747,29.07677795469715,-1.0,-1.7588883586164619,3.6255354841879783e-12
1669909689528180676,0.2903747991890543,6.259635579962747,29.07677795469715,-1.0,-3.720923932271421,3.6255354841879783e-12
1669909689528515745,0.2903747991890543,6.259635579962747,29.07677795469715,-1.0,-3.720923932271421,3.6255354841879783e-12
1669909689538752680,0.2903747991890543,6.259635579962747,29.07677795469715,-1.0,-3.694544500543817,3.6255354841879783e-12
1669909689552652835,0.2903747991890543,6.259635579962747,29.07677795469715,-1.0,-3.681219885455226,3.6255354841879783e-12
1669909689575538851,0.2903747991890543,6.259635579962747,29.07677795469715,-1.0,-3.667808269194564,3.6255354841879783e-12
1669909689593710863,0.2903747991890543,6.259635579962747,29.07677795469715,-1.0,-3.667808269194564,3.6255354841879783e-12
1669909689621459119,0.2903747991890543,6.259635579962747,29.07677795469715,-1.0,-3.6415668834143076,3.6255354841879783e-12
1669909689630335851,0.2903747991890543,6.259635579962747,29.07677795469715,-1.0,-3.628256952148973,3.6255354841879783e-12
1669909689659609310,0.46537916694087467,6.407056316697982,29.287284005910507,-1.0,5.316148385826923,3.5097499325243653e-12
1669909689669248801,0.46537916694087467,6.407056316697982,29.287284005910507,-1.0,5.316148385826923,3.5097499325243653e-12
1669909689697539147,0.46537916694087467,6.407056316697982,29.287284005910507,-1.0,-3.069903346308967,3.5097499325243653e-12
1669909689714818673,0.46537916694087467,6.407056316697982,29.287284005910507,-1.0,-3.0531812198095887,3.5097499325243653e-12
1669909689738397426,0.46537916694087467,6.407056316697982,29.287284005910507,-1.0,-3.036489805276482,-0.2677854616159866
1669909689749164217,0.46537916694087467,6.407056316697982,29.287284005910507,-1.0,-3.036489805276482,-0.2677854616159866
1669909689776741502,0.46537916694087467,6.407056316697982,29.287284005910507,-1.0,-3.0032249008442102,-2.863721922036476
1669909689799629229,0.7844286977384802,6.6193422055140765,29.506435015671855,-1.0,3.6154122402235784,-2.8637219220365804
1669909689815630073,0.7844286977384802,6.6193422055140765,29.506435015671855,-1.0,3.6154122402235784,-2.8637219220365804
1669909689836486062,0.7844286977384802,6.6193422055140765,29.506435015671855,-1.0,-2.5388616127613797,-5.959262698885373
1669909689872933751,0.7844286977384802,6.6193422055140765,29.506435015671855,-1.0,-2.5388616127613797,-5.959262698885373
1669909689892060331,0.7844286977384802,6.6193422055140765,29.506435015671855,-1.0,-2.5001494050753847,-9.054803252216749
1669909689909942978,0.7844286977384802,6.6193422055140765,29.506435015671855,-1.0,-2.478152584741337,-9.054803252216749
1669909689921653029,0.8408378580840942,6.57240268214159,29.65222444889657,-1.0,-2.478152584741282,-9.054803252216827
1669909689934434169,0.06300134158457493,6.57240268214159,29.65222444889657,-1.0,0.4321403714264254,-12.000000178810607
1669909690240890834,0.06300134158457493,6.57240268214159,29.65222444889657,-1.0,-2.125053250919775,-12.000000178810607
1669909690287163117,0.1397541226878516,6.470781984116511,29.643041400996886,-1.0,-2.1250532509196502,-12.000000178810561
1669909690287165335,0.9175906391873709,6.470781984116511,29.643041400996886,-0.861830981885604,-0.7214093330130048,-12.000000178810561
1669909690287262645,0.9175906391873709,6.470781984116511,29.643041400996886,-1.0,-1.9160064020769316,-12.000000178810561
1669909690287305399,0.9175906391873709,6.470781984116511,29.643041400996886,-1.0,-1.893268063353814,-12.000000178810561
1669909690287388745,0.9175906391873709,6.470781984116511,29.643041400996886,-1.0,-1.893268063353814,-12.000000178810561
1669909690287396473,0.8527587238171742,6.376672273273328,29.865423082207723,-1.0,-1.9206241347915207,-12.000000178810529
1669909690288035583,0.8527587238171742,6.376672273273328,29.865423082207723,-1.0,-1.9206241347915207,-12.000000178810529
1669909690288047146,0.8527587238171742,6.376672273273328,29.865423082207723,-1.0,-1.8090718649889264,-12.000000178810529
1669909690288054897,0.7991563431011413,6.272566028053631,29.87884091906734,-1.0,-1.8090718649888702,-12.000000178810456
1669909690288059433,0.7991563431011413,6.272566028053631,29.87884091906734,-0.7960685693545679,-2.760871399490536,-12.000000178810456
1669909690288349346,0.7991563431011413,6.272566028053631,29.87884091906734,-0.7960685693545679,-2.760871399490536,-12.000000178810456
1669909690312437063,0.7991563431011413,6.272566028053631,29.87884091906734,-1.0,-1.8280722479296245,-12.000000178810456
1669909690312480109,0.7991563431011413,6.272566028053631,29.87884091906734,-1.0,-1.8280722479296245,-12.000000178810456
1669909690312520391,0.7991563431011413,6.272566028053631,29.87884091906734,-1.0,-1.7850532643841455,-12.000000178810456
1669909690312559625,0.7991563431011413,6.272566028053631,29.87884091906734,-1.0,-1.756678741339114,-12.000000178810456
1669909690312599165,0.7991563431011413,-0.16372352082026992,9.992337652896719,-1.0,-1.756678741339114,3.4777804180318e-12
1669909690315209842,0.7991563431011413,-0.16372352082026992,9.992337652896719,-1.0,-1.7180729149335696,3.4777804180318e-12
1669909690318855356,0.7991563431011413,-0.16372352082026992,9.992337652896719,-1.0,-1.6925781745394217,3.4777804180318e-12
1669909690334704026,0.7991563431011413,-0.16372352082026992,9.87884091906734,-1.0,-1.6925781745394217,3.4777804180318e-12
1669909690368737820,0.7991563431011413,-0.16372352082026992,9.87884091906734,-1.0,-1.6558551559445749,3.4777804180318e-12
1669909690380758261,0.7991563431011413,-0.16372352082026992,9.87884091906734,-1.0,-1.631900709181257,3.4777804180318e-12
1669909690402768825,0.7991563431011413,-0.16372352082026992,9.87884091906734,-1.0,-1.631900709181257,3.4777804180318e-12
1669909690417473264,1.24100276155514,0.10299464831133281,10.2544800425336,-0.8676873032147989,-2.978932183180184,3.5587593369072133e-12
1669909690434519910,1.24100276155514,0.10299464831133281,10.2544800425336,-0.8676873032147989,-2.978932183180184,3.5587593369072133e-12
1669909690456514321,1.24100276155514,0.10299464831133281,10.2544800425336,-1.0,-1.697857308506226,3.5587593369072133e-12
1669909690761762080,1.24100276155514,0.10299464831133281,10.2544800425336,-1.0,-1.6766294332132075,3.5587593369072133e-12
1669909690775885398,1.24100276155514,0.10299464831133281,10.2544800425336,-1.0,-1.6766294332132075,3.5587593369072133e-12
1669909690775908582,1.24100276155514,0.10299464831133281,10.2544800425336,-1.0,-1.6360282095940986,3.5587593369072133e-12
1669909690776148113,1.24100276155514,0.10299464831133281,10.2544800425336,-1.0,-1.614419109570891,3.5587593369072133e-12
1669909690776165512,1.24100276155514,0.10299464831133281,10.2544800425336,-1.0,-1.614419109570891,3.5587593369072133e-12
1669909690776168106,1.24100276155514,0.10299464831133281,10.2544800425336,-1.0,-1.5706199830795584,3.5587593369072133e-12
1669909690776712545,1.24100276155514,0.10299464831133281,10.2544800425336,-1.0,-1.5706199830795584,3.5587593369072133e-12
1669909690776806315,1.1243092955898935,0.09808272552382044,10.43900013672262,-0.9125437775786678,-5.999999999983952,3.740525668053797e-12
1669909690776946199,1.1243092955898935,0.09808272552382044,10.43900013672262,-0.9125437775786678,-5.999999999983952,3.740525668053797e-12
1669909690776965623,1.1243092955898935,0.09808272552382044,10.43900013672262,-1.0,-2.018887528996514,3.740525668053797e-12
1669909690776968052,1.1243092955898935,0.09808272552382044,10.43900013672262,-1.0,-1.997524944762206,3.740525668053797e-12
1669909690776970395,1.1243092955898935,0.09808272552382044,10.43900013672262,-1.0,-1.9756980941482685,3.740525668053797e-12
1669909690776979300,1.1243092955898935,0.09808272552382044,10.43900013672262,-1.0,-1.9756980941482685,3.740525668053797e-12
1669909690787706381,1.1243092955898935,0.09808272552382044,10.43900013672262,-1.0,-1.949110375215453,3.740525668053797e-12
1669909690787708701,1.1243092955898935,0.09808272552382044,10.43900013672262,-1.0,-1.949110375215453,3.740525668053797e-12
1669909690787717438,1.1243092955898935,0.09808272552382044,10.43900013672262,-1.0,-1.9162176131298918,3.740525668053797e-12
1669909690797965158,1.1243092955898935,0.09808272552382044,10.43900013672262,-1.0,-1.898541273656771,3.740525668053797e-12
1669909690817685617,1.1243092955898935,0.09808272552382044,10.43900013672262,-1.0,-1.898541273656771,3.740525668053797e-12
1669909690834379900,1.1243092955898935,0.09808272552382044,14.71265167700201,-1.0,-1.8648648928100258,3.740525668053797e-12
1669909690859861487,1.1243092955898935,0.09808272552382044,14.71265167700201,-1.0,-1.8648648928100258,3.740525668053797e-12
1669909690875278045,0.8663805911089923,0.31414143617239154,20.304903891090056,-1.0,-5.999999999984058,3.947163402732309e-12
1669909690895658066,0.8663805911089923,0.31414143617239154,20.304903891090056,-1.0,-5.999999999984058,3.947163402732309e-12
1669909690918390435,0.8663805911089923,0.31414143617239154,20.304903891090056,-1.0,-2.3986268935463455,3.947163402732309e-12
1669909690940729582,0.8663805911089923,0.31414143617239154,26.961793210509917,-1.0,-2.3986268935463455,3.947163402732309e-12
1669909690967113118,0.8663805911089923,0.31414143617239154,26.961793210509917,-1.0,-2.3743057951617312,3.947163402732309e-12
1669909690981076009,0.8663805911089923,0.31414143617239154,30.539205577376983,-1.0,-2.3594632009784537,3.947163402732309e-12
1669909691284452302,0.8663805911089923,0.31414143617239154,30.539205577376983,-1.0,-2.3594632009784537,3.947163402732309e-12
1669909691313910700,0.8663805911089923,0.31414143617239154,30.539205577376983,-1.0,-2.3345868759979935,3.947163402732309e-12
1669909691313913173,0.8663805911089923,0.31414143617239154,30.539205577376983,-1.0,-2.3201661542591667,3.947163402732309e-12
1669909691313915840,0.8663805911089923,0.31414143617239154,30.539205577376983,-1.0,-2.3201661542591667,3.947163402732309e-12
1669909691313918294,0.8663805911089923,0.31414143617239154,30.539205577376983,-1.0,-2.2951319235508456,3.947163402732309e-12
1669909691313920525,0.8663805911089923,0.31414143617239154,30.539205577376983,-1.0,-2.2818477904467933,3.947163402732309e-12
1669909691313922496,0.32389057485745315,0.34469514781096,30.49700039450655,-1.0,-2.2818477904468955,4.3748968955157954e-12
1669909691313924635,0.32389057485745315,0.34469514781096,30.49700039450655,-0.9670308483628252,-5.99999999998416,4.3748968955157954e-12
1669909691313926713,0.32389057485745315,0.34469514781096,30.49700039450655,-1.0,-3.354821516096704,4.3748968955157954e-12
1669909691313928729,0.32389057485745315,0.34469514781096,30.49700039450655,-1.0,-3.3482644104491794,4.3748968955157954e-12
1669909691313931042,0.32389057485745315,0.34469514781096,30.49700039450655,-1.0,-3.3482644104491794,4.3748968955157954e-12
1669909691313935226,0.32389057485745315,0.34469514781096,30.49700039450655,-1.0,-3.3353091156788364,4.3748968955157954e-12
1669909691322883884,0.32389057485745315,0.34469514781096,30.49700039450655,-1.0,-3.3353091156788364,4.3748968955157954e-12
1669909691322940154,0.32389057485745315,0.34469514781096,30.49700039450655,-1.0,-3.324237393816083,4.3748968955157954e-12
1669909691322989160,0.32389057485745315,0.34469514781096,30.49700039450655,-1.0,-3.324237393816083,4.3748968955157954e-12
1669909691322993965,-0.22046634654358271,0.060890014637348874,30.266779217660897,-0.9379266766792554,-5.999999999984213,4.801989077337392e-12
1669909691322996162,-0.22046634654358271,0.060890014637348874,30.266779217660897,-0.9379266766792554,-5.999999999984213,4.801989077337392e-12
1669909691333796826,-0.22046634654358271,0.060890014637348874,30.266779217660897,-1.0,-4.646487311291888,4.801989077337392e-12
1669909691382057696,-0.22046634654358271,0.060890014637348874,30.266779217660897,-1.0,-4.646487311291888,4.801989077337392e-12
1669909691397860290,-0.22046634654358271,0.060890014637348874,30.266779217660897,-1.0,-4.651884125371651,4.801989077337392e-12
1669909691409513161,-0.22046634654358271,0.060890014637348874,30.266779217660897,-1.0,-4.655184850378317,4.801989077337392e-12
1669909691425728596,-0.22046634654358271,0.060890014637348874,30.266779217660897,-1.0,-4.655184850378317,4.801989077337392e-12
1669909691437872790,-0.6930967346115685,-0.1031975905790499,30.235184039241744,-0.9606428151529695,-5.999999999984221,5.006671351121424e-12
1669909691459893852,-0.6930967346115685,-0.1031975905790499,30.235184039241744,-0.9606428151529695,-5.999999999984221,5.006671351121424e-12
1669909691491142003,-0.6930967346115685,-0.1031975905790499,30.235184039241744,-1.0,-5.537431373520322,5.006671351121424e-12
1669909691505614973,-0.6930967346115685,-0.1031975905790499,30.235184039241744,-1.0,-5.5460236018843165,5.006671351121424e-12
1669909691807593632,-0.6930967346115685,-0.1031975905790499,30.235184039241744,-1.0,-5.5460236018843165,5.006671351121424e-12
1669909691854069961,-0.6930967346115685,-0.1031975905790499,30.235184039241744,-1.0,-5.563043217554027,5.006671351121424e-12
1669909691854088703,-1.0979299204602555,-0.07195224766405843,30.31660868407453,-1.0,-5.999999999984261,5.130707592702527e-12
1669909691854105765,-1.0979299204602555,-0.07195224766405843,30.31660868407453,-1.0,-5.999999999984261,5.130707592702527e-12
1669909691854144279,-1.2572703508949417,-0.020394337173553406,30.298063657410523,-1.0,-5.999999999984311,5.157944529185506e-12
1669909691854147616,-1.2572703508949417,-0.020394337173553406,30.298063657410523,-1.0,-5.999999999984311,5.157944529185506e-12
1669909691854166226,-1.2572703508949417,-0.020394337173553406,30.298063657410523,-1.0,-5.999999999984311,5.157944529185506e-12
1669909691854183542,-1.2572704137519417,-0.02039453675646255,30.298063652672695,-1.0,-5.999999999984311,5.157944529185506e-12
1669909691854417440,-1.2572704137519417,-0.02039453675646255,30.298063652672695,-1.0,-5.999999999984311,5.157944529185506e-12
1669909691854423672,-1.2572704137519417,-0.02039453675646255,30.298063652672695,-1.0,-5.999999999984311,5.157944529185506e-12
1669909691854429448,-1.2572704137519417,-0.02039453675646255,30.298063652672695,-1.0,-5.999999999984311,5.157944529185506e-12
1669909691854433758,-1.2572704137519417,-0.02039453675646255,30.298063652672695,-1.0,-5.999999999984311,5.157944529185506e-12
1669909691854436218,-1.2572704137519417,-0.02039453675646255,30.298063652672695,-1.0,-5.999999999984311,5.157944529185506e-12
1669909691896388336,-1.2572704137519417,-0.02039453675646255,30.298063652672695,-1.0,-5.999999999984311,5.157944529185506e-12
1669909691896390540,-1.4062383652110177,-0.1530589019275224,30.369992726745693,-1.0,-5.999999999984353,5.1732326439326206e-12
1669909691896392345,-1.4062383652110177,-0.1530589019275224,30.369992726745693,-1.0,-5.999999999984353,5.1732326439326206e-12
1669909691896394223,-1.4062383652110177,-0.1530589019275224,30.369992726745693,-1.0,-5.999999999984353,5.1732326439326206e-12
1669909691896639117,-1.4062383652110177,-0.1530589019275224,30.369992726745693,-1.0,-5.999999999984353,5.1732326439326206e-12
1669909691903381534,-1.4110248112683796,0.034989667166499705,28.284195401284038,-1.0,-5.99999999998448,5.0614835059549645e-12
1669909691913990782,-1.4110248112683796,0.034989667166499705,28.284195401284038,-1.0,-5.99999999998448,5.0614835059549645e-12
1669909691925616241,-1.4110248112683796,0.034989667166499705,11.475885548207101,-1.0,-5.99999999998448,5.0614835059549645e-12
1669909691939206686,-1.4110248112683796,0.034989667166499705,11.475885548207101,-1.0,-5.99999999998448,5.0614835059549645e-12
1669909691956479651,-1.4110248112683796,0.034989667166499705,11.475885548207101,-1.0,-5.99999999998448,5.0614835059549645e-12
1669909691973042131,-1.4110248112683796,0.034989667166499705,10.363951661202249,-1.0,-5.99999999998448,5.0614835059549645e-12
1669909692002406387,-1.4110248112683796,0.034989667166499705,10.363951661202249,-1.0,-5.99999999998448,5.0614835059549645e-12
1669909692019862707,-1.5387662442934626,-0.020666128088700053,10.375325212688868,-1.0,-5.999999999984516,5.004457526247783e-12
1669909692035467282,-1.5387662442934626,-0.020666128088700053,10.375325212688868,-1.0,-5.999999999984516,5.004457526247783e-12
1669909692348186945,-1.5387662442934626,-0.020666128088700053,10.375325212688868,-1.0,-5.999999999984516,5.004457526247783e-12
1669909692348190751,-1.5387662442934626,-0.020666128088700053,10.375325212688868,-1.0,-5.999999999984516,5.004457526247783e-12
1669909692348193591,-1.3274920416175973,0.22182243771232923,10.38530780336572,-1.0,-3.219102175961933,4.781151204181691e-12
1669909692348195875,-1.3274920416175973,0.22182243771232923,10.38530780336572,-1.0,-5.9999999999846505,4.781151204181691e-12
1669909692348200042,-1.3274920416175973,0.22182243771232923,10.38530780336572,-1.0,-5.9999999999846505,4.781151204181691e-12
1669909692348202445,-1.3274920416175973,0.22182243771232923,10.38530780336572,-1.0,-5.9999999999846505,4.781151204181691e-12
1669909692348204810,-1.3274920416175973,0.22182243771232923,10.38530780336572,-1.0,-5.9999999999846505,4.781151204181691e-12
1669909692348338575,-1.3274920416175973,0.22182243771232923,10.38530780336572,-1.0,-5.9999999999846505,4.781151204181691e-12
1669909692348379577,-1.3274920416175973,0.22182243771232923,10.38530780336572,-1.0,-5.9999999999846505,4.781151204181691e-12
1669909692348440128,-1.3274920416175973,0.22182243771232923,10.38530780336572,-1.0,-5.9999999999846505,4.781151204181691e-12
1669909692348444956,-1.4297066120765904,0.18422361679664923,10.398564957561094,-1.0,-4.070048792315297,4.717015480596157e-12
1669909692348582305,-1.4297066120765904,0.18422361679664923,10.398564957561094,-1.0,-4.070048792315297,4.717015480596157e-12
1669909692376229773,-1.4297066120765904,0.18422361679664923,10.398564957561094,-1.0,-5.99999999998468,4.717015480596157e-12
1669909692376231861,-1.4297066120765904,0.18422361679664923,10.398564957561094,-1.0,-5.99999999998468,4.717015480596157e-12
1669909692376303344,-1.4297066120765904,0.18422361679664923,10.398564957561094,-1.0,-5.99999999998468,4.717015480596157e-12
1669909692376342220,-1.4297066120765904,0.18422361679664923,10.398564957561094,-1.0,-5.99999999998468,4.717015480596157e-12
1669909692376381297,-1.257269429219223,0.4312570364433467,10.453822501783312,-1.0,1.1772647593952388,4.579872795360987e-12
1669909692395663950,-1.257269429219223,0.4312570364433467,10.453822501783312,-1.0,-5.999999999984734,4.579872795360987e-12
1669909692412329569,-1.257269429219223,0.4312570364433467,10.453822501783312,-1.0,-5.999999999984734,4.579872795360987e-12
1669909692436552460,-1.0806565555796401,0.48554048530900573,10.459031662266945,-1.0,-3.032045535109759,4.511377638656285e-12
1669909692455379155,-1.0806565555796401,0.48554048530900573,10.459031662266945,-1.0,-3.032045535109759,4.511377638656285e-12
1669909692483139902,-1.0806565555796401,0.48554048530900573,10.459031662266945,-1.0,-5.788178166696453,4.511377638656285e-12
1669909692513076610,-1.0806565555796401,0.48554048530900573,10.459031662266945,-1.0,-5.788178166696453,4.511377638656285e-12
1669909692523618932,-1.0806565555796401,0.48554048530900573,10.459031662266945,-1.0,-5.800203937429047,4.511377638656285e-12
1669909692537177197,-1.0806565555796401,0.48554048530900573,10.459031662266945,-1.0,-5.806252880524714,4.511377638656285e-12
1669909692559022041,-1.0806565555796401,0.48554048530900573,10.459031662266945,-1.0,-5.806252880524714,4.511377638656285e-12
1669909692802757748,-1.0806565555796401,0.48554048530900573,10.459031662266945,-1.0,-5.8182460624733405,4.511377638656285e-12
1669909692809339028,-0.7848681952597294,0.6221617532602912,10.463882789971558,-1.0,-3.765081881430686,4.490332275800359e-12
1669909692809344526,-0.7848681952597294,0.6221617532602912,10.463882789971558,-1.0,-3.765081881430686,4.490332275800359e-12
1669909692809346763,-0.7848681952597294,0.6221617532602912,10.463882789971558,-1.0,-5.694195692084866,4.490332275800359e-12
1669909692809349115,-0.7848681952597294,0.6221617532602912,10.463882789971558,-1.0,-5.694195692084866,4.490332275800359e-12
1669909692809351159,-0.7848681952597294,0.6221617532602912,10.463882789971558,-1.0,-5.704378135693835,4.490332275800359e-12
1669909692809352980,-0.7848681952597294,0.6221617532602912,10.463882789971558,-1.0,-5.704378135693835,4.490332275800359e-12
1669909692809354752,-0.7848681952597294,0.6221617532602912,10.463882789971558,-1.0,-5.714614429041045,4.490332275800359e-12
1669909692809356567,-0.5456945517456138,0.6495234296697456,10.430979963000656,-0.5999275688077378,-1.376290149214327,4.469814992646492e-12
1669909692809358706,-0.5456945517456138,0.6495234296697456,10.430979963000656,-0.5999275688077378,-1.376290149214327,4.469814992646492e-12
1669909692809360539,-0.5456945517456138,0.6495234296697456,10.430979963000656,-1.0,-5.469159601682124,4.469814992646492e-12
1669909692809362428,-0.4658336629403367,0.4875143917525655,10.445307482195537,-0.4193731341441956,-3.012617017875893,4.470902500885096e-12
1669909692809364463,-0.4658336629403367,0.4875143917525655,10.445307482195537,-0.4193731341441956,-3.012617017875893,4.470902500885096e-12
1669909692834582889,-0.4658336629403367,0.4875143917525655,10.445307482195537,-1.0,-5.329779262784262,4.470902500885096e-12
1669909692851785720,-0.4658336629403367,0.4875143917525655,10.445307482195537,-1.0,-5.329779262784262,4.470902500885096e-12
1669909692880527090,-0.4658336629403367,0.4875143917525655,10.445307482195537,-1.0,-5.334550234345624,4.470902500885096e-12
1669909692897915151,-0.4658336629403367,0.4875143917525655,10.445307482195537,-1.0,-5.336955759817566,4.470902500885096e-12
1669909692918199797,-0.40277084707163124,0.4134367940592265,10.378466212281445,-0.9751838049786068,-4.933169316840228,4.48132351246523e-12
1669909692957481793,-0.40277084707163124,0.4134367940592265,10.378466212281445,-1.0,-5.317677933174275,4.48132351246523e-12
1669909692968026961,-0.3783367221660302,0.30554642009854094,10.385166684377856,-0.6294023027246132,-4.558347616120229,4.492507168687752e-12
1669909692979552784,-0.3783367221660302,0.30554642009854094,10.385166684377856,-0.6294023027246132,-4.558347616120229,4.492507168687752e-12
1669909692994650502,-0.37553144244554604,0.21559205392932923,10.389532135274507,-0.8830993788167767,-5.227058796674323,4.520219663769904e-12
1669909693020342671,-0.37553144244554604,0.21559205392932923,10.389532135274507,-1.0,-5.27517139244713,4.520219663769904e-12
1669909693039044733,-0.37553144244554604,0.21559205392932923,10.389532135274507,-1.0,-5.27517139244713,4.520219663769904e-12
1669909693057600208,-0.37553144244554604,0.21559205392932923,10.389532135274507,-1.0,-5.278976482381482,4.520219663769904e-12
1669909693080328995,-0.37553144244554604,0.21559205392932923,10.389532135274507,-1.0,-5.281331168723925,4.520219663769904e-12
1669909693317467044,-0.37553144244554604,0.21559205392932923,10.389532135274507,-1.0,-5.281331168723925,4.520219663769904e-12
1669909693328133903,-0.37553144244554604,0.21559205392932923,10.389532135274507,-1.0,-5.284664531699256,4.520219663769904e-12
1669909693328175324,-0.33857680880515084,0.21706047979186824,10.360269568936275,-1.0,-5.284664531699254,4.528251410172077e-12
1669909693328214668,-0.33857680880515084,0.21706047979186824,10.360269568936275,-1.0,-5.340641923847086,4.528251410172077e-12
1669909693328255401,-0.3753096358636462,0.10988887684513102,10.363471290240943,-0.5494986834166338,-5.999999999984382,4.575698428191857e-12
1669909693328294071,-0.3753096358636462,0.10988887684513102,10.363471290240943,-0.5494986834166338,-5.999999999984382,4.575698428191857e-12
1669909693328373265,-0.3753096358636462,0.10988887684513102,10.363471290240943,-1.0,-5.368798045827145,4.575698428191857e-12
1669909693328421979,-0.3753096358636462,0.10988887684513102,10.363471290240943,-1.0,-5.371756178172193,4.575698428191857e-12
1669909693328462561,-0.3753096358636462,0.10988887684513102,10.363471290240943,-1.0,-5.371756178172193,4.575698428191857e-12
1669909693328501567,-0.3753096358636462,0.10988887684513102,10.363471290240943,-1.0,-5.3762500544896366,4.575698428191857e-12
1669909693328539829,-0.3753096358636462,0.10988887684513102,10.363471290240943,-1.0,-5.3762500544896366,4.575698428191857e-12
1669909693328594325,-0.307565930714776,0.03181458270609011,10.363754531788784,-1.0,-5.604434193614844,4.5864818053427906e-12
1669909693332230497,-0.307565930714776,0.03181458270609011,10.363754531788784,-1.0,-5.604434193614844,4.5864818053427906e-12
1669909693359579559,-0.307565930714776,0.03181458270609011,10.363754531788784,-1.0,-5.408723881098314,4.5864818053427906e-12
1669909693397727408,-0.3671250326534367,-0.031332486236948426,10.363924443931339,-1.0,-5.408723881098286,4.633523944705871e-12
1669909693413743242,-0.3671250326534367,-0.031332486236948426,10.363924443931339,-0.898576907512391,-5.99999999998435,4.633523944705871e-12
1669909693426349628,-0.3671250326534367,-0.031332486236948426,10.363924443931339,-1.0,-5.52778276925198,4.633523944705871e-12
1669909693441016458,-0.3671250326534367,-0.031332486236948426,10.363924443931339,-1.0,-5.52778276925198,4.633523944705871e-12
1669909693458295773,-0.3671250326534367,-0.031332486236948426,10.363924443931339,-1.0,-5.534108273510925,4.633523944705871e-12
1669909693475168935,-0.3671250326534367,-0.031332486236948426,10.363924443931339,-1.0,-5.537381298570198,4.633523944705871e-12
1669909693497904432,-0.3671250326534367,-0.031332486236948426,10.363924443931339,-1.0,-5.540829539099173,4.633523944705871e-12
1669909693514673235,-0.3671250326534367,-0.031332486236948426,10.363924443931339,-1.0,-5.540829539099173,4.633523944705871e-12
1669909693542093686,-0.3671250326534367,-0.031332486236948426,10.363924443931339,-1.0,-5.547176398739765,4.633523944705871e-12
1669909693560146197,-0.3370235688988099,-0.10854846808398436,10.383808167574676,-1.0,-5.547176398739766,4.63779405662853e-12
1669909693575133645,-0.3370235688988099,-0.10854846808398436,10.383808167574676,-1.0,-5.723477328457698,4.63779405662853e-12
1669909693592506129,-0.3370235688988099,-0.10854846808398436,10.383808167574676,-1.0,-5.723477328457698,4.63779405662853e-12
1669909693853753220,-0.3370235688988099,-0.10854846808398436,10.383808167574676,-1.0,-5.579254806692298,4.63779405662853e-12
1669909693853756096,-0.3370235688988099,-0.10854846808398436,10.383808167574676,-1.0,-5.582985824171138,4.63779405662853e-12
1669909693853758145,-0.44667371426030594,-0.18922528451219836,10.381289036823873,-1.0,-5.582985824171128,4.688121318909961e-12
1669909693853760139,-0.44667371426030594,-0.18922528451219836,10.381289036823873,-1.0,-5.9999999999843405,4.688121318909961e-12
1669909693853761999,-0.44667371426030594,-0.18922528451219836,10.381289036823873,-1.0,-5.9999999999843405,4.688121318909961e-12
1669909693853764069,-0.4879692569562449,-0.1786413642850697,10.379445243824186,-1.0,-5.999999999984339,4.7093719697883406e-12
1669909693853765921,-0.511713609174751,-0.16779229315239644,10.378198943630311,-1.0,-5.999999999984339,4.72108949519126e-12
1669909693853767841,-0.519193064748477,-0.16370941004948272,10.377777254270523,-1.0,-5.999999999984339,4.724454228702168e-12
1669909693864353525,-0.519193064748477,-0.16370941004948272,10.377777254270523,-1.0,-5.914497046329051,4.724454228702168e-12
1669909693864384583,-0.519193064748477,-0.16370941004948272,10.377777254270523,-1.0,-5.920097680494514,4.724454228702168e-12
1669909693864389575,-0.519193064748477,-0.16370941004948272,10.377777254270523,-1.0,-5.920097680494514,4.724454228702168e-12
1669909693864392041,-0.519193064748477,-0.16370941004948272,10.377777254270523,-1.0,-5.9307805901093,4.724454228702168e-12
1669909693864643760,-0.519193064748477,-0.16370941004948272,10.377777254270523,-1.0,-5.9307805901093,4.724454228702168e-12
1669909693873206179,-0.519193064748477,-0.16370941004948272,10.377777254270523,-1.0,-5.941313254995622,4.724454228702168e-12
1669909693895360749,-0.5154934681073651,-0.1697342492960244,10.367404241688572,-1.0,-5.941313254995622,4.725368568483405e-12
1669909693917471830,-0.5154934681073651,-0.1697342492960244,10.367404241688572,-1.0,-5.999999999984339,4.725368568483405e-12
1669909693934482846,-0.5154934681073651,-0.1697342492960244,10.367404241688572,-1.0,-5.96927361461611,4.725368568483405e-12
1669909693957397782,-0.5513798359161909,-0.1417730788544354,10.365037934452213,-1.0,-5.99999999998434,4.737874432303406e-12
1669909693973479742,-0.5513798359161909,-0.1417730788544354,10.365037934452213,-1.0,-5.99999999998434,4.737874432303406e-12
1669909693996322198,-0.5513798359161909,-0.1417730788544354,10.365037934452213,-1.0,-5.99999999998434,4.737874432303406e-12
1669909694021072471,-0.5513798359161909,-0.1417730788544354,10.365037934452213,-1.0,-5.99999999998434,4.737874432303406e-12
1669909694034984467,-0.5513798359161909,-0.1417730788544354,10.365037934452213,-1.0,-5.99999999998434,4.737874432303406e-12
1669909694069857454,-0.5513798359161909,-0.1417730788544354,10.365037934452213,-1.0,-5.99999999998434,4.737874432303406e-12
1669909694082742633,-0.5513798359161909,-0.1417730788544354,10.365037934452213,-1.0,-5.99999999998434,4.737874432303406e-12
1669909694114331126,-0.5513798359161909,-0.1417730788544354,10.365037934452213,-1.0,-5.99999999998434,4.737874432303406e-12
1669909694129066004,-0.548654304901499,-0.1322487639098493,10.36365941010917,-1.0,-5.99999999998434,4.740961278588264e-12
1669909694368046431,-0.548654304901499,-0.1322487639098493,10.36365941010917,-1.0,-5.99999999998434,4.740961278588264e-12
1669909694379143669,-0.548654304901499,-0.1322487639098493,10.36365941010917,-1.0,-5.99999999998434,4.740961278588264e-12
1669909694379183025,-0.548654304901499,-0.1322487639098493,10.36365941010917,-1.0,-5.99999999998434,4.740961278588264e-12
1669909694379221007,-0.548654304901499,-0.1322487639098493,10.36365941010917,-1.0,-5.99999999998434,4.740961278588264e-12
1669909694379258355,-0.548654304901499,-0.1322487639098493,10.36365941010917,-1.0,-5.99999999998434,4.740961278588264e-12
1669909694379296930,-0.548654304901499,-0.1322487639098493,10.36365941010917,-1.0,-5.99999999998434,4.740961278588264e-12
1669909694379334872,-0.548654304901499,-0.1322487639098493,10.36365941010917,-1.0,-5.99999999998434,4.740961278588264e-12
1669909694379372539,-0.6025637803608316,-0.0759666550829286,10.34188200222906,-1.0,-5.999999999984337,4.7352676889446146e-12
1669909694379410505,-0.6025637803608316,-0.0759666550829286,10.34188200222906,-1.0,-5.999999999984337,4.7352676889446146e-12
1669909694379504152,-0.6025637803608316,-0.0759666550829286,10.34188200222906,-1.0,-5.999999999984337,4.7352676889446146e-12
1669909694379547345,-0.6025637803608316,-0.0759666550829286,10.34188200222906,-1.0,-5.999999999984337,4.7352676889446146e-12
1669909694379586739,-0.6025637803608316,-0.0759666550829286,10.34188200222906,-1.0,-5.999999999984337,4.7352676889446146e-12
1669909694383159129,-0.5882608254037258,-0.04131800307505484,10.341483126244512,-1.0,-5.986240671135625,4.713929494297841e-12
1669909694397585850,-0.5882608254037258,-0.04131800307505484,10.341483126244512,-1.0,-5.986240671135625,4.713929494297841e-12
1669909694418213054,-0.5882608254037258,-0.04131800307505484,10.341483126244512,-1.0,-5.999999999984326,4.713929494297841e-12
1669909694439733913,-0.5882608254037258,-0.04131800307505484,10.341483126244512,-1.0,-5.999999999984326,4.713929494297841e-12
1669909694473214712,-0.5882608254037258,-0.04131800307505484,10.341483126244512,-1.0,-5.999999999984326,4.713929494297841e-12
1669909694483887576,-0.5882608254037258,-0.04131800307505484,10.341483126244512,-1.0,-5.999999999984326,4.713929494297841e-12
1669909694516460797,-0.5882608254037258,-0.04131800307505484,10.341483126244512,-1.0,-5.999999999984326,4.713929494297841e-12
1669909694529192754,-0.5882608254037258,-0.04131800307505484,10.341483126244512,-1.0,-5.999999999984326,4.713929494297841e-12
1669909694545113005,-0.5921066176454183,-0.0006683568277464635,10.322404863974041,-1.0,-5.99999999998431,4.6933111993708344e-12
1669909694561073503,-0.5921066176454183,-0.0006683568277464635,10.322404863974041,-1.0,-5.8512874503537935,4.6933111993708344e-12
1669909694579195046,-0.5921066176454183,-0.0006683568277464635,10.322404863974041,-1.0,-5.8512874503537935,4.6933111993708344e-12
1669909694595626808,-0.5921066176454183,-0.0006683568277464635,10.322404863974041,-1.0,-5.99999999998431,4.6933111993708344e-12
1669909694612120162,-0.5921066176454183,-0.0006683568277464635,10.322404863974041,-1.0,-5.99999999998431,4.6933111993708344e-12
1669909694634654460,-0.5921066176454183,-0.0006683568277464635,10.322404863974041,-1.0,-5.99999999998431,4.6933111993708344e-12
1669909694890862520,-0.5422428378564984,0.011926177407505123,10.305368901446228,-1.0,-4.325367681827688,4.6550220168081336e-12
1669909694917597348,-0.5422428378564984,0.011926177407505123,10.305368901446228,-1.0,-5.999999999984274,4.6550220168081336e-12
1669909694917659535,-0.5422428378564984,0.011926177407505123,10.305368901446228,-1.0,-5.999999999984274,4.6550220168081336e-12
1669909694917711076,-0.4957944781990128,-0.0025585686907482197,10.307708209099204,-1.0,-5.246724927131077,4.627476891790086e-12
1669909694917755160,-0.4957944781990128,-0.0025585686907482197,10.307708209099204,-1.0,-5.246724927131077,4.627476891790086e-12
1669909694917821964,-0.4648064219491813,-0.013546375498944552,10.309177079774415,-1.0,-5.523129049398746,4.609621088254309e-12
1669909694917888460,-0.4648064219491813,-0.013546375498944552,10.309177079774415,-1.0,-5.523129049398746,4.609621088254309e-12
1669909694917931479,-0.4648064219491813,-0.013546375498944552,10.309177079774415,-1.0,-5.999999999984233,4.609621088254309e-12
1669909694917971731,-0.4648064219491813,-0.013546375498944552,10.309177079774415,-1.0,-5.999999999984233,4.609621088254309e-12
1669909694918033275,-0.4648064219491813,-0.013546375498944552,10.309177079774415,-1.0,-5.999999999984233,4.609621088254309e-12
1669909694918038809,-0.4648064219491813,-0.013546375498944552,10.309177079774415,-1.0,-5.999999999984233,4.609621088254309e-12
1669909694918097229,-0.4848315125733924,0.01644157375902716,10.279176557635306,-1.0,-5.999999999984234,4.61039103443352e-12
1669909694929244025,-0.4848315125733924,0.01644157375902716,10.279176557635306,-1.0,-5.999999999984234,4.61039103443352e-12
1669909694929267064,-0.4848315125733924,0.01644157375902716,10.279176557635306,-1.0,-5.999999999984234,4.61039103443352e-12
1669909694968898430,-0.4848315125733924,0.01644157375902716,10.279176557635306,-1.0,-5.999999999984234,4.61039103443352e-12
1669909694981552678,-0.40114240164406545,-0.021298141599464304,10.282824157336256,-1.0,-5.999999999984191,4.575371135961109e-12
1669909694981593704,-0.40114240164406545,-0.021298141599464304,10.282824157336256,-0.9911627254403212,-4.64371453090096,4.575371135961109e-12
1669909694994792586,-0.40114240164406545,-0.021298141599464304,10.282824157336256,-0.9911627254403212,-4.64371453090096,4.575371135961109e-12
1669909695014494259,-0.40114240164406545,-0.021298141599464304,10.282824157336256,-1.0,-5.90019369080093,4.575371135961109e-12
1669909695036078026,-0.40114240164406545,-0.021298141599464304,10.282824157336256,-1.0,-5.90019369080093,4.575371135961109e-12
1669909695052124003,-0.40114240164406545,-0.021298141599464304,10.282824157336256,-1.0,-5.906142882024038,4.575371135961109e-12
1669909695075374514,-0.40114240164406545,-0.021298141599464304,10.282824157336256,-1.0,-5.906142882024038,4.575371135961109e-12
1669909695098183216,-0.3736522693618689,-0.03272188141454091,10.274298501863745,-1.0,-5.257736128613357,4.553634013233752e-12
1669909695113511881,-0.3736522693618689,-0.03272188141454091,10.274298501863745,-1.0,-5.8450968935029275,4.553634013233752e-12
1669909695138251787,-0.3736522693618689,-0.03272188141454091,10.274298501863745,-1.0,-5.8450968935029275,4.553634013233752e-12
1669909695158853138,-0.3736522693618689,-0.03272188141454091,10.274298501863745,-1.0,-5.850305398096313,4.553634013233752e-12
1669909695408457761,-0.3736522693618689,-0.03272188141454091,10.274298501863745,-1.0,-5.852948073739959,4.553634013233752e-12
1669909695425895519,-0.3736522693618689,-0.03272188141454091,10.274298501863745,-1.0,-5.852948073739959,4.553634013233752e-12
1669909695425912201,-0.3736522693618689,-0.03272188141454091,10.274298501863745,-1.0,-5.858212622982831,4.553634013233752e-12
1669909695425928214,-0.2964218906916212,-0.05627352918522535,10.286201438820445,-0.9114175266604072,-4.1493854571210775,4.526666205220533e-12
1669909695426131306,-0.2964218906916212,-0.05627352918522535,10.286201438820445,-0.9114175266604072,-4.1493854571210775,4.526666205220533e-12
1669909695426154824,-0.2964218906916212,-0.05627352918522535,10.286201438820445,-1.0,-5.75897238185405,4.526666205220533e-12
1669909695426171373,-0.22057378307467623,-0.09351873612876796,10.28789685129392,-1.0,-5.75897238185401,4.490031412268673e-12
1669909695426235748,-0.22057378307467623,-0.09351873612876796,10.28789685129392,-0.959682925224884,-4.4332301389863416,4.490031412268673e-12
1669909695426256689,-0.22057378307467623,-0.09351873612876796,10.28789685129392,-0.959682925224884,-4.4332301389863416,4.490031412268673e-12
1669909695426277719,-0.22057378307467623,-0.09351873612876796,10.28789685129392,-1.0,-5.623794108588794,4.490031412268673e-12
1669909695426293973,-0.22057378307467623,-0.09351873612876796,10.28789685129392,-1.0,-5.623794108588794,4.490031412268673e-12
1669909695426310380,-0.22057378307467623,-0.09351873612876796,10.28789685129392,-1.0,-5.625656806716427,4.490031412268673e-12
1669909695436121335,-0.22057378307467623,-0.09351873612876796,10.28789685129392,-1.0,-5.626649659992522,4.490031412268673e-12
1669909695436154336,-0.22057378307467623,-0.09351873612876796,10.28789685129392,-1.0,-5.627663616302855,4.490031412268673e-12
1669909695467873938,-0.22057378307467623,-0.09351873612876796,10.28789685129392,-1.0,-5.627663616302855,4.490031412268673e-12
1669909695486105906,-0.19701827052526516,-0.13739253095994547,10.278369789902786,-1.0,-5.0455123866295954,4.4744613709168655e-12
1669909695495182555,-0.19701827052526516,-0.13739253095994547,10.278369789902786,-1.0,-5.0455123866295954,4.4744613709168655e-12
1669909695511774531,-0.19701827052526516,-0.13739253095994547,10.278369789902786,-1.0,-5.568371512344372,4.4744613709168655e-12
1669909695534995968,-0.1246789639199904,-0.15936227645321918,10.278811813621445,-1.0,-5.568371512344335,4.4406995405586594e-12
1669909695556762858,-0.1246789639199904,-0.15936227645321918,10.278811813621445,-0.9901187773821081,-4.33003934547301,4.4406995405586594e-12
1669909695576043756,-0.1246789639199904,-0.15936227645321918,10.278811813621445,-0.9901187773821081,-4.33003934547301,4.4406995405586594e-12
1669909695594013876,-0.1246789639199904,-0.15936227645321918,10.278811813621445,-1.0,-5.434367381815206,4.4406995405586594e-12
1669909695639207896,-0.1246789639199904,-0.15936227645321918,10.278811813621445,-1.0,-5.434367381815206,4.4406995405586594e-12
1669909695659540138,-0.1246789639199904,-0.15936227645321918,10.278811813621445,-1.0,-5.433764900544009,4.4406995405586594e-12
1669909695660359250,-0.08926120991300072,-0.20135816466351106,10.288789788933489,-1.0,-5.433764900544004,4.437421744682579e-12
1669909695672838125,-0.08926120991300072,-0.20135816466351106,10.288789788933489,-1.0,-5.163441054997524,4.437421744682579e-12
1669909695692757333,-0.08926120991300072,-0.20135816466351106,10.288789788933489,-1.0,-5.163441054997524,4.437421744682579e-12
1669909695953063373,-0.059195814961704854,-0.20010143007871417,10.288599717057872,-1.0,-4.887456145081751,4.426756063814308e-12
1669909695953104122,-0.059195814961704854,-0.20010143007871417,10.288599717057872,-1.0,-5.346715447571472,4.426756063814308e-12
1669909695953122569,-0.059195814961704854,-0.20010143007871417,10.288599717057872,-1.0,-5.345824909868304,4.426756063814308e-12
1669909695953165124,-0.059195814961704854,-0.20010143007871417,10.288599717057872,-1.0,-5.344902919323795,4.426756063814308e-12
1669909695953184665,-0.059195814961704854,-0.20010143007871417,10.288599717057872,-1.0,-5.3440211553207115,4.426756063814308e-12
1669909695953246867,-0.059195814961704854,-0.20010143007871417,10.288599717057872,-1.0,-5.342966005574644,4.426756063814308e-12
1669909695953251817,-0.059195814961704854,-0.20010143007871417,10.288599717057872,-1.0,-5.342966005574644,4.426756063814308e-12
1669909695953256107,-0.059195814961704854,-0.20010143007871417,10.288599717057872,-1.0,-5.34131802280992,4.426756063814308e-12
1669909695953259457,-0.059195814961704854,-0.20010143007871417,10.288599717057872,-1.0,-5.34131802280992,4.426756063814308e-12
1669909695953263415,-0.059195814961704854,-0.20010143007871417,10.288599717057872,-1.0,-5.339799403381438,4.426756063814308e-12
1669909695953268072,-0.030177331718341013,-0.2266905015110545,10.318477810679214,-1.0,-5.079154793472274,4.427254843692395e-12
1669909695953455028,-0.030177331718341013,-0.2266905015110545,10.318477810679214,-1.0,-5.321139325208776,4.427254843692395e-12
1669909695965575961,-0.030177331718341013,-0.2266905015110545,10.318477810679214,-1.0,-5.321139325208776,4.427254843692395e-12
1669909695979316633,-0.030177331718341013,-0.2266905015110545,10.318477810679214,-1.0,-5.319055968546369,4.427254843692395e-12
1669909696001922943,-0.030177331718341013,-0.2266905015110545,10.318477810679214,-1.0,-5.319055968546369,4.427254843692395e-12
1669909696013533461,-0.030177331718341013,-0.2266905015110545,10.318477810679214,-1.0,-5.317297542408018,4.427254843692395e-12
1669909696035033731,-0.006359513160195715,-0.24291927986726167,10.358218095124354,-1.0,-5.317297542407988,4.43780360130214e-12
1669909696057436026,-0.006359513160195715,-0.24291927986726167,10.358218095124354,-1.0,-5.24884422020073,4.43780360130214e-12
1669909696092164924,-0.01682071014148205,-0.23825203290605032,10.358221111416103,-1.0,-5.248844220200715,4.448218681544473e-12
1669909696107876535,-0.01682071014148205,-0.23825203290605032,10.358221111416103,-1.0,-5.491252509885775,4.448218681544473e-12
1669909696122977046,-0.01682071014148205,-0.23825203290605032,10.358221111416103,-1.0,-5.491252509885775,4.448218681544473e-12
1669909696148243369,-0.01682071014148205,-0.23825203290605032,10.358221111416103,-1.0,-5.3239397367631325,4.448218681544473e-12
1669909696156942108,-0.01682071014148205,-0.23825203290605032,10.358221111416103,-1.0,-5.3239397367631325,4.448218681544473e-12
1669909696179780813,-0.01682071014148205,-0.23825203290605032,10.358221111416103,-1.0,-5.3221686083865585,4.448218681544473e-12
1669909696189962514,-0.01682071014148205,-0.23825203290605032,10.358221111416103,-1.0,-5.321270248334954,4.448218681544473e-12
1669909696215015620,0.00329528505769372,-0.21365684514715896,10.388211324841498,-1.0,-5.321270248334946,4.4558264742887575e-12
1669909696464666940,0.00329528505769372,-0.21365684514715896,10.388211324841498,-1.0,-5.4893608142374735,4.4558264742887575e-12
1669909696496005948,-0.020291759582746698,-0.19962471699357073,10.388072852696746,-1.0,-5.999999999983941,4.471579832289856e-12
1669909696496060584,-0.020291759582746698,-0.19962471699357073,10.388072852696746,-1.0,-5.999999999983941,4.471579832289856e-12
1669909696496064588,-0.020291759582746698,-0.19962471699357073,10.388072852696746,-1.0,-5.379606388515378,4.471579832289856e-12
1669909696496087784,-0.020291759582746698,-0.19962471699357073,10.388072852696746,-1.0,-5.379606388515378,4.471579832289856e-12
1669909696496108480,-0.020291759582746698,-0.19962471699357073,10.388072852696746,-1.0,-5.378712285484857,4.471579832289856e-12
1669909696496130546,-0.020291759582746698,-0.19962471699357073,10.388072852696746,-1.0,-5.3782258261184595,4.471579832289856e-12
1669909696496152298,-0.020291759582746698,-0.19962471699357073,10.388072852696746,-1.0,-5.3782258261184595,4.471579832289856e-12
1669909696496509039,-0.020291759582746698,-0.19962471699357073,10.388072852696746,-1.0,-5.377245539643863,4.471579832289856e-12
1669909696496632491,-0.020291759582746698,-0.19962471699357073,10.388072852696746,-1.0,-5.377245539643863,4.471579832289856e-12
1669909696496734106,-0.017355424799555902,-0.2046302335869887,10.39800070637078,-1.0,-5.4986660000561205,4.475992476381851e-12
1669909696496777583,-0.017355424799555902,-0.2046302335869887,10.39800070637078,-1.0,-5.3890082217547,4.475992476381851e-12
1669909696496809644,-0.017355424799555902,-0.2046302335869887,10.39800070637078,-1.0,-5.3890082217547,4.475992476381851e-12
1669909696497047005,-0.017355424799555902,-0.2046302335869887,10.39800070637078,-1.0,-5.388216258369516,4.475992476381851e-12
1669909696541356148,-0.017355424799555902,-0.2046302335869887,10.39800070637078,-1.0,-5.387814264077669,4.475992476381851e-12
1669909696556028642,-0.017355424799555902,-0.2046302335869887,10.39800070637078,-1.0,-5.387386369611648,4.475992476381851e-12
1669909696566854695,-0.017355424799555902,-0.2046302335869887,10.39800070637078,-1.0,-5.387386369611648,4.475992476381851e-12
1669909696578701312,-0.017355424799555902,-0.2046302335869887,10.39800070637078,-1.0,-5.386621414901282,4.475992476381851e-12
1669909696601909670,-0.07196192591069767,-0.18011300431851468,10.397299433529893,-1.0,-5.999999999983922,4.500415024193566e-12
1669909696614404597,-0.07196192591069767,-0.18011300431851468,10.397299433529893,-1.0,-5.999999999983922,4.500415024193566e-12
1669909696635947782,-0.07196192591069767,-0.18011300431851468,10.397299433529893,-1.0,-5.468910003761746,4.500415024193566e-12
1669909696652851144,-0.10755697878407494,-0.16139084212232022,10.39673468039198,-1.0,-5.999999999983897,4.5237652010600246e-12
1669909696679379529,-0.10755697878407494,-0.16139084212232022,10.39673468039198,-1.0,-5.999999999983897,4.5237652010600246e-12
1669909696692158903,-0.10755697878407494,-0.16139084212232022,10.39673468039198,-1.0,-5.535957428461584,4.5237652010600246e-12
1669909696719992753,-0.10755697878407494,-0.16139084212232022,10.39673468039198,-1.0,-5.5365517377698215,4.5237652010600246e-12
1669909696761643671,-0.10755697878407494,-0.16139084212232022,10.39673468039198,-1.0,-5.5365517377698215,4.5237652010600246e-12
1669909696995921998,-0.10755697878407494,-0.16139084212232022,10.39673468039198,-1.0,-5.537736680518302,4.5237652010600246e-12
1669909696995924313,-0.10755697878407494,-0.16139084212232022,10.39673468039198,-1.0,-5.537736680518302,4.5237652010600246e-12
1669909696995926437,-0.10755697878407494,-0.16139084212232022,10.39673468039198,-1.0,-5.538865248002316,4.5237652010600246e-12
1669909696996078391,-0.10755697878407494,-0.16139084212232022,10.39673468039198,-1.0,-5.53957256840691,4.5237652010600246e-12
1669909696996122320,-0.14319625776046027,-0.15076765274256151,10.396630503082914,-1.0,-5.5395725684068955,4.534916317742076e-12
1669909696996163063,-0.14319625776046027,-0.15076765274256151,10.396630503082914,-1.0,-5.838204864738123,4.534916317742076e-12
1669909696996205980,-0.14319625776046027,-0.15076765274256151,10.396630503082914,-1.0,-5.570508494009468,4.534916317742076e-12
1669909696996247348,-0.14319625776046027,-0.15076765274256151,10.396630503082914,-1.0,-5.570508494009468,4.534916317742076e-12
1669909696996346116,-0.14319625776046027,-0.15076765274256151,10.396630503082914,-1.0,-5.571992733751954,4.534916317742076e-12
1669909696996351554,-0.14319625776046027,-0.15076765274256151,10.396630503082914,-1.0,-5.571992733751954,4.534916317742076e-12
1669909696996353876,-0.17313623277586976,-0.12427646851965252,10.426625741605982,-1.0,-5.999999999983845,4.564401243627981e-12
1669909697005878101,-0.17313623277586976,-0.12427646851965252,10.426625741605982,-1.0,-5.649116741965502,4.564401243627981e-12
1669909697005881924,-0.17313623277586976,-0.12427646851965252,10.426625741605982,-1.0,-5.649116741965502,4.564401243627981e-12
1669909697018156295,-0.17313623277586976,-0.12427646851965252,10.426625741605982,-1.0,-5.651559693969203,4.564401243627981e-12
1669909697036367916,-0.2016375782417198,-0.13750370846776175,10.42659359602178,-1.0,-5.6515596939691735,4.582102533539271e-12
1669909697065174381,-0.2016375782417198,-0.13750370846776175,10.42659359602178,-1.0,-5.999999999983816,4.582102533539271e-12
1669909697080534398,-0.21553554400542507,-0.14411713075286298,10.42654500605141,-1.0,-5.999999999983799,4.590933356688647e-12
1669909697099606827,-0.21553554400542507,-0.14411713075286298,10.42654500605141,-1.0,-5.736136870326703,4.590933356688647e-12
1669909697130197330,-0.21553554400542507,-0.14411713075286298,10.42654500605141,-1.0,-5.73805551582704,4.590933356688647e-12
1669909697143472346,-0.21553554400542507,-0.14411713075286298,10.42654500605141,-1.0,-5.73805551582704,4.590933356688647e-12
1669909697151730049,-0.21553554400542507,-0.14411713075286298,10.42654500605141,-1.0,-5.741460828582246,4.590933356688647e-12
1669909697176457661,-0.21553554400542507,-0.14411713075286298,10.42654500605141,-1.0,-5.743260818305452,4.590933356688647e-12
1669909697214526533,-0.21553554400542507,-0.14411713075286298,10.42654500605141,-1.0,-5.745351922306939,4.590933356688647e-12
1669909697232189603,-0.24054991340119825,-0.15653499867700496,10.42652226149264,-1.0,-5.745351922306933,4.593546721197975e-12
1669909697248356882,-0.24054991340119825,-0.15653499867700496,10.42652226149264,-1.0,-5.842351909603832,4.593546721197975e-12
1669909697259585923,-0.24054991340119825,-0.15653499867700496,10.42652226149264,-1.0,-5.759848713984623,4.593546721197975e-12
1669909697277968825,-0.2567753261891036,-0.1674008828394266,10.42649024766142,-1.0,-5.759848713984592,4.6020569228935875e-12
1669909697518591984,-0.2567753261891036,-0.1674008828394266,10.42649024766142,-1.0,-5.999999999983762,4.6020569228935875e-12
1669909697565259559,-0.2567753261891036,-0.1674008828394266,10.42649024766142,-1.0,-5.999999999983762,4.6020569228935875e-12
1669909697565375491,-0.2567753261891036,-0.1674008828394266,10.42649024766142,-1.0,-5.7977950243880345,4.6020569228935875e-12
1669909697565423142,-0.2567753261891036,-0.1674008828394266,10.42649024766142,-1.0,-5.7977950243880345,4.6020569228935875e-12
1669909697565472598,-0.2567753261891036,-0.1674008828394266,10.42649024766142,-1.0,-5.801858605255302,4.6020569228935875e-12
1669909697565528060,-0.2567753261891036,-0.1674008828394266,10.42649024766142,-1.0,-5.801858605255302,4.6020569228935875e-12
1669909697565571805,-0.2567753261891036,-0.1674008828394266,10.42649024766142,-1.0,-5.805823958845655,4.6020569228935875e-12
1669909697565612847,-0.2588918177787996,-0.1816520528791245,10.426540971885295,-1.0,-5.87325525311786,4.601466131438024e-12
1669909697565654214,-0.2588918177787996,-0.1816520528791245,10.426540971885295,-1.0,-5.814049881904384,4.601466131438024e-12
1669909697565738359,-0.2588918177787996,-0.1816520528791245,10.426540971885295,-1.0,-5.817147960616391,4.601466131438024e-12
1669909697565744152,-0.2588918177787996,-0.1816520528791245,10.426540971885295,-1.0,-5.817147960616391,4.601466131438024e-12
1669909697592824312,-0.2588918177787996,-0.1816520528791245,10.426540971885295,-1.0,-5.820133563464381,4.601466131438024e-12
1669909697593099813,-0.2742497621642489,-0.19081250830460264,10.406802797368648,-1.0,-5.695029675835285,4.594263614132744e-12
1669909697593178011,-0.2742497621642489,-0.19081250830460264,10.406802797368648,-1.0,-5.816166364577567,4.594263614132744e-12
1669909697608739118,-0.2742497621642489,-0.19081250830460264,10.406802797368648,-1.0,-5.816166364577567,4.594263614132744e-12
1669909697608978770,-0.2742497621642489,-0.19081250830460264,10.406802797368648,-1.0,-5.81980665720044,4.594263614132744e-12
1669909697620152120,-0.2608875482072013,-0.1931582713940786,10.407062465025792,-1.0,-5.819806657200421,4.583545353141241e-12
1669909697632777404,-0.2608875482072013,-0.1931582713940786,10.407062465025792,-1.0,-5.581867096811639,4.583545353141241e-12
1669909697657447900,-0.25217131842198537,-0.1937089761230086,10.407203174211354,-1.0,-5.523130118571791,4.576966022282445e-12
1669909697686325100,-0.25217131842198537,-0.1937089761230086,10.407203174211354,-1.0,-5.7867553593588354,4.576966022282445e-12
1669909697702194677,-0.25217131842198537,-0.1937089761230086,10.407203174211354,-1.0,-5.7867553593588354,4.576966022282445e-12
1669909697717447289,-0.25217131842198537,-0.1937089761230086,10.407203174211354,-1.0,-5.789731622059714,4.576966022282445e-12
1669909697735726677,-0.25217131842198537,-0.1937089761230086,10.407203174211354,-1.0,-5.789731622059714,4.576966022282445e-12
1669909697756628822,-0.25217131842198537,-0.1937089761230086,10.407203174211354,-1.0,-5.79319668803057,4.576966022282445e-12
1669909697780967160,-0.25217131842198537,-0.1937089761230086,10.407203174211354,-1.0,-5.79516167722994,4.576966022282445e-12
1669909697797218875,-0.25217131842198537,-0.1937089761230086,10.407203174211354,-1.0,-5.79516167722994,4.576966022282445e-12
1669909697910884220,-0.2541244228145752,-0.2033214756271379,10.407307193915187,-1.0,-5.6517061917349585,4.571912679080852e-12
1669909697935017320,-0.2541244228145752,-0.2033214756271379,10.407307193915187,-1.0,-5.785113490600688,4.571912679080852e-12
1669909697935035929,-0.2541244228145752,-0.2033214756271379,10.407307193915187,-1.0,-5.785113490600688,4.571912679080852e-12
1669909697935059375,-0.2541244228145752,-0.2033214756271379,10.407307193915187,-1.0,-5.788389468274827,4.571912679080852e-12
1669909697935078195,-0.2541244228145752,-0.2033214756271379,10.407307193915187,-1.0,-5.79003072687166,4.571912679080852e-12
1669909697935097019,-0.2541244228145752,-0.2033214756271379,10.407307193915187,-1.0,-5.79003072687166,4.571912679080852e-12
1669909697943807727,-0.2477294603666722,-0.21823562322937398,10.397639321061805,-1.0,-5.169253006774823,4.5485856138822976e-12
1669909697957023027,-0.2477294603666722,-0.21823562322937398,10.397639321061805,-1.0,-5.169253006774823,4.5485856138822976e-12
1669909697979297549,-0.2477294603666722,-0.21823562322937398,10.397639321061805,-1.0,-5.728019993040835,4.5485856138822976e-12
1669909698007024885,-0.2148080030966776,-0.20900401850157502,10.397727275252866,-1.0,-4.716397334429057,4.529607824984032e-12
1669909698052671764,-0.2148080030966776,-0.20900401850157502,10.397727275252866,-1.0,-4.716397334429057,4.529607824984032e-12
1669909698200807801,-0.2148080030966776,-0.20900401850157502,10.397727275252866,-1.0,-5.669996179276051,4.529607824984032e-12
1669909698204438534,-0.2148080030966776,-0.20900401850157502,10.397727275252866,-1.0,-5.669996179276051,4.529607824984032e-12
1669909698224121229,-0.2148080030966776,-0.20900401850157502,10.397727275252866,-1.0,-5.67158138663207,4.529607824984032e-12
1669909698224126926,-0.2148080030966776,-0.20900401850157502,10.397727275252866,-1.0,-5.67158138663207,4.529607824984032e-12
1669909698224189790,-0.2148080030966776,-0.20900401850157502,10.397727275252866,-1.0,-5.673163148729869,4.529607824984032e-12
1669909698224230883,-0.2148080030966776,-0.20900401850157502,10.397727275252866,-1.0,-5.673163148729869,4.529607824984032e-12
1669909698224271863,-0.2148080030966776,-0.20900401850157502,10.397727275252866,-1.0,-5.6747546834122256,4.529607824984032e-12
1669909698224311353,-0.21880115461958505,-0.2039006860049427,10.407710000738696,-1.0,-5.2004809981558555,4.517666602874317e-12
1669909698224351353,-0.21880115461958505,-0.2039006860049427,10.407710000738696,-1.0,-5.2004809981558555,4.517666602874317e-12
1669909698224492386,-0.21880115461958505,-0.2039006860049427,10.407710000738696,-1.0,-5.647190215076525,4.517666602874317e-12
1669909698238374684,-0.21880115461958505,-0.2039006860049427,10.407710000738696,-1.0,-5.647792425502736,4.517666602874317e-12
1669909698257947121,-0.21880115461958505,-0.2039006860049427,10.407710000738696,-1.0,-5.647792425502736,4.517666602874317e-12
1669909698283287972,-0.1741594159208894,-0.186363749577394,10.407446371187135,-1.0,-4.888668170574824,4.494771519499109e-12
1669909698296458983,-0.1741594159208894,-0.186363749577394,10.407446371187135,-1.0,-5.566034404802697,4.494771519499109e-12
1669909698318583538,-0.1741594159208894,-0.186363749577394,10.407446371187135,-1.0,-5.566034404802697,4.494771519499109e-12
1669909698562596552,-0.1741594159208894,-0.186363749577394,10.407446371187135,-1.0,-5.566136073709918,4.494771519499109e-12
1669909699148165279,-0.1741594159208894,-0.186363749577394,10.407446371187135,-1.0,-5.566187614192277,4.494771519499109e-12
1669909699148206807,-0.1741594159208894,-0.186363749577394,10.407446371187135,-1.0,-5.566187614192277,4.494771519499109e-12
