%time,field.force.x,field.force.y,field.force.z,field.torque.x,field.torque.y,field.torque.z
1669909208879527696,0.16196305027863406,8.601102379745162,7.891065905920759,-1.0,-5.533661268781984,-0.1946381712316269
1669909208879552897,0.1606454103259371,8.589078592765969,7.8810707156739594,-0.9977294944436587,-5.57535498606564,-0.19463817123162655
1669909208879564313,0.1606454103259371,8.589078592765969,7.8810707156739594,-0.9977294944436587,-5.57535498606564,-0.19463817123162655
1669909208879576139,0.15727532316232726,8.583358471227088,7.881081378896149,-0.9912353951225628,-5.5946461348316046,-0.1946381712316242
1669909208879578525,0.1557079700091024,8.5806361279624,7.881084914061994,-0.9919358192947642,-5.591211677119578,-0.19463817123162327
1669909208879580672,0.15540981812185087,8.580058302788876,7.881085572245449,-0.9919358192947642,-5.591211677119577,-0.194638171231623
1669909208879596112,0.15540981812185087,8.580058302788876,7.881085572245449,-1.0,-5.551041117623106,-0.194638171231623
1669909208879603717,0.15540981812185087,8.580058302788876,7.881085572245449,-1.0,-5.551041117623106,-0.194638171231623
1669909208879613153,0.15540981812185087,8.580058302788876,7.881085572245449,-1.0,-5.546624814034467,-0.194638171231623
1669909208879628539,0.13063549211031236,8.597577299981259,7.874256668093532,-1.0,-5.546624814034467,-0.26468217372732905
1669909208879655734,0.13063549211031236,8.597577299981259,7.874256668093532,-1.0,-5.546872920163847,-0.26468217372732905
1669909208879657724,0.13063549211031236,8.597577299981259,7.874256668093532,-1.0,-5.547013945522413,-0.26468217372732905
1669909208879669691,0.11902141593298325,8.594854498194119,7.874258935582764,-1.0,-5.547013945522411,-0.26468217372732833
1669909208879682054,0.11902141593298325,8.594854498194119,7.874258935582764,-0.9965487621284572,-5.577253713695028,-0.26468217372732833
1669909208879685790,0.11614116700527921,8.589918981971383,7.874260506002967,-0.9775095834563019,-5.643638004997478,-0.26468217372732655
1669909208879695591,0.11614116700527921,8.589918981971383,7.874260506002967,-1.0,-5.55590221525424,-0.26468217372732655
1669909208879705616,0.11554103755584502,8.589012316518957,7.874260319455127,-1.0,-5.555902215254238,-0.2646821737273262
1669909208879727370,0.11511242946634162,8.588143498824607,7.87426026893878,-0.9979432495254301,-5.572630038842715,-0.2646821737273258
1669909208879745453,0.11511242946634162,8.588143498824607,7.87426026893878,-0.9979432495254301,-5.572630038842715,-0.2646821737273258
1669909208879756626,0.1430389564300524,8.582703978942405,7.82373326255107,-1.0,-5.558577480616583,-0.308382986111812
1669909208879770390,0.1430389564300524,8.582703978942405,7.82373326255107,-1.0,-5.558791647767861,-0.308382986111812
1669909208879809896,0.13240016995022166,8.583087832854758,7.886627636683226,-1.0,-5.558791647767861,-0.30196608044045387
1669909208879886162,0.13240016995022166,8.583087832854758,7.886627636683226,-1.0,-5.559180349315101,-0.30196608044045387
1669909208879887935,0.12195034744787853,8.582080337544623,7.8766275418437255,-1.0,-5.559180349315099,-0.3019660804404534
1669909208879889749,0.12195034744787853,8.582080337544623,7.8766275418437255,-0.9991186423840182,-5.567521093376885,-0.3019660804404534
1669909208879891811,0.12195034744787853,8.582080337544623,7.8766275418437255,-0.9991186423840182,-5.567521093376885,-0.3019660804404534
1669909208879893724,0.12030365904292156,8.575655875481917,7.876626334676617,-0.9834406198233923,-5.5890520198070215,-0.3019660804404514
1669909208879895642,0.12030365904292156,8.575655875481917,7.876626334676617,-0.9998111530075499,-5.564089137173342,-0.3019660804404514
1669909208879897457,0.12030365904292156,8.575655875481917,7.876626334676617,-0.9998111530075499,-5.564089137173342,-0.3019660804404514
1669909208879903086,0.15653515262028267,8.575705943383529,7.846282504091137,-0.9998087083425204,-5.564529818981265,-0.28357674367563895
1669909208879904865,0.15653515262028267,8.575705943383529,7.846282504091137,-0.9998074639724798,-5.564754156534576,-0.28357674367563895
1669909208879906803,0.14607880391859845,8.562668826902069,7.836281005947507,-0.9998074639724798,-5.564754156534573,-0.2835767436756383
1669909208879908628,0.14607880391859845,8.562668826902069,7.836281005947507,-0.9913228549946772,-5.572857870690072,-0.2835767436756383
1669909208879949420,0.1451758726812043,8.556701858921222,7.836275218313604,-0.9913228549946772,-5.572857870690066,-0.2835767436756369
1669909208879951175,0.1451758726812043,8.556701858921222,7.836275218313604,-0.981369023033148,-5.5823726485178105,-0.2835767436756369
1669909208879956519,0.1451758726812043,8.556701858921222,7.836275218313604,-0.9969805660757849,-5.568425599176951,-0.2835767436756369
1669909208879958796,0.14508364573861735,8.555476319573488,7.836273757099834,-0.9969805660757849,-5.568425599176949,-0.2835767436756367
1669909208879963960,0.14508364573861735,8.555476319573488,7.836273757099834,-0.993407618843783,-5.570494785453519,-0.2835767436756367
1669909208879998915,0.14508364573861735,8.555476319573488,7.836273757099834,-0.9965378087458338,-5.569336975178685,-0.2835767436756367
1669909208880003088,0.14508364573861735,8.555476319573488,7.836273757099834,-0.9965378087458338,-5.569336975178685,-0.2835767436756367
1669909208880008124,0.14508364573861735,8.555476319573488,7.836273757099834,-0.9964926509265,-5.569825054846449,-0.2835767436756367
1669909208880019936,0.14508364573861735,8.555476319573488,7.836273757099834,-0.9964926509265,-5.569825054846449,-0.2835767436756367
1669909208880675040,0.14508364573861735,8.555476319573488,7.836273757099834,-0.9964516825744598,-5.570270523489136,-0.2835767436756367
1669909208880677093,0.14508364573861735,8.555476319573488,7.836273757099834,-0.9964268774862513,-5.570540352435077,-0.2835767436756367
1669909208880679211,0.14516979802404054,8.560526840364911,7.8262672018162736,-0.9713426652574665,-5.568178535391327,-0.28357674367563623
1669909208880681187,0.14516979802404054,8.560526840364911,7.8262672018162736,-0.9713426652574665,-5.568178535391327,-0.28357674367563623
1669909208880704046,0.16925542030487664,8.570031993067243,7.87463845721407,-0.9948207513990266,-5.571069760467676,-0.46862804330723185
1669909208888689743,0.17012166851149904,8.566517576198354,7.874633861089782,-0.9948207513990266,-5.571069760467671,-0.4686280433072314
1669909208911688642,0.17012166851149904,8.566517576198354,7.874633861089782,-0.985702239565271,-5.558240505122632,-0.4686280433072314
1669909208922281850,0.17012166851149904,8.566517576198354,7.874633861089782,-0.985702239565271,-5.558240505122632,-0.4686280433072314
1669909208949761853,0.17012166851149904,8.566517576198354,7.874633861089782,-0.9935865530915307,-5.5704065660665325,-0.4686280433072314
1669909208965506442,0.17778766401993143,8.565719470004812,7.854827088619308,-0.9935865530915307,-5.5704065660665325,-0.5275207199140057
1669909208987943375,0.17778766401993143,8.565719470004812,7.854827088619308,-0.9935080279161097,-5.57086270688089,-0.5275207199140057
1669909209107291238,0.17807732204137008,8.555783777409028,7.8448277753109315,-0.9935080279161097,-5.570862706880888,-0.5275207199140058
1669909209107319407,0.17807732204137008,8.555783777409028,7.8448277753109315,-0.9936103706022228,-5.56642863532177,-0.5275207199140058
1669909209107321937,0.17807732204137008,8.555783777409028,7.8448277753109315,-0.9936103706022228,-5.56642863532177,-0.5275207199140058
1669909209107324525,0.17807732204137008,8.555783777409028,7.8448277753109315,-0.9933425098937838,-5.5713940923452565,-0.5275207199140058
1669909209129143854,0.17807732204137008,8.555783777409028,7.8448277753109315,-0.9933425098937838,-5.5713940923452565,-0.5275207199140058
1669909209155541582,0.17940862460144114,8.54087114107335,7.834838862392094,-1.0,-5.552038433916069,-0.5275207199140064
1669909209155551290,0.17940862460144114,8.54087114107335,7.834838862392094,-1.0,-5.552038433916069,-0.5275207199140064
1669909209186112785,0.17940862460144114,8.54087114107335,7.834838862392094,-0.9947923287650323,-5.569718015277726,-0.5275207199140064
1669909209186115464,0.18390985561616968,8.566697237608079,7.856334383460667,-0.9947923287650323,-5.569718015277726,-0.4396888799949161
1669909209186117777,0.1850493353254976,8.573966400834205,7.856344089073816,-1.0,-5.545535729351052,-0.4396888799949167
1669909209206350745,0.1855906393371794,8.576907556541688,7.85634657401925,-1.0,-5.550628538279772,-0.4396888799949169
1669909209228939008,0.1855906393371794,8.576907556541688,7.85634657401925,-1.0,-5.550628538279772,-0.4396888799949169
1669909209245696197,0.1855906393371794,8.576907556541688,7.85634657401925,-0.9978688619891385,-5.567502000657426,-0.4396888799949169
1669909209277252162,0.2148657400153849,8.671674173362977,7.835518177937325,-0.9978688619891385,-5.567502000657426,-0.8545865491016388
1669909209291259207,0.2148657400153849,8.671674173362977,7.835518177937325,-0.9978527028129611,-5.567880455441532,-0.8545865491016388
1669909209310495693,0.2148657400153849,8.671674173362977,7.835518177937325,-0.9978527028129611,-5.567880455441532,-0.8545865491016388
1669909209326531403,0.21499116380507904,8.672418041765265,7.82551864478423,-0.9999655539572728,-5.5661023898361845,-0.8545865491016388
1669909209351574621,0.21499116380507904,8.672418041765265,7.82551864478423,-0.998060108129078,-5.5682261588637845,-0.8545865491016388
1669909209367372411,0.21499116380507904,8.672418041765265,7.82551864478423,-0.9980534136307622,-5.568418002956178,-0.8545865491016388
1669909209389821347,0.21499116380507904,8.672418041765265,7.82551864478423,-0.9980534136307622,-5.568418002956178,-0.8545865491016388
1669909209420559903,0.21732128473403967,8.639685953544696,7.826528276225527,-1.0,-5.5422692352700285,-0.5224915221317302
1669909209449328661,0.21802573800220978,8.642680340764793,7.826526677425795,-1.0,-5.542269235270028,-0.5224915221317306
1669909209467335257,0.21802573800220978,8.642680340764793,7.826526677425795,-1.0,-5.553048280334337,-0.5224915221317306
1669909209467355242,0.2191130709249085,8.647861409255183,7.826521476206608,-1.0,-5.553048280334337,-0.5224915221317309
1669909209490532957,0.2191130709249085,8.647861409255183,7.826521476206608,-1.0,-5.543851188070517,-0.5224915221317309
1669909209512368217,0.2191130709249085,8.647861409255183,7.826521476206608,-1.0,-5.563018398660077,-0.5224915221317309
1669909209743474445,0.2191130709249085,8.647861409255183,7.826521476206608,-1.0,-5.563018398660077,-0.5224915221317309
1669909209766372752,0.2191130709249085,8.647861409255183,7.826521476206608,-1.0,-5.56330705111124,-0.5224915221317309
1669909209766375135,0.23008410673323332,8.685164380141414,7.823850145039387,-1.0,-5.563460248194429,-0.6614498980327147
1669909209766376700,0.23039917912165306,8.696734450356367,7.813847975360641,-1.0,-5.563460248194429,-0.6614498980327148
1669909209766390477,0.23039917912165306,8.696734450356367,7.813847975360641,-1.0,-5.558087699347817,-0.6614498980327148
1669909209766402699,0.23190960499443422,8.704928037889804,7.81383234278667,-1.0,-5.514329699353491,-0.6614498980327154
1669909209766414790,0.23190960499443422,8.704928037889804,7.81383234278667,-1.0,-5.560623369322525,-0.6614498980327154
1669909209766426807,0.23190960499443422,8.704928037889804,7.81383234278667,-1.0,-5.560745568225482,-0.6614498980327154
1669909209766653994,0.23190960499443422,8.704928037889804,7.81383234278667,-1.0,-5.560745568225482,-0.6614498980327154
1669909209766658892,0.23190960499443422,8.704928037889804,7.81383234278667,-1.0,-5.561000884839864,-0.6614498980327154
1669909209766660760,0.23286476492442823,8.731029181449903,7.803815927202929,-1.0,-5.5354557578474335,-0.6614498980327158
1669909209766662349,0.23286476492442823,8.731029181449903,7.803815927202929,-1.0,-5.5354557578474335,-0.6614498980327158
1669909209774946660,0.23286476492442823,8.731029181449903,7.803815927202929,-1.0,-5.5595622361562835,-0.6614498980327158
1669909209795716987,0.23286476492442823,8.731029181449903,7.803815927202929,-1.0,-5.55971258008484,-0.6614498980327158
1669909209819685187,0.23399281478012893,8.736877309343111,7.803796739718821,-1.0,-5.559712580084838,-0.6614498980327158
1669909209838407989,0.23444761046613974,8.738982285893906,7.803788985106023,-1.0,-5.526918839893113,-0.6614498980327158
1669909209850875149,0.23444761046613974,8.738982285893906,7.803788985106023,-1.0,-5.557043892947749,-0.6614498980327158
1669909209874800176,0.23967851409162802,8.676447476781357,7.777286971899541,-1.0,-5.55714543709788,-0.6023060716672449
1669909209892501855,0.23967851409162802,8.676447476781357,7.777286971899541,-1.0,-5.55714543709788,-0.6023060716672449
1669909209906560336,0.23967851409162802,8.676447476781357,7.777286971899541,-1.0,-5.557320211821944,-0.6023060716672449
1669909209933867093,0.2398839638515882,8.685791100896347,7.775860036703619,-1.0,-5.557410503777092,-0.5816618911905794
1669909209955015400,0.2505188700060519,8.689596068964846,7.775844689172679,-1.0,-5.557410503777091,-0.5816618911905791
1669909209968987998,0.2505188700060519,8.689596068964846,7.775844689172679,-1.0,-5.546380188533309,-0.5816618911905791
1669909209991522343,0.2505188700060519,8.689596068964846,7.775844689172679,-1.0,-5.556487892165536,-0.5816618911905791
1669909210014474308,0.2515544870740054,8.69190583133155,7.775835034454836,-1.0,-5.525825350945275,-0.5816618911905785
1669909210142840192,0.2515544870740054,8.69190583133155,7.775835034454836,-1.0,-5.554735412646038,-0.5816618911905785
1669909210162299454,0.2515544870740054,8.69190583133155,7.775835034454836,-1.0,-5.554735412646038,-0.5816618911905785
1669909210162341289,0.20957039090453367,8.690670823091803,7.770381507481112,-1.0,-5.554869364035122,-0.5593001469953557
1669909210162372924,0.20957039090453367,8.690670823091803,7.770381507481112,-1.0,-5.554869364035122,-0.5593001469953557
1669909210162442154,0.20957039090453367,8.690670823091803,7.770381507481112,-1.0,-5.55500541946722,-0.5593001469953557
1669909210162477117,0.20957039090453367,8.690670823091803,7.770381507481112,-1.0,-5.555079697151275,-0.5593001469953557
1669909210162537965,0.21993749998039938,8.71105548857571,7.770379915367925,-1.0,-5.543268350390257,-0.5593001469953554
1669909210176814314,0.21993749998039938,8.71105548857571,7.770379915367925,-1.0,-5.554538270381305,-0.5593001469953554
1669909210193416929,0.21993749998039938,8.71105548857571,7.770379915367925,-1.0,-5.554538270381305,-0.5593001469953554
1669909210211179947,0.2210291824051051,8.712394032449074,7.770374171283008,-1.0,-5.535172334285577,-0.5593001469953549
1669909210235990409,0.2210291824051051,8.712394032449074,7.770374171283008,-1.0,-5.5526865845786615,-0.5593001469953549
1669909210259863295,0.2210291824051051,8.712394032449074,7.770374171283008,-1.0,-5.5526865845786615,-0.5593001469953549
1669909210274835714,0.2210291824051051,8.712394032449074,7.770374171283008,-1.0,-5.552790586392908,-0.5593001469953549
1669909210327139405,0.1802993914791255,8.64127317425663,7.769137225892306,-1.0,-5.552849664101544,-0.43814783915715344
1669909210327596197,0.1802993914791255,8.64127317425663,7.769137225892306,-1.0,-5.552849664101544,-0.43814783915715344
1669909210341377263,0.1802993914791255,8.64127317425663,7.769137225892306,-1.0,-5.552945966294302,-0.43814783915715344
1669909210360022190,0.17086503313375614,8.652152971659545,7.769133218383981,-1.0,-5.552945966294303,-0.4381478391571534
1669909210381728062,0.17086503313375614,8.652152971659545,7.769133218383981,-1.0,-5.543391369455749,-0.4381478391571534
1669909210402192254,0.20182072402430676,8.64274974289978,7.768357761955453,-1.0,-5.543391369455749,-0.4676354024543059
1669909210423051826,0.20344972415404333,8.64395940009375,7.7683522990960086,-1.0,-5.523972922089599,-0.46763540245430574
1669909210440318034,0.20344972415404333,8.64395940009375,7.7683522990960086,-1.0,-5.549084287364906,-0.46763540245430574
1669909210454823375,0.20344972415404333,8.64395940009375,7.7683522990960086,-1.0,-5.5491100901598776,-0.46763540245430574
1669909210475731099,0.20344972415404333,8.64395940009375,7.7683522990960086,-1.0,-5.5491100901598776,-0.46763540245430574
1669909210495981315,0.20344972415404333,8.64395940009375,7.7683522990960086,-1.0,-5.549161040095743,-0.46763540245430574
1669909210520056685,0.20344972415404333,8.64395940009375,7.7683522990960086,-1.0,-5.5491893983067895,-0.46763540245430574
1669909210537062691,0.17392268209295286,8.621639844811158,7.767457484366318,-1.0,-5.5491893983067895,-0.3553923312558423
1669909210559266951,0.16446693626522974,8.631958815346652,7.767455982367322,-1.0,-5.539010440216152,-0.3553923312558422
1669909210797623697,0.16446693626522974,8.631958815346652,7.767455982367322,-1.0,-5.548248808732295,-0.3553923312558422
1669909210822577349,0.16446693626522974,8.631958815346652,7.767455982367322,-1.0,-5.548248808732295,-0.3553923312558422
1669909210822742645,0.16509939649996083,8.632346006743473,7.7674541140854085,-1.0,-5.536395121998908,-0.355392331255841
1669909210822748667,0.16509939649996083,8.632346006743473,7.7674541140854085,-1.0,-5.536395121998908,-0.355392331255841
1669909210822817550,0.16509939649996083,8.632346006743473,7.7674541140854085,-1.0,-5.547127455783227,-0.355392331255841
1669909210822821917,0.16509939649996083,8.632346006743473,7.7674541140854085,-1.0,-5.547139417397375,-0.355392331255841
1669909210822876018,0.16509939649996083,8.632346006743473,7.7674541140854085,-1.0,-5.547139417397375,-0.355392331255841
1669909210828221393,0.16509939649996083,8.632346006743473,7.7674541140854085,-1.0,-5.547160159721156,-0.355392331255841
1669909210828230853,0.18528005716584753,8.63212970826108,7.767455210811515,-1.0,-5.541534498789902,-0.35539233125584085
1669909210828233210,0.18528005716584753,8.63212970826108,7.767455210811515,-1.0,-5.541534498789902,-0.35539233125584085
1669909210828235974,0.18528005716584753,8.63212970826108,7.767455210811515,-1.0,-5.546853353186692,-0.35539233125584085
1669909210828383682,0.18511292666595128,8.631255490469684,7.767459547689304,-1.0,-5.552258444904512,-0.3553923312558394
1669909210828443131,0.18511292666595128,8.631255490469684,7.767459547689304,-1.0,-5.547181088450943,-0.3553923312558394
1669909210840569014,0.18511292666595128,8.631255490469684,7.767459547689304,-1.0,-5.547192408469396,-0.3553923312558394
1669909210846010264,0.18511292666595128,8.631255490469684,7.767459547689304,-1.0,-5.547192408469396,-0.3553923312558394
1669909210871112222,0.1395893856177821,8.55584607808565,7.7680643858221625,-1.0,-5.5472129373342876,-0.36079502664344126
1669909210888700850,0.11893296279501005,8.56449717592268,7.768070858938141,-1.0,-5.547212937334287,-0.3607950266434402
1669909210911276068,0.11893296279501005,8.56449717592268,7.768070858938141,-1.0,-5.5588044708561375,-0.3607950266434402
1669909210929620846,0.11709822370289612,8.560235314948237,7.768089909370056,-0.9913820276615073,-5.60781907423273,-0.360795026643438
1669909210950873373,0.11709822370289612,8.560235314948237,7.768089909370056,-0.9913820276615073,-5.60781907423273,-0.360795026643438
1669909210969979426,0.11631956635787313,8.55839398073487,7.768097467059405,-1.0,-5.565346002630079,-0.36079502664343727
1669909210991115150,0.11631956635787313,8.55839398073487,7.768097467059405,-1.0,-5.565346002630079,-0.36079502664343727
1669909211018461553,0.11631956635787313,8.55839398073487,7.768097467059405,-1.0,-5.553500469601027,-0.36079502664343727
1669909211036019863,0.1614845109619123,8.485759760611579,7.774832642907413,-1.0,-5.553500469601027,-0.34222972579137695
1669909211051978023,0.1614845109619123,8.485759760611579,7.774832642907413,-1.0,-5.553595871960002,-0.34222972579137695
1669909211070530019,0.1614845109619123,8.485759760611579,7.774832642907413,-1.0,-5.553595871960002,-0.34222972579137695
1669909211186223734,0.16117386810527798,8.484776902531284,7.764836558162898,-1.0,-5.55921512627587,-0.342229725791377
1669909211234085663,0.16117386810527798,8.484776902531284,7.764836558162898,-1.0,-5.554324786734722,-0.342229725791377
1669909211234094017,0.14157125695512487,8.517604991553519,7.76472002839497,-0.9883677281398833,-5.596471527154009,-0.40098734199837854
1669909211234129930,0.14157125695512487,8.517604991553519,7.76472002839497,-0.9883677281398833,-5.596471527154009,-0.40098734199837854
1669909211234147403,0.14157125695512487,8.517604991553519,7.76472002839497,-1.0,-5.557739836601203,-0.40098734199837854
1669909211234239980,0.14050811507598232,8.514496253306467,7.764729597339999,-1.0,-5.557739836601201,-0.40098734199837754
1669909211234243474,0.14050811507598232,8.514496253306467,7.764729597339999,-1.0,-5.5764531649511575,-0.40098734199837754
1669909211257313393,0.14050811507598232,8.514496253306467,7.764729597339999,-1.0,-5.5599748850388675,-0.40098734199837754
1669909211257418146,0.14050811507598232,8.514496253306467,7.764729597339999,-1.0,-5.5599748850388675,-0.40098734199837754
1669909211273356324,0.14050811507598232,8.514496253306467,7.764729597339999,-1.0,-5.560125506372373,-0.40098734199837754
1669909211290802433,0.14050811507598232,8.514496253306467,7.764729597339999,-1.0,-5.560125506372373,-0.40098734199837754
1669909211312699252,0.13932946451364592,8.521707886574976,7.7647370411348735,-1.0,-5.580491052824807,-0.4009873419983764
1669909211329875913,0.13295663833974436,8.463146323083155,7.778207392830888,-1.0,-5.580491052824807,-0.33060257322923137
1669909211352667605,0.1309749333226292,8.459817541452459,7.778214478769688,-0.9992691518630055,-5.5960666011994205,-0.3306025732292301
1669909211369121352,0.1309749333226292,8.459817541452459,7.778214478769688,-0.9992691518630055,-5.5960666011994205,-0.3306025732292301
1669909211390167514,0.1309749333226292,8.459817541452459,7.778214478769688,-1.0,-5.566637965551837,-0.3306025732292301
1669909211408309706,0.1309749333226292,8.459817541452459,7.778214478769688,-1.0,-5.5667662303312415,-0.3306025732292301
1669909211430716980,0.1309749333226292,8.459817541452459,7.778214478769688,-1.0,-5.566897860064666,-0.3306025732292301
1669909211452246161,0.1309749333226292,8.459817541452459,7.778214478769688,-1.0,-5.566897860064666,-0.3306025732292301
1669909211474643036,0.1301663437856808,8.438843044822821,7.76821603048767,-1.0,-5.5801118035060435,-0.33060257322922987
1669909211491650060,0.1301663437856808,8.438843044822821,7.76821603048767,-1.0,-5.5801118035060435,-0.33060257322922987
1669909211507943641,0.1301663437856808,8.438843044822821,7.76821603048767,-1.0,-5.568923686735994,-0.33060257322922987
1669909211530661427,0.12471638660511356,8.36757393543567,7.769313105363896,-1.0,-5.59455584629236,-0.30468164942995274
1669909211548451500,0.12471638660511356,8.36757393543567,7.769313105363896,-1.0,-5.59455584629236,-0.30468164942995274
1669909211569695391,0.12471638660511356,8.36757393543567,7.769313105363896,-1.0,-5.5710089561915055,-0.30468164942995274
1669909211591546213,0.12471638660511356,8.36757393543567,7.769313105363896,-1.0,-5.5710089561915055,-0.30468164942995274
1669909211608284573,0.12471638660511356,8.36757393543567,7.769313105363896,-1.0,-5.571305117204272,-0.30468164942995274
1669909211854888133,0.12471638660511356,8.36757393543567,7.769313105363896,-1.0,-5.571305117204272,-0.30468164942995274
1669909211878259714,0.12438367561489469,8.36736842390317,7.759313185421579,-1.0,-5.577300455724656,-0.30468164942995235
1669909211878276034,0.12088116698950654,8.41137453314084,7.770244826284998,-1.0,-5.577300455724656,-0.3150564618392341
1669909211878403262,0.11992028867883728,8.410870062218727,7.7702447594875705,-1.0,-5.588984927257252,-0.31505646183923314
1669909211878406938,0.11968489709369638,8.410650053929404,7.7702449496111345,-1.0,-5.5889849272572505,-0.31505646183923264
1669909211878430279,0.11968489709369638,8.410650053929404,7.7702449496111345,-1.0,-5.5782641258491825,-0.31505646183923264
1669909211878468582,0.11946484433466174,8.410457339152734,7.770245087896516,-1.0,-5.578264125849182,-0.31505646183923225
1669909211878476383,0.11946484433466174,8.410457339152734,7.770245087896516,-1.0,-5.579752570566108,-0.31505646183923225
1669909211878526490,0.11943986216872342,8.410347329528857,7.770245305748027,-1.0,-5.576735329610992,-0.3150564618392323
1669909211878531446,0.11943986216872342,8.410347329528857,7.770245305748027,-1.0,-5.576735329610992,-0.3150564618392323
1669909211878534397,0.11943986216872342,8.410347329528857,7.770245305748027,-1.0,-5.576398877548563,-0.3150564618392323
1669909211878554469,0.11943986216872342,8.410347329528857,7.770245305748027,-1.0,-5.576398877548563,-0.3150564618392323
1669909211887142088,0.11943986216872342,8.410347329528857,7.770245305748027,-1.0,-5.576726695176384,-0.3150564618392323
1669909211892565231,0.11943986216872342,8.410347329528857,7.770245305748027,-1.0,-5.576726695176384,-0.3150564618392323
1669909211908791648,0.10950269942158047,8.40026797387135,7.770245592008466,-1.0,-5.575983939237256,-0.31505646183923236
1669909211927272167,0.10950269942158047,8.40026797387135,7.770245592008466,-1.0,-5.575983939237256,-0.31505646183923236
1669909211952006959,0.1101934016572016,8.399792697999228,7.770247615655178,-1.0,-5.565010008557436,-0.31505646183923175
1669909211972474269,0.13233756095931704,8.351337698075522,7.769141949494594,-1.0,-5.565010008557436,-0.3394714649750321
1669909211995255289,0.13233756095931704,8.351337698075522,7.769141949494594,-1.0,-5.576345267175578,-0.3394714649750321
1669909212012788777,0.13233756095931704,8.351337698075522,7.769141949494594,-1.0,-5.576345267175578,-0.3394714649750321
1669909212029336857,0.13233756095931704,8.351337698075522,7.769141949494594,-1.0,-5.576631607771009,-0.3394714649750321
1669909212057685039,0.13233756095931704,8.351337698075522,7.769141949494594,-1.0,-5.576805471471054,-0.3394714649750321
1669909212073674806,0.14014657036230738,8.333732274148215,7.746348686297649,-1.0,-5.576805471471054,-0.4139886517061322
1669909212090910111,0.14014657036230738,8.333732274148215,7.746348686297649,-1.0,-5.577112449191962,-0.4139886517061322
1669909212116807521,0.1307093938339766,8.333033019336339,7.736350966447542,-1.0,-5.5591109260260305,-0.41398865170613214
1669909212129934680,0.1307093938339766,8.333033019336339,7.736350966447542,-1.0,-5.5591109260260305,-0.41398865170613214
1669909212574406204,0.13284361688173693,8.33107615352985,7.736357512722545,-1.0,-5.541387931611777,-0.41398865170613236
1669909212626738766,0.19081431207931918,8.305410989536014,7.746444108734661,-1.0,-5.541387931611777,-0.49023935571149296
1669909212626744095,0.19081431207931918,8.305410989536014,7.746444108734661,-1.0,-5.572826771409049,-0.49023935571149296
1669909212626854922,0.19081431207931918,8.305410989536014,7.746444108734661,-1.0,-5.572966676787977,-0.49023935571149296
1669909212626859690,0.19081431207931918,8.305410989536014,7.746444108734661,-1.0,-5.572966676787977,-0.49023935571149296
1669909212627202479,0.19081431207931918,8.305410989536014,7.746444108734661,-1.0,-5.573208806950852,-0.49023935571149296
1669909212627258645,0.1813962433728385,8.294814452754618,7.746445881107132,-1.0,-5.554549751928688,-0.490239355711493
1669909212627283659,0.1813962433728385,8.294814452754618,7.746445881107132,-1.0,-5.572395312317132,-0.490239355711493
1669909212627309586,0.1813962433728385,8.294814452754618,7.746445881107132,-1.0,-5.572395312317132,-0.490239355711493
1669909212627359656,0.1847977982897437,8.292327606413405,7.746453131620764,-0.9982597447574947,-5.5112588927722115,-0.4902393557114938
1669909212627363754,0.1847977982897437,8.292327606413405,7.746453131620764,-1.0,-5.5663817474168935,-0.4902393557114938
1669909212627422275,0.1847977982897437,8.292327606413405,7.746453131620764,-1.0,-5.566469778289125,-0.4902393557114938
1669909212683120008,0.1847977982897437,8.292327606413405,7.746453131620764,-1.0,-5.566469778289125,-0.4902393557114938
1669909212683153365,0.1847977982897437,8.292327606413405,7.746453131620764,-1.0,-5.566618132504862,-0.4902393557114938
1669909212683174725,0.17671317323412603,8.290801828962516,7.736456609584923,-0.9970535312096963,-5.507107943424521,-0.49023935571149396
1669909212683195059,0.17671317323412603,8.290801828962516,7.736456609584923,-0.9970535312096963,-5.507107943424521,-0.49023935571149396
1669909212683216297,0.17671317323412603,8.290801828962516,7.736456609584923,-1.0,-5.563269397737154,-0.49023935571149396
1669909212683236816,0.18118077879070346,8.286517667945756,7.736463136075109,-0.9814175903958666,-5.4189675901777665,-0.49023935571149446
1669909212683257429,0.18118077879070346,8.286517667945756,7.736463136075109,-1.0,-5.555073318315699,-0.49023935571149446
1669909212683277361,0.18344144093684012,8.28465245160328,7.736464691333855,-1.0,-5.555073318315697,-0.4902393557114951
1669909212683299496,0.18344144093684012,8.28465245160328,7.736464691333855,-0.9978432827779172,-5.516164080695456,-0.4902393557114951
1669909212683331208,0.18344144093684012,8.28465245160328,7.736464691333855,-1.0,-5.5508434392934936,-0.4902393557114951
1669909212683333779,0.18344144093684012,8.28465245160328,7.736464691333855,-1.0,-5.5508434392934936,-0.4902393557114951
1669909212683360021,0.18344144093684012,8.28465245160328,7.736464691333855,-1.0,-5.550789191805212,-0.4902393557114951
1669909213055249630,0.18344144093684012,8.28465245160328,7.736464691333855,-1.0,-5.550758521460987,-0.4902393557114951
1669909213055275968,0.1857358110208279,8.28305467409492,7.736465169944831,-0.9949658830708104,-5.484810722249228,-0.49023935571149524
1669909213055300745,0.1857358110208279,8.28305467409492,7.736465169944831,-0.9949658830708104,-5.484810722249228,-0.49023935571149524
1669909213081115646,0.1857358110208279,8.28305467409492,7.736465169944831,-0.9962303616120739,-5.485028159502679,-0.49023935571149524
1669909213081125117,0.18900745411087022,8.281167307455407,7.736464279766055,-0.9962303616120739,-5.485028159502675,-0.49023935571149524
1669909213081142228,0.18900745411087022,8.281167307455407,7.736464279766055,-1.0,-5.54013317923271,-0.49023935571149524
1669909213081163743,0.18900745411087022,8.281167307455407,7.736464279766055,-1.0,-5.540035077661561,-0.49023935571149524
1669909213081185711,0.18900745411087022,8.281167307455407,7.736464279766055,-1.0,-5.539935037530427,-0.49023935571149524
1669909213081206484,0.18900745411087022,8.281167307455407,7.736464279766055,-1.0,-5.539935037530427,-0.49023935571149524
1669909213081227575,0.2008394985864398,8.280505281187429,7.736462974151271,-0.9995749734512239,-5.506923309613603,-0.490239355711495
1669909213081248557,0.2008394985864398,8.280505281187429,7.736462974151271,-1.0,-5.5362186587066455,-0.490239355711495
1669909213081269150,0.2008394985864398,8.280505281187429,7.736462974151271,-1.0,-5.5362186587066455,-0.490239355711495
1669909213081289741,0.20306967621981364,8.280588944867798,7.736460499547256,-1.0,-5.496755051347634,-0.4902393557114954
1669909213081309785,0.20429746070978394,8.281373730198663,7.7364585513676065,-1.0,-5.496755051347632,-0.4902393557114952
1669909213081357569,0.20429746070978394,8.281373730198663,7.7364585513676065,-1.0,-5.510021519252119,-0.4902393557114952
1669909213081364886,0.20429743727579605,8.281373631593505,7.73645855145179,-1.0,-5.510021519252119,-0.4902393557114952
1669909213081381073,0.20429743727579605,8.281373631593505,7.73645855145179,-1.0,-5.52896211526133,-0.4902393557114952
1669909213081401866,0.20497897728305356,8.282011168865347,7.7364572570724945,-1.0,-5.506834130380251,-0.49023935571149513
1669909213081422215,0.20497897728305356,8.282011168865347,7.7364572570724945,-1.0,-5.527366903512717,-0.49023935571149513
1669909213081442332,0.20497897728305356,8.282011168865347,7.7364572570724945,-1.0,-5.527366903512717,-0.49023935571149513
1669909213081462999,0.20497897728305356,8.282011168865347,7.7364572570724945,-1.0,-5.527039687169517,-0.49023935571149513
1669909213094181061,0.20497897728305356,8.282011168865347,7.7364572570724945,-1.0,-5.526871229268274,-0.49023935571149513
1669909213094220655,0.20497897728305356,8.282011168865347,7.7364572570724945,-1.0,-5.526871229268274,-0.49023935571149513
1669909213094246230,0.20497897728305356,8.282011168865347,7.7364572570724945,-1.0,-5.526525961322197,-0.49023935571149513
1669909213118321752,0.21547638582273215,8.283087458068747,7.736455838068537,-1.0,-5.514951576503314,-0.49023935571149435
1669909213133787357,0.21547638582273215,8.283087458068747,7.736455838068537,-1.0,-5.514951576503314,-0.49023935571149435
1669909213609635362,0.21547638582273215,8.283087458068747,7.736455838068537,-1.0,-5.5250772910091746,-0.49023935571149435
1669909213641373483,0.3871680493859837,8.243475999290366,7.754048446997217,-1.0,-5.5250772910091746,-0.6934517808242187
1669909213641393631,0.3871680493859837,8.243475999290366,7.754048446997217,-1.0,-5.524750712306896,-0.6934517808242187
1669909213641413695,0.3871680493859837,8.243475999290366,7.754048446997217,-1.0,-5.524558570186419,-0.6934517808242187
1669909213641433570,0.3865104168739264,8.245413382529323,7.75404780914314,-1.0,-5.5447385060757926,-0.6934517808242175
1669909213643846884,0.3865104168739264,8.245413382529323,7.75404780914314,-1.0,-5.5447385060757926,-0.6934517808242175
1669909213643924715,0.3865104168739264,8.245413382529323,7.75404780914314,-1.0,-5.525283330348029,-0.6934517808242175
1669909213643952220,0.38427964816037463,8.247539486820518,7.754048480022757,-1.0,-5.525283330348025,-0.6934517808242157
1669909213643973925,0.38427964816037463,8.247539486820518,7.754048480022757,-1.0,-5.562675927804803,-0.6934517808242157
1669909213644966019,0.38427964816037463,8.247539486820518,7.754048480022757,-1.0,-5.562675927804803,-0.6934517808242157
1669909213645001163,0.38427964816037463,8.247539486820518,7.754048480022757,-1.0,-5.5288222386338735,-0.6934517808242157
1669909213645023577,0.38427964816037463,8.247539486820518,7.754048480022757,-1.0,-5.528683215074703,-0.6934517808242157
1669909213645062477,0.38427964816037463,8.247539486820518,7.754048480022757,-1.0,-5.528683215074703,-0.6934517808242157
1669909213645089420,0.38427964816037463,8.247539486820518,7.754048480022757,-1.0,-5.528405766283345,-0.6934517808242157
1669909213645110688,0.40314113939802537,8.238822198957736,7.754048209481804,-1.0,-5.528405766283344,-0.693451780824215
1669909213645132303,0.40314113939802537,8.238822198957736,7.754048209481804,-1.0,-5.547615468070775,-0.693451780824215
1669909213645156839,0.3979093669589449,8.244211094826097,7.754044007252329,-1.0,-5.54761546807077,-0.6934517808242122
1669909213656429578,0.3979093669589449,8.244211094826097,7.754044007252329,-1.0,-5.619604715503643,-0.6934517808242122
1669909213656451061,0.3979093669589449,8.244211094826097,7.754044007252329,-1.0,-5.619604715503643,-0.6934517808242122
1669909213656473211,0.3979093669589449,8.244211094826097,7.754044007252329,-1.0,-5.539600146051159,-0.6934517808242122
1669909213656494222,0.3979093669589449,8.244211094826097,7.754044007252329,-1.0,-5.539537146972873,-0.6934517808242122
1669909213656515915,0.39675488767198247,8.245346018841898,7.754042409521152,-1.0,-5.571973547342952,-0.6934517808242118
1669909213657888462,0.39675488767198247,8.245346018841898,7.754042409521152,-1.0,-5.571973547342952,-0.6934517808242118
1669909213657930226,0.39675488767198247,8.245346018841898,7.754042409521152,-1.0,-5.541515892659343,-0.6934517808242118
1669909213657954215,0.3932541762692288,8.248952229579483,7.754035556528844,-1.0,-5.639787043781474,-0.69345178082421
1669909213660445137,0.39279841902760787,8.249438022371885,7.754034436787219,-1.0,-5.639787043781474,-0.6934517808242099
1669909213675360619,0.39279841902760787,8.249438022371885,7.754034436787219,-1.0,-5.556485988820734,-0.6934517808242099
1669909213716016237,0.39279841902760787,8.249438022371885,7.754034436787219,-1.0,-5.548775263283535,-0.6934517808242099
1669909213909685637,0.39279841902760787,8.249438022371885,7.754034436787219,-1.0,-5.548777017284466,-0.6934517808242099
1669909213909705725,0.3946174782803468,8.220668648478147,8.205806351746173,-1.0,-5.548777017284466,-0.8341106213612811
1669909213909724926,0.3946174782803468,8.220668648478147,8.205806351746173,-1.0,-5.548780023760918,-0.8341106213612811
1669909213909744871,0.4108383611188003,8.234726472885319,8.205795224108225,-1.0,-5.671207622997219,-0.83411062136128
1669909213909763882,0.4108383611188003,8.234726472885319,8.205795224108225,-1.0,-5.55582121710913,-0.83411062136128
1669909213909812678,0.40649510816367423,8.238795893254986,8.20578048583286,-1.0,-5.55582121710913,-0.8341106213612783
1669909213909869187,0.40649507440111204,8.238795750633306,8.20578048625623,-1.0,-5.639390785451315,-0.8341106213612783
1669909213909910209,0.4063224138836094,8.238915852214362,8.205779958326243,-1.0,-5.639390785451315,-0.8341106213612777
1669909213909930709,0.4063224138836094,8.238915852214362,8.205779958326243,-1.0,-5.5671388740709595,-0.8341106213612777
1669909214158477364,0.4063224138836094,8.238915852214362,8.205779958326243,-1.0,-5.564594476861686,-0.8341106213612777
1669909214158502285,0.4063224138836094,8.238915852214362,8.205779958326243,-1.0,-5.564594476861686,-0.8341106213612777
1669909214158522856,0.4063224138836094,8.238915852214362,8.205779958326243,-1.0,-5.564799990490488,-0.8341106213612777
1669909214158563200,0.4063224138836094,8.238915852214362,8.205779958326243,-1.0,-5.564935522446346,-0.8341106213612777
1669909214158587003,0.4138292809037807,8.261077327040832,8.205770360528902,-1.0,-5.564935522446346,-0.8341106213612771
1669909214158792359,0.4138292809037807,8.261077327040832,8.205770360528902,-1.0,-5.613483453309612,-0.8341106213612771
1669909214158814888,0.4115144592246164,8.263540803520101,8.205758825609557,-1.0,-5.607181769203935,-0.834110621361276
1669909214158836518,0.4115144592246164,8.263540803520101,8.205758825609557,-1.0,-5.607181769203935,-0.834110621361276
1669909214158890408,0.4115144592246164,8.263540803520101,8.205758825609557,-1.0,-5.607181769203935,-0.834110621361276
1669909214158920836,0.4113171937157105,8.263977552407422,8.20575695310843,-1.0,-5.578289045570331,-0.834110621361276
1669909214159099320,0.4113171937157105,8.263977552407422,8.20575695310843,-1.0,-5.575283389798035,-0.834110621361276
1669909214159124465,0.4113171937157105,8.263977552407422,8.20575695310843,-1.0,-5.575283389798035,-0.834110621361276
1669909214159145952,0.4113171937157105,8.263977552407422,8.20575695310843,-1.0,-5.575486840460402,-0.834110621361276
1669909214159168068,0.4113171937157105,8.263977552407422,8.20575695310843,-1.0,-5.5756585779389365,-0.834110621361276
1669909214184244850,0.4207675790408255,8.275005957816608,8.205752314139417,-1.0,-5.575658577938937,-0.8341106213612758
1669909214198194616,0.4207675790408255,8.275005957816608,8.205752314139417,-1.0,-5.583914489352826,-0.8341106213612758
1669909214232375308,0.41948473273863096,8.27863081588942,8.20573595557266,-1.0,-5.5839144893528285,-0.834110621361275
1669909214480368538,0.2939539422010352,8.148369037057938,8.138247851467664,-1.0,-5.605979644106217,-0.67482702433898
1669909214480371226,0.293682286915882,8.150492038025124,8.138238342031627,-1.0,-5.5884613335610025,-0.6748270243389799
1669909214480373490,0.293682286915882,8.150492038025124,8.138238342031627,-1.0,-5.5884613335610025,-0.6748270243389799
1669909214480375610,0.2938109914672289,8.153127361305092,8.138226630893383,-1.0,-5.578548218460344,-0.6748270243389803
1669909214480377977,0.2938109914672289,8.153127361305092,8.138226630893383,-1.0,-5.580738624770437,-0.6748270243389803
1669909214480380115,0.2938109914672289,8.153127361305092,8.138226630893383,-1.0,-5.580931496591076,-0.6748270243389803
1669909214480382452,0.2938109914672289,8.153127361305092,8.138226630893383,-1.0,-5.58117574315692,-0.6748270243389803
1669909214480384514,0.2938109914672289,8.153127361305092,8.138226630893383,-1.0,-5.58117574315692,-0.6748270243389803
1669909214480386553,0.2938109914672289,8.153127361305092,8.138226630893383,-1.0,-5.581494328858911,-0.6748270243389803
1669909214480388613,0.2938774442878189,8.163694031248633,8.148224067824833,-1.0,-5.581494328858912,-0.6748270243389805
1669909214480390783,0.2938774442878189,8.163694031248633,8.148224067824833,-1.0,-5.580722276508054,-0.6748270243389805
1669909214480393110,0.2938774442878189,8.163694031248633,8.148224067824833,-1.0,-5.581932929272864,-0.6748270243389805
1669909214480396380,0.29532850339356154,8.170393051515408,8.148192369421867,-1.0,-5.581932929272868,-0.6748270243389815
1669909214494636574,0.29532850339356154,8.170393051515408,8.148192369421867,-1.0,-5.557716800488215,-0.6748270243389815
1669909214508172888,0.29532850339356154,8.170393051515408,8.148192369421867,-1.0,-5.557716800488215,-0.6748270243389815
1669909214534486026,0.29532850339356154,8.170393051515408,8.148192369421867,-1.0,-5.5800061329036845,-0.6748270243389815
1669909214572892395,0.29532850339356154,8.170393051515408,8.148192369421867,-1.0,-5.5800061329036845,-0.6748270243389815
1669909214590779080,0.21539003207627028,8.070007504831143,8.120594375809578,-1.0,-5.5803133397455955,-0.48390699550344646
1669909214600714726,0.21539003207627028,8.070007504831143,8.120594375809578,-1.0,-5.5803133397455955,-0.48390699550344646
1669909214614271745,0.21671654661568637,8.073306026169515,8.13057781054163,-1.0,-5.556407937699403,-0.48390699550344696
1669909214632062089,0.21671654661568637,8.073306026169515,8.13057781054163,-1.0,-5.556407937699403,-0.48390699550344696
1669909214679065586,0.21671654661568637,8.073306026169515,8.13057781054163,-1.0,-5.578472601046593,-0.48390699550344696
1669909214694120234,0.22136905311981628,8.08165755819631,8.13053123706203,-1.0,-5.428413930124731,-0.48390699550344823
1669909214694233854,0.22136905311981628,8.08165755819631,8.13053123706203,-1.0,-5.570141041776935,-0.48390699550344823
1669909214710375362,0.22136905311981628,8.08165755819631,8.13053123706203,-1.0,-5.570141041776935,-0.48390699550344823
1669909214732262587,0.22136905311981628,8.08165755819631,8.13053123706203,-1.0,-5.570323498628464,-0.48390699550344823
1669909214754366455,0.22136905311981628,8.08165755819631,8.13053123706203,-1.0,-5.570425752504837,-0.48390699550344823
1669909215059035563,0.16603582620064208,8.039725094550375,8.142546341355853,-1.0,-5.570425752504837,-0.3214998822642791
1669909215106979206,0.1580470640836475,8.06123616408178,8.142537669538054,-1.0,-5.535256244041973,-0.32149988226427967
1669909215107200933,0.1580470640836475,8.06123616408178,8.142537669538054,-1.0,-5.535256244041973,-0.32149988226427967
1669909215107212731,0.1580470640836475,8.06123616408178,8.142537669538054,-1.0,-5.567019384535696,-0.32149988226427967
1669909215107343166,0.161799575540558,8.063867615860463,8.142521125085725,-1.0,-5.452075443991453,-0.3214998822642804
1669909215107350592,0.161799575540558,8.063867615860463,8.142521125085725,-1.0,-5.452075443991453,-0.3214998822642804
1669909215107515839,0.161799575540558,8.063867615860463,8.142521125085725,-1.0,-5.560212994315832,-0.3214998822642804
1669909215107576338,0.161799575540558,8.063867615860463,8.142521125085725,-1.0,-5.560212994315832,-0.3214998822642804
1669909215114685707,0.161799575540558,8.063867615860463,8.142521125085725,-1.0,-5.560269146794681,-0.3214998822642804
1669909215114698210,0.1733256441364951,8.065166324560302,8.142512151889127,-1.0,-5.560269146794681,-0.3214998822642804
1669909215114701001,0.1733256441364951,8.065166324560302,8.142512151889127,-1.0,-5.53264021161417,-0.3214998822642804
1669909215114852889,0.17657752645597238,8.06554929184865,8.142509076766821,-1.0,-5.53264021161417,-0.32149988226428045
1669909215114920909,0.17657752645597238,8.06554929184865,8.142509076766821,-1.0,-5.501001235547338,-0.32149988226428045
1669909215152469238,0.17754276597080032,8.064784885991166,8.142514226738443,-1.0,-5.5232576523171835,-0.32149988226428006
1669909215152479667,0.17754276597080032,8.064784885991166,8.142514226738443,-1.0,-5.5232576523171835,-0.32149988226428006
1669909215152482789,0.17754276597080032,8.064784885991166,8.142514226738443,-1.0,-5.549541628381024,-0.32149988226428006
1669909215152485370,0.17754276597080032,8.064784885991166,8.142514226738443,-1.0,-5.549541628381024,-0.32149988226428006
1669909215152487801,0.17754276597080032,8.064784885991166,8.142514226738443,-1.0,-5.549460080507781,-0.32149988226428006
1669909215152490510,0.17754276597080032,8.064784885991166,8.142514226738443,-1.0,-5.549460080507781,-0.32149988226428006
1669909215152493094,0.17774982756996,8.05448509023064,8.152516284434576,-1.0,-5.545763842425202,-0.3214998822642797
1669909215169023326,0.17774982756996,8.05448509023064,8.152516284434576,-1.0,-5.545763842425202,-0.3214998822642797
1669909215192726288,0.17774982756996,8.05448509023064,8.152516284434576,-1.0,-5.548894688005161,-0.3214998822642797
1669909215219072120,0.17925805534861908,8.050449530031296,8.152543279796463,-1.0,-5.508957848028705,-0.32149988226427895
1669909215240703623,0.1800505751016109,8.047008160862449,8.152565125363823,-1.0,-5.508957848028702,-0.32149988226427834
1669909215258844200,0.1800505751016109,8.047008160862449,8.152565125363823,-1.0,-5.530655018386279,-0.32149988226427834
1669909215276156766,0.18027209374031844,8.045327814254525,8.152575438270999,-1.0,-5.537304931316477,-0.3214998822642782
1669909215572657290,0.18027209374031844,8.045327814254525,8.152575438270999,-1.0,-5.537304931316477,-0.3214998822642782
1669909215611740506,0.18027209374031844,8.045327814254525,8.152575438270999,-1.0,-5.543813745009242,-0.3214998822642782
1669909215611744775,0.03338998230083707,7.823723109397654,8.140284364471865,-1.0,-5.543731780857969,-0.16385992057456758
1669909215611746694,0.03338998230083707,7.823723109397654,8.140284364471865,-1.0,-5.543731780857969,-0.16385992057456758
1669909215611763041,0.03338998230083707,7.823723109397654,8.140284364471865,-1.0,-5.543592152203253,-0.16385992057456758
1669909215611776614,0.03351434648773943,7.822755462782921,8.140290172211778,-1.0,-5.53959023468214,-0.16385992057456722
1669909215611790453,0.03351434648773943,7.822755462782921,8.140290172211778,-1.0,-5.53959023468214,-0.16385992057456722
1669909215611804516,0.03351434648773943,7.822755462782921,8.140290172211778,-1.0,-5.54312708554948,-0.16385992057456722
1669909215611817422,0.03578327475329805,7.811418828438415,8.140350301734417,-0.9633762466805816,-5.477285210446775,-0.16385992057456605
1669909215615688163,0.03578327475329805,7.811418828438415,8.140350301734417,-0.9633762466805816,-5.477285210446775,-0.16385992057456605
1669909215615719050,0.03578327475329805,7.811418828438415,8.140350301734417,-1.0,-5.53864118775181,-0.16385992057456605
1669909215615727271,0.03578327475329805,7.811418828438415,8.140350301734417,-1.0,-5.53864118775181,-0.16385992057456605
1669909215615740339,0.03578327475329805,7.811418828438415,8.140350301734417,-1.0,-5.538429939186354,-0.16385992057456605
1669909215615824185,0.03578327475329805,7.811418828438415,8.140350301734417,-1.0,-5.538322139426078,-0.16385992057456605
1669909215615841831,0.026118383239488403,7.799424780489136,8.150359543826376,-1.0,-5.538322139426077,-0.16385992057456591
1669909215615856194,0.026118383239488403,7.799424780489136,8.150359543826376,-1.0,-5.532354555546144,-0.16385992057456591
1669909215615881067,0.026118383239488403,7.799424780489136,8.150359543826376,-1.0,-5.537370607424769,-0.16385992057456591
1669909215630142057,0.0278674640971226,7.78797596253908,8.150404646203858,-1.0,-5.537370607424762,-0.16385992057456447
1669909215647923738,0.0278674640971226,7.78797596253908,8.150404646203858,-0.9808555886567533,-5.5066997480938795,-0.16385992057456447
1669909215672436285,0.0278674640971226,7.78797596253908,8.150404646203858,-0.9808555886567533,-5.5066997480938795,-0.16385992057456447
1669909215694712392,0.0278674640971226,7.78797596253908,8.150404646203858,-1.0,-5.533636593795307,-0.16385992057456447
1669909215711548743,0.0278674640971226,7.78797596253908,8.150404646203858,-1.0,-5.533636593795307,-0.16385992057456447
1669909215733646225,-0.0006199879759001235,7.739404137511614,8.175004973218782,-1.0,-5.533375472307155,-0.2824818436039872
1669909215755286637,-0.00026276887754999277,7.725261716688704,8.175018253986071,-0.9883042730220082,-5.521783780906136,-0.2824818436039867
1669909215773684593,-0.00026276887754999277,7.725261716688704,8.175018253986071,-1.0,-5.532434468747911,-0.2824818436039867
1669909215789945187,0.00027130895246931484,7.718584820821978,8.1750359798904,-1.0,-5.532434468747905,-0.28248184360398565
1669909216106800564,0.00027130895246931484,7.718584820821978,8.1750359798904,-0.9893788717969789,-5.522615628557424,-0.28248184360398565
1669909216141126440,-0.00609374999115995,7.7387282105238215,8.175314780616336,-1.0,-5.530950727244541,-0.3307383041812352
1669909216141192864,-0.00609374999115995,7.7387282105238215,8.175314780616336,-1.0,-5.530950727244541,-0.3307383041812352
1669909216141237458,-0.00609374999115995,7.7387282105238215,8.175314780616336,-1.0,-5.530752530821367,-0.3307383041812352
1669909216141278127,-0.006100849927368727,7.718763984743154,8.185314729005148,-1.0,-5.5308400452609074,-0.33073830418123534
1669909216141317538,-0.005059817652717794,7.713352751009991,8.185324989174573,-1.0,-5.5308400452609,-0.33073830418123473
1669909216141356990,-0.005059817652717794,7.713352751009991,8.185324989174573,-0.992216411139401,-5.512985357167568,-0.33073830418123473
1669909216141396829,-0.004505326713397378,7.711046420050934,8.18532827198462,-0.992216411139401,-5.512985357167564,-0.3307383041812342
1669909216141435205,-0.004505348373970836,7.711046328631841,8.185328272162472,-0.9988059332687746,-5.518296312907842,-0.3307383041812342
1669909216141472594,-0.004505362580118057,7.711046268674386,8.185328272279119,-0.9988059332687746,-5.518296312907842,-0.3307383041812342
1669909216141510263,-0.004505362580118057,7.711046268674386,8.185328272279119,-1.0,-5.526731248389506,-0.3307383041812342
1669909216141549778,-0.004505362580118057,7.711046268674386,8.185328272279119,-1.0,-5.526731248389506,-0.3307383041812342
1669909216141601856,-0.004505362580118057,7.711046268674386,8.185328272279119,-1.0,-5.52640793636427,-0.3307383041812342
1669909216141640018,-0.004505362580118057,7.711046268674386,8.185328272279119,-1.0,-5.52640793636427,-0.3307383041812342
1669909216141676374,-0.004505362580118057,7.711046268674386,8.185328272279119,-1.0,-5.526079475757296,-0.3307383041812342
1669909216141714495,-0.013963728045419501,7.69861035773185,8.185331195394484,-1.0,-5.526079475757293,-0.3307383041812338
1669909216141751766,-0.013963728045419501,7.69861035773185,8.185331195394484,-0.9979132707807994,-5.516475565762348,-0.3307383041812338
1669909216159796819,-0.012966035332946687,7.695172718861843,8.185333867416235,-0.989795773324236,-5.499611977905733,-0.33073830418123323
1669909216175632828,-0.014656544130711465,7.683874658444668,8.199457933053823,-0.989795773324236,-5.499611977905733,-0.5050084367377909
1669909216198214750,-0.014656544130711465,7.683874658444668,8.199457933053823,-1.0,-5.522377032425343,-0.5050084367377909
1669909216215817062,-0.014656544130711465,7.683874658444668,8.199457933053823,-1.0,-5.522193820389395,-0.5050084367377909
1669909216231631917,-0.014656544130711465,7.683874658444668,8.199457933053823,-1.0,-5.522193820389395,-0.5050084367377909
1669909216259652090,-0.024251241748569317,7.6628427777826476,8.19945834548768,-1.0,-5.514847596713501,-0.5050084367377907
1669909216276833241,-0.004327190154580185,7.694359925800531,8.202962055519189,-1.0,-5.520889601790178,-0.6406058371050507
1669909216312198507,-0.0037513885864762855,7.6910770228646586,8.202963617983174,-1.0,-5.520889601790173,-0.6406058371050498
1669909216351151697,-0.003513690620415212,7.690438215879067,8.202963585713865,-0.9917842992226561,-5.506827830659606,-0.6406058371050496
1669909216645581766,-0.003513709360375719,7.690438137223241,8.202963585785486,-0.9917842992226561,-5.506827830659606,-0.6406058371050496
1669909216645598401,-0.0035008683487951706,7.690479149993198,8.202963543326966,-1.0,-5.518389322231672,-0.6406058371050496
1669909216645615011,-0.0035008683487951706,7.690479149993198,8.202963543326966,-1.0,-5.518395120900994,-0.6406058371050496
1669909216645631671,-0.003442889306417618,7.690899123992357,8.202963218741642,-1.0,-5.516353880093548,-0.6406058371050494
1669909216645647894,-0.003442889306417618,7.690899123992357,8.202963218741642,-1.0,-5.516353880093548,-0.6406058371050494
1669909216645663984,-0.003442889306417618,7.690899123992357,8.202963218741642,-1.0,-5.517695352915026,-0.6406058371050494
1669909216645680512,-0.003442889306417618,7.690899123992357,8.202963218741642,-1.0,-5.517495305773656,-0.6406058371050494
1669909216645708312,0.006600749853864857,7.691020587897751,8.202963074824801,-1.0,-5.516130224327298,-0.6406058371050495
1669909216645751106,0.006600749853864857,7.691020587897751,8.202963074824801,-1.0,-5.516130224327298,-0.6406058371050495
1669909216645754371,0.006600749853864857,7.691020587897751,8.202963074824801,-1.0,-5.516827887766679,-0.6406058371050495
1669909216645771713,0.006175812313356736,7.695198038727287,8.202960451885154,-1.0,-5.530381347320931,-0.640605837105049
1669909216645788066,0.00564749996729411,7.699214233817103,8.202956421975967,-1.0,-5.532264696589772,-0.6406058371050488
1669909216645804958,0.005647477078278139,7.699214137406483,8.202956422147913,-1.0,-5.532264696589772,-0.6406058371050488
1669909216662856293,0.005647477078278139,7.699214137406483,8.202956422147913,-1.0,-5.5178220230581605,-0.6406058371050488
1669909216662876968,0.005647477078278139,7.699214137406483,8.202956422147913,-1.0,-5.5178220230581605,-0.6406058371050488
1669909216662894986,0.005647477078278139,7.699214137406483,8.202956422147913,-1.0,-5.517453749509285,-0.6406058371050488
1669909216662913434,0.005647477078278139,7.699214137406483,8.202956422147913,-1.0,-5.517247648522728,-0.6406058371050488
1669909216672066968,-0.006636530310820267,7.684971011490956,8.19917718964593,-1.0,-5.517247648522728,-0.7252454571409356
1669909216692933914,-0.006636530310820267,7.684971011490956,8.19917718964593,-1.0,-5.516897534789901,-0.7252454571409356
1669909216714696627,-0.007436694536120409,7.6802855625005755,8.209169447642516,-1.0,-5.542558483925065,-0.7252454571409356
1669909216739078876,-0.007436694536120409,7.6802855625005755,8.209169447642516,-1.0,-5.51797153070903,-0.7252454571409356
1669909216755737013,-0.007436694536120409,7.6802855625005755,8.209169447642516,-1.0,-5.51797153070903,-0.7252454571409356
1669909216772802685,0.0032452191935775244,7.722706139730397,8.201904455564843,-1.0,-5.544080088038742,-0.6730312295241482
1669909216794242823,0.0022877771278510504,7.728154680198752,8.201887456743968,-1.0,-5.544080088038743,-0.6730312295241481
1669909216815643325,0.0022877771278510504,7.728154680198752,8.201887456743968,-1.0,-5.536332638283927,-0.6730312295241481
1669909216833770188,0.0022877771278510504,7.728154680198752,8.201887456743968,-1.0,-5.536332638283927,-0.6730312295241481
1669909216855890502,0.0022877771278510504,7.728154680198752,8.201887456743968,-1.0,-5.521392361155947,-0.6730312295241481
1669909217163164668,-0.016613158410262067,7.723293921417319,8.192413149445308,-1.0,-5.521240386968571,-0.7539498992247706
1669909217244637804,-0.007601781405780715,7.72846037106795,8.202394237885432,-1.0,-5.542392428640493,-0.7539498992247702
1669909217244803108,-0.007601781405780715,7.72846037106795,8.202394237885432,-1.0,-5.542392428640493,-0.7539498992247702
1669909217244991259,-0.009394404079916803,7.7361778499949,8.202361042968572,-1.0,-5.56190178784017,-0.7539498992247695
1669909217245011965,-0.011064316344505512,7.742339020164669,8.202330136836267,-1.0,-5.56190178784017,-0.753949899224769
1669909217245015779,-0.011064316344505512,7.742339020164669,8.202330136836267,-1.0,-5.555434821452841,-0.753949899224769
1669909217245017729,-0.011064316344505512,7.742339020164669,8.202330136836267,-1.0,-5.555434821452841,-0.753949899224769
1669909217245595894,-0.011064316344505512,7.742339020164669,8.202330136836267,-1.0,-5.528661826258651,-0.753949899224769
1669909217245615661,-0.011064316344505512,7.742339020164669,8.202330136836267,-1.0,-5.528568570510048,-0.753949899224769
1669909217245684711,-0.011064316344505512,7.742339020164669,8.202330136836267,-1.0,-5.528568570510048,-0.753949899224769
1669909217245687858,-0.011064316344505512,7.742339020164669,8.202330136836267,-1.0,-5.528377009146893,-0.753949899224769
1669909217245690041,-0.0013181380120631213,7.743243881647848,8.20232525091358,-1.0,-5.528377009146893,-0.753949899224769
1669909217245711594,-0.0013181380120631213,7.743243881647848,8.20232525091358,-1.0,-5.532651422082493,-0.753949899224769
1669909217284330115,-0.0013181380120631213,7.743243881647848,8.20232525091358,-1.0,-5.532651422082493,-0.753949899224769
1669909217284332431,-0.0013181380120631213,7.743243881647848,8.20232525091358,-1.0,-5.528487876573257,-0.753949899224769
1669909217284335025,-0.004386269844167272,7.754713926567993,8.202255492734606,-1.0,-5.6166061500046185,-0.7539498992247677
1669909217284337295,-0.004386269844167272,7.754713926567993,8.202255492734606,-1.0,-5.6166061500046185,-0.7539498992247677
1669909217284339399,-0.004386269844167272,7.754713926567993,8.202255492734606,-1.0,-5.533948281039726,-0.7539498992247677
1669909217291595443,-0.004386269844167272,7.754713926567993,8.202255492734606,-1.0,-5.53388731984516,-0.7539498992247677
1669909217314820130,-0.004386269844167272,7.754713926567993,8.202255492734606,-1.0,-5.53388731984516,-0.7539498992247677
1669909217314866045,-0.004386269844167272,7.754713926567993,8.202255492734606,-1.0,-5.533802421819383,-0.7539498992247677
1669909217329039129,-0.005392875380373179,7.768047437791687,8.202232548944373,-1.0,-5.558973255867384,-0.7539498992247672
1669909217329204791,-0.08847638112262504,7.756527648095947,8.169271478406806,-1.0,-5.535552855680636,-0.7124217599613757
1669909217329209683,-0.08847638112262504,7.756527648095947,8.169271478406806,-1.0,-5.535552855680636,-0.7124217599613757
1669909217352614027,-0.0895141663522144,7.760313583980066,8.169243913823626,-1.0,-5.557126100838151,-0.712421759961375
1669909217375017843,-0.0895141663522144,7.760313583980066,8.169243913823626,-1.0,-5.537382313111289,-0.712421759961375
1669909217608458028,-0.0895141663522144,7.760313583980066,8.169243913823626,-1.0,-5.537382313111289,-0.712421759961375
1669909217667301652,-0.0895141663522144,7.760313583980066,8.169243913823626,-1.0,-5.537330658984459,-0.712421759961375
1669909217667313023,-0.1129501073182245,7.759619189868433,8.165833336049579,-1.0,-5.537298244766356,-0.6593374907953823
1669909217667442160,-0.1129501073182245,7.759619189868433,8.165833336049579,-1.0,-5.537298244766356,-0.6593374907953823
1669909217667451425,-0.12340223646273843,7.770422493187646,8.175827319607668,-1.0,-5.545601716090246,-0.6593374907953817
1669909217667524882,-0.12340223646273843,7.770422493187646,8.175827319607668,-1.0,-5.545601716090246,-0.6593374907953817
1669909217667575331,-0.12340223646273843,7.770422493187646,8.175827319607668,-1.0,-5.538044055885287,-0.6593374907953817
1669909217667637012,-0.12295805728444116,7.767007599472068,8.175852699547114,-1.0,-5.523658595652905,-0.6593374907953807
1669909217667642208,-0.12295809099555531,7.767007453761698,8.17585270061628,-1.0,-5.537175195129493,-0.6593374907953807
1669909217667700515,-0.12301569381264625,7.767583774524139,8.175848498287477,-1.0,-5.537175195129494,-0.6593374907953813
1669909217667763079,-0.12301569381264625,7.767583774524139,8.175848498287477,-1.0,-5.538089017545249,-0.6593374907953813
1669909217667768439,-0.12301569381264625,7.767583774524139,8.175848498287477,-1.0,-5.538089017545249,-0.6593374907953813
1669909217682796162,-0.12301569381264625,7.767583774524139,8.175848498287477,-1.0,-5.537172201312509,-0.6593374907953813
1669909217682801305,-0.12301569381264625,7.767583774524139,8.175848498287477,-1.0,-5.53714536672658,-0.6593374907953813
1669909217682886892,-0.1223047857402078,7.784226237573679,8.175872369480533,-1.0,-5.537145366726577,-0.6593374907953806
1669909217714469549,-0.1223047857402078,7.784226237573679,8.175872369480533,-1.0,-5.524655863328733,-0.6593374907953806
