%time,field.force.x,field.force.y,field.force.z,field.torque.x,field.torque.y,field.torque.z
1669909928893950544,-1.856842938902595,6.937485131187616,6.835983724260034,-1.0,-5.999999999979966,-0.7899241335628546
1669909929240942276,-1.8511103962948783,6.937186949001543,6.8162295445564745,-1.0,-5.827862958866239,-0.789924133562867
1669909929300570094,-1.8511103962948783,6.937186949001543,6.8162295445564745,-1.0,-5.827862958866239,-0.789924133562867
1669909929300586099,-1.8511103962948783,6.937186949001543,6.8162295445564745,-1.0,-5.827862958866239,-0.789924133562867
1669909929300602079,-1.8511103962948783,6.937186949001543,6.8162295445564745,-1.0,-5.99567359019275,-0.789924133562867
1669909929300618030,-1.8511103962948783,6.937186949001543,6.8162295445564745,-1.0,-5.996774951366707,-0.789924133562867
1669909929300634054,-1.9303108130982383,6.884594790683977,6.839467607415056,-1.0,-5.996774951366707,-0.7148223929045837
1669909929300649895,-1.9303108130982383,6.884594790683977,6.839467607415056,-1.0,-5.998825704107819,-0.7148223929045837
1669909929300665712,-1.9303108130982383,6.884594790683977,6.839467607415056,-1.0,-5.999889314675338,-0.7148223929045837
1669909929300681505,-1.9303108130982383,6.884594790683977,6.839467607415056,-1.0,-5.999889314675338,-0.7148223929045837
1669909929300697225,-1.9226523491260297,6.844620101964657,6.809985657455621,-0.9490118931869962,-5.2678471933051725,-0.7148223929046156
1669909929300713148,-1.9226523491260297,6.844620101964657,6.809985657455621,-0.9490118931869962,-5.2678471933051725,-0.7148223929046156
1669909929300768126,-1.9226523491260297,6.844620101964657,6.809985657455621,-1.0,-5.914360876842278,-0.7148223929046156
1669909929300789371,-1.9226523491260297,6.844620101964657,6.809985657455621,-1.0,-5.914360876842278,-0.7148223929046156
1669909929300805413,-1.9226523491260297,6.844620101964657,6.809985657455621,-1.0,-5.915312936732764,-0.7148223929046156
1669909929300821238,-1.9226523491260297,6.844620101964657,6.809985657455621,-1.0,-5.915818492531277,-0.7148223929046156
1669909929300837098,-1.9226523491260297,6.844620101964657,6.809985657455621,-1.0,-5.915818492531277,-0.7148223929046156
1669909929300949815,-1.8851128168762403,6.808637635358783,6.790180100044463,-0.9100848610697991,-4.89240145651531,-0.7148223929046567
1669909929301021761,-1.8851128168762403,6.808637635358783,6.790180100044463,-1.0,-5.809579807907564,-0.7148223929046567
1669909929337045797,-1.8851128168762403,6.808637635358783,6.790180100044463,-1.0,-5.809332086508855,-0.7148223929046567
1669909929337092836,-1.8851128168762403,6.808637635358783,6.790180100044463,-1.0,-5.809332086508855,-0.7148223929046567
1669909929337138048,-1.8851128168762403,6.808637635358783,6.790180100044463,-1.0,-5.808901514623043,-0.7148223929046567
1669909929353765899,-1.8851128168762403,6.808637635358783,6.790180100044463,-1.0,-5.808653556003713,-0.7148223929046567
1669909929353811800,-1.8851128168762403,6.808637635358783,6.790180100044463,-1.0,-5.808653556003713,-0.7148223929046567
1669909929387645668,-1.8851128168762403,6.808637635358783,6.790180100044463,-1.0,-5.808143925235691,-0.7148223929046567
1669909929400623362,-1.8851128168762403,6.808637635358783,6.790180100044463,-1.0,-5.808143925235691,-0.7148223929046567
1669909929418115414,-1.8011714466274458,6.692896740087482,7.36431394322798,-1.0,-5.807751198798421,-0.7012264989255841
1669909929658737898,-1.8011714466274458,6.692896740087482,7.36431394322798,-1.0,-5.807751198798421,-0.7012264989255841
1669909929728375965,-1.7568593659030511,6.645211282592715,7.343891415335779,-0.8940386076485318,-4.4851881979304835,-0.701226498925635
1669909929729071552,-1.7568593659030511,6.645211282592715,7.343891415335779,-0.8940386076485318,-4.4851881979304835,-0.701226498925635
1669909929729079062,-1.7568593659030511,6.645211282592715,7.343891415335779,-0.9940100783268252,-5.666944577512808,-0.701226498925635
1669909929729083966,-1.7568593659030511,6.645211282592715,7.343891415335779,-0.9939670027261458,-5.6656874144522265,-0.701226498925635
1669909929729088319,-1.7568593659030511,6.645211282592715,7.343891415335779,-0.9939269589297339,-5.664519498773351,-0.701226498925635
1669909929729123607,-1.7568593659030511,6.645211282592715,7.343891415335779,-0.9939269589297339,-5.664519498773351,-0.701226498925635
1669909929729141821,-1.7568593659030511,6.645211282592715,7.343891415335779,-0.9938532047502184,-5.6623679465321946,-0.701226498925635
1669909929729158357,-1.7568593659030511,6.645211282592715,7.343891415335779,-0.9938532047502184,-5.6623679465321946,-0.701226498925635
1669909929729196949,-1.6752106986233468,6.567624492849411,7.332054464431618,-0.8863147287198335,-3.7475057516527075,-0.7012264989257072
1669909929729200332,-1.6752106986233468,6.567624492849411,7.332054464431618,-0.9820053796803172,-5.449911330304727,-0.7012264989257072
1669909929729242006,-1.6752106986233468,6.567624492849411,7.332054464431618,-0.9820053796803172,-5.449911330304727,-0.7012264989257072
1669909929729251271,-1.6752106986233468,6.567624492849411,7.332054464431618,-0.981777275783412,-5.444971088902968,-0.7012264989257072
1669909929729267066,-1.6752106986233468,6.567624492849411,7.332054464431618,-0.981777275783412,-5.444971088902968,-0.7012264989257072
1669909929729304869,-1.6752106986233468,6.567624492849411,7.332054464431618,-0.9815500180695585,-5.440056445672927,-0.7012264989257072
1669909929744421382,-1.6173981076809831,6.516973656909694,7.3203389570752435,-0.9245929498664849,-3.2705610792273236,-0.7012264989257486
1669909929753218909,-1.6173981076809831,6.516973656909694,7.3203389570752435,-0.9780117650087108,-5.3088632130869415,-0.7012264989257486
1669909929766662543,-1.6173981076809831,6.516973656909694,7.3203389570752435,-0.977859812142656,-5.305170807977257,-0.7012264989257486
1669909929793798513,-1.550378217318719,6.515088381921901,7.318235686417243,-0.9683853421566256,-3.318976501431063,-0.7012264989257786
1669909929815306460,-1.550378217318719,6.515088381921901,7.318235686417243,-0.9683853421566256,-3.318976501431063,-0.7012264989257786
1669909929833425716,-1.5463210321805043,6.5154256237624795,7.318096808599671,-0.9779460946315194,-5.092477608786021,-0.7012264989257804
1669909929850196630,-1.5463210321805043,6.5154256237624795,7.318096808599671,-0.9768343725763478,-5.1584185378189025,-0.7012264989257804
1669909929884216192,-1.3188558102886923,6.5797120156752795,7.734264267316561,-0.9712960312681511,-5.272004516849841,-1.0829532891453266
1669909929900366499,-1.3188558102886923,6.5797120156752795,7.734264267316561,-0.9712960312681511,-5.272004516849841,-1.0829532891453266
1669909929915746786,-1.2091559947769888,6.585392934368822,7.735340876212817,-0.9760107508996917,-5.154782164990324,-1.4243968203605175
1669909929932531268,-1.2091559947769888,6.585392934368822,7.735340876212817,-0.9760107508996917,-5.154782164990324,-1.4243968203605175
1669909929949943909,-1.2091559947769888,6.585392934368822,7.735340876212817,-0.9757122101669238,-5.146141609966192,-1.4243968203605175
1669909930196396143,-1.2091559947769888,6.585392934368822,7.735340876212817,-0.9757122101669238,-5.146141609966192,-1.4243968203605175
1669909930240725880,-1.2091559947769888,6.585392934368822,7.735340876212817,-0.9753913960747402,-5.136852673455085,-1.4243968203605175
1669909930240763529,-1.2091559947769888,6.585392934368822,7.735340876212817,-0.9753913960747402,-5.136852673455085,-1.4243968203605175
1669909930240770630,-1.1990274451573715,6.57397363033175,7.754311767888288,-1.0,-4.517777273416121,-1.4243968203605248
1669909930240804474,-1.1990274451573715,6.57397363033175,7.754311767888288,-0.9776749252432682,-5.069328984160983,-1.4243968203605248
1669909930240808996,-1.1990274451573715,6.57397363033175,7.754311767888288,-0.9775269592295115,-5.064015655336609,-1.4243968203605248
1669909930240824096,-1.1990274451573715,6.57397363033175,7.754311767888288,-0.9775269592295115,-5.064015655336609,-1.4243968203605248
1669909930240840311,-1.1990274451573715,6.57397363033175,7.754311767888288,-0.9773039931886514,-5.056011866264839,-1.4243968203605248
1669909930240878262,-1.1990274451573715,6.57397363033175,7.754311767888288,-0.9771661075012595,-5.051057804262091,-1.4243968203605248
1669909930240881250,-1.161472979058262,6.552285971822356,7.814452195499123,-0.9771661075012595,-5.0510578042620615,-1.424396820360497
1669909930240920318,-1.161472979058262,6.552285971822356,7.814452195499123,-1.0,-5.086339941433966,-1.424396820360497
1669909930240924114,-1.161472979058262,6.552285971822356,7.814452195499123,-0.9793865323330702,-5.042207736947486,-1.424396820360497
1669909930240941907,-1.161472979058262,6.552285971822356,7.814452195499123,-0.9793865323330702,-5.042207736947486,-1.424396820360497
1669909930255267917,-1.161472979058262,6.552285971822356,7.814452195499123,-0.9791769973126868,-5.03357119669081,-1.424396820360497
1669909930255289500,-1.161472979058262,6.552285971822356,7.814452195499123,-0.9790658007208559,-5.02898761969971,-1.424396820360497
1669909930273941687,-1.125489158012404,6.578058506868115,7.885296039103707,-0.9568131998517615,-5.779421692137466,-1.4243968203604658
1669909930295632494,-1.125489158012404,6.578058506868115,7.885296039103707,-0.9775272389242127,-5.064287027519195,-1.4243968203604658
1669909930312673139,-1.099781674720778,6.716077830217114,7.8469110949031915,-0.9775272389242127,-5.064287027519195,-1.5022457018435438
1669909930353881415,-1.1403124213379336,6.716813887865234,7.848246399661779,-0.97955580808224,-5.79189605150827,-1.5022457018435027
1669909930373507132,-1.1403124213379336,6.716813887865234,7.848246399661779,-0.9774180130080694,-5.127959290273119,-1.5022457018435027
1669909930373556007,-1.171231395070725,6.721721708935008,7.849176185646657,-0.9774180130080694,-5.12795929027312,-1.502245701843476
1669909930390789499,-1.171231395070725,6.721721708935008,7.849176185646657,-0.9903788389204521,-5.6187468661955835,-1.502245701843476
1669909930420401781,-1.171231395070725,6.721721708935008,7.849176185646657,-0.9903788389204521,-5.6187468661955835,-1.502245701843476
1669909930461963079,-1.171231395070725,6.721721708935008,7.849176185646657,-0.9784793853786591,-5.1708755256465295,-1.502245701843476
1669909930704395886,-1.171231395070725,6.721721708935008,7.849176185646657,-0.9784793853786591,-5.1708755256465295,-1.502245701843476
1669909930704402842,-1.2000307202984624,6.69141334311317,7.825300651112203,-0.978288390474003,-5.164892386054244,-1.884284690016484
1669909930762046840,-1.177775625773132,6.708122537632959,7.876060665435016,-1.0,-5.999999999979761,-1.8842846900164643
1669909930763221070,-1.177775625773132,6.708122537632959,7.876060665435016,-1.0,-5.999999999979761,-1.8842846900164643
1669909930763256713,-1.177775625773132,6.708122537632959,7.876060665435016,-0.9800653978043233,-5.206891965440033,-1.8842846900164643
1669909930763259547,-1.177775625773132,6.708122537632959,7.876060665435016,-0.9800653978043233,-5.206891965440033,-1.8842846900164643
1669909930763261799,-1.177775625773132,6.708122537632959,7.876060665435016,-0.9798824321287909,-5.2009747643114395,-1.8842846900164643
1669909930763263849,-1.206041581862594,6.712477423600946,7.927932689193737,-1.0,-5.999999999979772,-1.884284690016395
1669909930763265620,-1.206041581862594,6.712477423600946,7.927932689193737,-1.0,-5.999999999979772,-1.884284690016395
1669909930763268051,-1.2736659123893797,6.733288419216724,7.9287886848062366,-1.0,-5.999999999979782,-1.8842846900163457
1669909930763273882,-1.2736659123893797,6.733288419216724,7.9287886848062366,-1.0,-5.999999999979782,-1.8842846900163457
1669909930763505474,-1.2894268113524667,6.73829998510596,7.928914766234177,-1.0,-5.760675137340368,-1.8842846900163344
1669909930763655145,-1.2894268113524667,6.73829998510596,7.928914766234177,-0.9952174147144881,-5.509289463578227,-1.8842846900163344
1669909930763674061,-1.3159373835867043,6.747120658965648,7.929063400373411,-1.0,-5.9999999999797895,-1.8842846900163186
1669909930801982250,-1.3512118528996482,6.758857296716569,7.92913778732042,-1.0,-5.999999999979797,-1.8842846900162968
1669909930801995644,-1.3512118528996482,6.758857296716569,7.92913778732042,-1.0,-5.6218603940607315,-1.8842846900162968
1669909930801998801,-1.3512118528996482,6.758857296716569,7.92913778732042,-1.0,-5.6218603940607315,-1.8842846900162968
1669909930814706770,-1.3512118528996482,6.758857296716569,7.92913778732042,-1.0,-5.621635437922973,-1.8842846900162968
1669909930814715362,-1.3512118528996482,6.758857296716569,7.92913778732042,-1.0,-5.621517652657808,-1.8842846900162968
1669909930836664814,-1.3512118528996482,6.758857296716569,7.92913778732042,-1.0,-5.6213806600623135,-1.8842846900162968
1669909930855520398,-1.3512118528996482,6.758857296716569,7.92913778732042,-1.0,-5.6213806600623135,-1.8842846900162968
1669909930878734946,-1.3512118528996482,6.758857296716569,7.92913778732042,-1.0,-5.621164064722281,-1.8842846900162968
1669909930917173933,-1.3512118528996482,6.758857296716569,7.92913778732042,-1.0,-5.621164064722281,-1.8842846900162968
1669909930939035078,-1.5452274198012559,6.796804000251524,7.869483824492244,-1.0,-5.762614925246996,-1.5718768536982723
1669909930939055797,-1.5452274198012559,6.796804000251524,7.869483824492244,-1.0,-5.636188559221063,-1.5718768536982723
1669909930968975951,-1.5452274198012559,6.796804000251524,7.869483824492244,-1.0,-5.63616525745581,-1.5718768536982723
1669909930988937555,-1.5452274198012559,6.796804000251524,7.869483824492244,-1.0,-5.63616525745581,-1.5718768536982723
1669909931267092909,-1.5452274198012559,6.796804000251524,7.869483824492244,-1.0,-5.636137111351707,-1.5718768536982723
1669909931420226575,-1.78843221173048,6.918274048794659,7.898782433004849,-1.0,-5.999999999979833,-1.5095111355123014
1669909931420242752,-1.78843221173048,6.918274048794659,7.898782433004849,-1.0,-5.999999999979833,-1.5095111355123014
1669909931420280475,-1.78843221173048,6.918274048794659,7.898782433004849,-1.0,-5.893395838996005,-1.5095111355123014
1669909931420283334,-1.8444085082119979,6.939172248478569,7.897654786631229,-1.0,-5.9999999999798455,-1.5095111355122748
1669909931420302344,-1.8444085082119979,6.939172248478569,7.897654786631229,-1.0,-5.9999999999798455,-1.5095111355122748
1669909931420318139,-1.8444085082119979,6.939172248478569,7.897654786631229,-1.0,-5.9999999999798455,-1.5095111355122748
1669909931420333628,-1.8444085082119979,6.939172248478569,7.897654786631229,-1.0,-5.9999999999798455,-1.5095111355122748
1669909931420349175,-1.8444085082119979,6.939172248478569,7.897654786631229,-1.0,-5.9999999999798455,-1.5095111355122748
1669909931420364886,-1.8444085082119979,6.939172248478569,7.897654786631229,-1.0,-5.9999999999798455,-1.5095111355122748
1669909931420380360,-1.9085351381234434,6.974440320410378,7.867312673232068,-1.0,-5.999999999979854,-1.5095111355122515
1669909931420396171,-1.9085351381234434,6.974440320410378,7.867312673232068,-1.0,-5.999999999979854,-1.5095111355122515
1669909931420412463,-1.9085351381234434,6.974440320410378,7.867312673232068,-1.0,-5.999999999979854,-1.5095111355122515
1669909931475663755,-1.9085351381234434,6.974440320410378,7.867312673232068,-1.0,-5.999999999979854,-1.5095111355122515
1669909931475703020,-1.9085351381234434,6.974440320410378,7.867312673232068,-1.0,-5.999999999979854,-1.5095111355122515
1669909931475740108,-1.9085351381234434,6.974440320410378,7.867312673232068,-1.0,-5.999999999979854,-1.5095111355122515
1669909931475799403,-1.9085351381234434,6.974440320410378,7.867312673232068,-1.0,-5.999999999979854,-1.5095111355122515
1669909931475804321,-1.9977741259381268,7.023580997312624,7.864805845077051,-1.0,-5.99999999997987,-1.5095111355121997
1669909931475914595,-1.9977741259381268,7.023580997312624,7.864805845077051,-1.0,-5.99999999997987,-1.5095111355121997
1669909931475933957,-2.030741506803665,7.022716294922096,7.8637682414804555,-1.0,-5.999999999979874,-1.5095111355121855
1669909931475982321,-2.030741506803665,7.022716294922096,7.8637682414804555,-1.0,-5.999999999979874,-1.5095111355121855
1669909931476000607,-2.0386483872029464,7.020141260192714,7.863532472349981,-1.0,-5.999999999979875,-1.509511135512184
1669909931476017641,-2.0386483872029464,7.020141260192714,7.863532472349981,-1.0,-5.999999999979875,-1.509511135512184
1669909931502541779,-2.0386483872029464,7.020141260192714,7.863532472349981,-1.0,-5.999999999979875,-1.509511135512184
1669909931502586196,-2.0386483872029464,7.020141260192714,7.863532472349981,-1.0,-5.999999999979875,-1.509511135512184
1669909931502630144,-2.0386483872029464,7.020141260192714,7.863532472349981,-1.0,-5.999999999979875,-1.509511135512184
1669909931522169666,-2.0386483872029464,7.020141260192714,7.863532472349981,-1.0,-5.999999999979875,-1.509511135512184
1669909931626492587,-2.0386483872029464,7.020141260192714,7.863532472349981,-1.0,-5.999999999979875,-1.509511135512184
1669909931772201679,-2.0701543831362366,7.029379344192305,7.8334900949089,-1.0,-5.999999999979875,-1.5095111355121842
1669909931772266753,-2.3480143987669586,6.74469146749095,7.670392117270655,-1.0,-5.999999999979875,-0.9854362159903756
1669909931772332020,-2.3480143987669586,6.74469146749095,7.670392117270655,-1.0,-5.999999999979875,-0.9854362159903756
1669909931772607542,-2.3530894454239797,6.730386788281079,7.670381527280445,-1.0,-5.999999999979875,-0.9854362159903827
1669909931772648102,-2.3530894454239797,6.730386788281079,7.670381527280445,-0.9958595035854118,-5.999999999979875,-0.9854362159903827
1669909931845993010,-2.3530894454239797,6.730386788281079,7.670381527280445,-1.0,-5.999999999979875,-0.9854362159903827
1669909931846036558,-2.3530894454239797,6.730386788281079,7.670381527280445,-1.0,-5.999999999979875,-0.9854362159903827
1669909931846100090,-2.3530894454239797,6.730386788281079,7.670381527280445,-1.0,-5.999999999979875,-0.9854362159903827
1669909931846105551,-2.3530894454239797,6.730386788281079,7.670381527280445,-1.0,-5.999999999979875,-0.9854362159903827
1669909931846165637,-2.3530894454239797,6.730386788281079,7.670381527280445,-1.0,-5.999999999979875,-0.9854362159903827
1669909931846205654,-2.3844061120013897,6.720781017072542,7.640780796211248,-1.0,-5.999999999979873,-0.9854362159903931
1669909931846245396,-2.3844061120013897,6.720781017072542,7.640780796211248,-1.0,-5.999999999979873,-0.9854362159903931
1669909931846285595,-2.3844061120013897,6.720781017072542,7.640780796211248,-1.0,-5.999999999979873,-0.9854362159903931
1669909931861166648,-2.3844061120013897,6.720781017072542,7.640780796211248,-1.0,-5.999999999979873,-0.9854362159903931
1669909931861184754,-2.3844061120013897,6.720781017072542,7.640780796211248,-1.0,-5.999999999979873,-0.9854362159903931
1669909931861225844,-2.30040513710782,6.6514107472971515,7.672111679714209,-1.0,-5.999999999979873,-0.8975621312793183
1669909931872602440,-2.30040513710782,6.6514107472971515,7.672111679714209,-1.0,-5.999999999979873,-0.8975621312793183
1669909931897471641,-2.305124341250125,6.633853142675825,7.653098118477644,-0.9776862826489261,-5.959627567267994,-0.8975621312793426
1669909931915972603,-2.305124341250125,6.633853142675825,7.653098118477644,-0.9776862826489261,-5.959627567267994,-0.8975621312793426
1669909931932951036,-2.305124341250125,6.633853142675825,7.653098118477644,-1.0,-5.9999999999798685,-0.8975621312793426
1669909931952621072,-2.305124341250125,6.633853142675825,7.653098118477644,-1.0,-5.9999999999798685,-0.8975621312793426
1669909931987076114,-2.305124341250125,6.633853142675825,7.653098118477644,-1.0,-5.9999999999798685,-0.8975621312793426
1669909932004631120,-2.305124341250125,6.633853142675825,7.653098118477644,-1.0,-5.9999999999798685,-0.8975621312793426
1669909932021152625,-2.2931272673613465,6.589999621328779,7.666337055140318,-1.0,-5.9999999999798685,-0.8195563405688934
1669909932040574237,-2.2931272673613465,6.589999621328779,7.666337055140318,-1.0,-5.9999999999798685,-0.8195563405688934
1669909932288647085,-2.2537462611962296,6.563654579266641,7.658204811703152,-0.9480802874642846,-5.360171608930724,-0.8195563405689369
1669909932326406378,-2.2537462611962296,6.563654579266641,7.658204811703152,-0.9480802874642846,-5.360171608930724,-0.8195563405689369
1669909932326408259,-2.2537462611962296,6.563654579266641,7.658204811703152,-1.0,-5.999999999979857,-0.8195563405689369
1669909932326410082,-2.2529857059288956,6.512633003338907,7.701867449175305,-1.0,-5.999999999979857,-0.708025116467155
1669909932326412205,-2.2529857059288956,6.512633003338907,7.701867449175305,-1.0,-5.999999999979857,-0.708025116467155
1669909932326414317,-2.2529857059288956,6.512633003338907,7.701867449175305,-1.0,-5.999999999979857,-0.708025116467155
1669909932326416170,-2.2529857059288956,6.512633003338907,7.701867449175305,-1.0,-5.999999999979857,-0.708025116467155
1669909932326418092,-2.214734582304133,6.46723013314966,7.6836496086117805,-1.0,-5.999999999979838,-0.7080251164672176
1669909932326419850,-2.214734582304133,6.46723013314966,7.6836496086117805,-0.9425352380982666,-4.942469103062402,-0.7080251164672176
1669909932326421962,-2.214734582304133,6.46723013314966,7.6836496086117805,-0.9425352380982666,-4.942469103062402,-0.7080251164672176
1669909932326423772,-2.214734582304133,6.46723013314966,7.6836496086117805,-1.0,-5.999999999979838,-0.7080251164672176
1669909932326425560,-2.214734582304133,6.46723013314966,7.6836496086117805,-1.0,-5.999999999979838,-0.7080251164672176
1669909932326427323,-2.214734582304133,6.46723013314966,7.6836496086117805,-1.0,-5.999999999979838,-0.7080251164672176
1669909932347897118,-2.214734582304133,6.46723013314966,7.6836496086117805,-1.0,-5.999999999979838,-0.7080251164672176
1669909932347900043,-2.214734582304133,6.46723013314966,7.6836496086117805,-1.0,-5.999999999979838,-0.7080251164672176
1669909932365098819,-2.1841801389219886,6.422149663514266,7.6746580072441155,-0.940229183230197,-4.261140407440393,-0.7080251164672692
1669909932385603498,-2.1841801389219886,6.422149663514266,7.6746580072441155,-0.940229183230197,-4.261140407440393,-0.7080251164672692
1669909932401992892,-2.1841801389219886,6.422149663514266,7.6746580072441155,-1.0,-5.999999999979826,-0.7080251164672692
1669909932445282018,-2.1841801389219886,6.422149663514266,7.6746580072441155,-1.0,-5.999999999979826,-0.7080251164672692
1669909932469783287,-2.1841801389219886,6.422149663514266,7.6746580072441155,-1.0,-5.999999999979826,-0.7080251164672692
1669909932469828348,-2.1841801389219886,6.422149663514266,7.6746580072441155,-1.0,-5.999999999979826,-0.7080251164672692
1669909932488927145,-2.1010062734958685,6.385065808040591,7.655173108424007,-1.0,-5.999999999979802,-0.7080251164673446
1669909932511009566,-2.1010062734958685,6.385065808040591,7.655173108424007,-0.9548240654210602,-4.1047102543269975,-0.7080251164673446
1669909932529261828,-1.9416753094074286,6.451786055309268,7.711994663323223,-0.9985135886810566,-5.8415210052907325,-0.8866932615576861
1669909932544832635,-1.9416753094074286,6.451786055309268,7.711994663323223,-0.9985135886810566,-5.8415210052907325,-0.8866932615576861
1669909932560818550,-1.8518319980361695,6.443568899534031,7.711461190342063,-0.9742784487599507,-4.253222964441208,-0.886693261557738
1669909932808864531,-1.8518319980361695,6.443568899534031,7.711461190342063,-0.9959173728815139,-5.6727346368793645,-0.886693261557738
1669909932862403188,-1.8518319980361695,6.443568899534031,7.711461190342063,-0.9959173728815139,-5.6727346368793645,-0.886693261557738
1669909932862468268,-1.8518319980361695,6.443568899534031,7.711461190342063,-0.9958699958984213,-5.670493907988723,-0.886693261557738
1669909932862471628,-1.8518319980361695,6.443568899534031,7.711461190342063,-0.9958699958984213,-5.670493907988723,-0.886693261557738
1669909932862728204,-1.8518319980361695,6.443568899534031,7.711461190342063,-0.9958175397938335,-5.668010362060611,-0.886693261557738
1669909932862733471,-1.6099442795970673,6.495194866559788,7.778615955471152,-0.9958175397938335,-5.668010362060611,-1.4221429824768703
1669909932862783673,-1.602446853371671,6.471021349432246,7.788146666085883,-0.9837701536176151,-5.018719609730159,-1.4221429824768892
1669909932862794244,-1.602446853371671,6.471021349432246,7.788146666085883,-0.9944363032256218,-5.594086867130136,-1.4221429824768892
1669909932862799056,-1.602446853371671,6.471021349432246,7.788146666085883,-0.994374309162827,-5.59095931282969,-1.4221429824768892
1669909932862834624,-1.602446853371671,6.471021349432246,7.788146666085883,-0.994374309162827,-5.59095931282969,-1.4221429824768892
1669909932862984321,-1.602446853371671,6.471021349432246,7.788146666085883,-0.9943303395992981,-5.588903133122816,-1.4221429824768892
1669909932863007046,-1.602446853371671,6.471021349432246,7.788146666085883,-0.9942877615648562,-5.586819901795291,-1.4221429824768892
1669909932863025291,-1.5105858620121377,6.450791854698555,7.807046317137077,-0.9942877615648562,-5.586819901795264,-1.4221429824769263
1669909932909424599,-1.5105858620121377,6.450791854698555,7.807046317137077,-0.9614625049219578,-4.395215576960513,-1.4221429824769263
1669909932909435584,-1.457829061436671,6.437519788399705,7.805773271417224,-0.9614625049219578,-4.395215576960487,-1.4221429824769558
1669909932909546866,-1.457829061436671,6.437519788399705,7.805773271417224,-0.9527288199048658,-4.552740053028153,-1.4221429824769558
1669909932909609370,-1.4319144035257418,6.430342440622584,7.805034157224359,-0.9513262789005161,-4.595718625212124,-1.4221429824769682
1669909932924224633,-1.4319144035257418,6.430342440622584,7.805034157224359,-0.9513262789005161,-4.595718625212124,-1.4221429824769682
1669909932937787198,-1.4319144035257418,6.430342440622584,7.805034157224359,-0.9843438235642871,-5.308053177895379,-1.4221429824769682
1669909932954971231,-1.4319144035257418,6.430342440622584,7.805034157224359,-0.9843438235642871,-5.308053177895379,-1.4221429824769682
1669909932973356448,-1.4319144035257418,6.430342440622584,7.805034157224359,-0.9841487817240291,-5.301195276482625,-1.4221429824769682
1669909932988915981,-1.4319144035257418,6.430342440622584,7.805034157224359,-0.9841487817240291,-5.301195276482625,-1.4221429824769682
1669909933012046308,-1.3326650703825076,6.532649641054408,7.823161121793451,-0.9839473390597304,-5.294098972895052,-1.5469344332754797
1669909933034286137,-1.3326650703825076,6.532649641054408,7.823161121793451,-0.9839473390597304,-5.294098972895052,-1.5469344332754797
1669909933056779388,-1.3326650703825076,6.532649641054408,7.823161121793451,-0.9837494187634593,-5.287142818257049,-1.5469344332754797
1669909933080046557,-1.3258700470131632,6.53839434768996,7.822644795775828,-0.9616225108627627,-4.760715545837468,-1.5469344332754855
1669909933341380864,-1.3258700470131632,6.53839434768996,7.822644795775828,-0.9822273346226863,-5.248806998699702,-1.5469344332754855
1669909933401569595,-1.371608267228007,6.517268673442218,7.828806574941096,-0.9822273346226863,-5.248806998699702,-1.2803180515706782
1669909933401587187,-1.371608267228007,6.517268673442218,7.828806574941096,-0.982030802457444,-5.242072164911435,-1.2803180515706782
1669909933401604295,-1.371608267228007,6.517268673442218,7.828806574941096,-0.982030802457444,-5.242072164911435,-1.2803180515706782
1669909933401622702,-1.371608267228007,6.517268673442218,7.828806574941096,-0.9818137786770531,-5.234662090040074,-1.2803180515706782
1669909933401639823,-1.371608267228007,6.517268673442218,7.828806574941096,-0.9818137786770531,-5.234662090040074,-1.2803180515706782
1669909933401837320,-1.2868836922088214,6.490452183120815,7.877310388083477,-0.9622812837191124,-4.468311292595844,-1.28031805157069
1669909933401847430,-1.2868836922088214,6.490452183120815,7.877310388083477,-0.9622812837191124,-4.468311292595844,-1.28031805157069
1669909933401850955,-1.2868836922088214,6.490452183120815,7.877310388083477,-0.979251194794592,-5.136044396030305,-1.28031805157069
1669909933401898438,-1.2868836922088214,6.490452183120815,7.877310388083477,-0.9791276778294166,-5.13174149928404,-1.28031805157069
1669909933401901405,-1.2868836922088214,6.490452183120815,7.877310388083477,-0.9791276778294166,-5.13174149928404,-1.28031805157069
1669909933401922935,-1.2868836922088214,6.490452183120815,7.877310388083477,-0.9788879040174127,-5.123390169832463,-1.28031805157069
1669909933401939444,-1.2329070084908884,6.487413423915501,7.9272102506034265,-0.9788879040174127,-5.1233901698324615,-1.280318051570682
1669909933409640977,-1.2329070084908884,6.487413423915501,7.9272102506034265,-0.9985158835229584,-5.046849929193861,-1.280318051570682
1669909933409643011,-1.243052751651724,6.500696557471902,7.9276243210326225,-1.0,-5.430087737443532,-1.2803180515706678
1669909933409662120,-1.2508167270633175,6.507615546880758,7.927911957452516,-1.0,-5.430087737443533,-1.2803180515706605
1669909933424164794,-1.2508167270633175,6.507615546880758,7.927911957452516,-1.0,-5.244513851684834,-1.2803180515706605
1669909933444557300,-1.2508167270633175,6.507615546880758,7.927911957452516,-0.9866917733502434,-5.122928467643071,-1.2803180515706605
1669909933461221004,-1.2628550447184503,6.517105195334956,7.928333387874547,-0.9866917733502434,-5.122928467643072,-1.280318051570649
1669909933479307247,-1.1499499894339502,6.659882161429927,7.913612083696309,-1.0,-5.366619036515099,-1.8936831504046867
1669909933496139432,-1.1499499894339502,6.659882161429927,7.913612083696309,-0.9894752054169682,-5.13476462120914,-1.8936831504046867
1669909933511136477,-1.1499499894339502,6.659882161429927,7.913612083696309,-0.9894293949145156,-5.130861239047691,-1.8936831504046867
1669909933528353987,-1.1499499894339502,6.659882161429927,7.913612083696309,-0.9894293949145156,-5.130861239047691,-1.8936831504046867
1669909933573441569,-1.1499499894339502,6.659882161429927,7.913612083696309,-0.9893408556510983,-5.123325592199941,-1.8936831504046867
1669909933590440372,-1.1415059484202326,6.649817321113154,7.93187271168131,-0.9892927114366412,-5.119224252912808,-1.7235744371950577
1669909933604949839,-1.1415059484202326,6.649817321113154,7.93187271168131,-0.9892927114366412,-5.119224252912808,-1.7235744371950577
1669909933621830093,-1.1415059484202326,6.649817321113154,7.93187271168131,-0.9892048353812172,-5.111740886456453,-1.7235744371950577
1669909933950088120,-1.1415059484202326,6.649817321113154,7.93187271168131,-0.9891593259773457,-5.107866282291617,-1.7235744371950577
1669909933950141159,-1.1415059484202326,6.649817321113154,7.93187271168131,-0.9891137942084337,-5.103987478634006,-1.7235744371950577
1669909933950167081,-1.121024483372854,6.6426498557971385,7.948546315493303,-0.9968755988718042,-5.158533757782748,-1.607236415141812
1669909933950186555,-1.121024483372854,6.6426498557971385,7.948546315493303,-0.9968755988718042,-5.158533757782748,-1.607236415141812
1669909933950206068,-1.121024483372854,6.6426498557971385,7.948546315493303,-0.9897040374983874,-5.0980415665533325,-1.607236415141812
1669909933950225469,-1.121024483372854,6.6426498557971385,7.948546315493303,-0.9896572976735627,-5.093636488420427,-1.607236415141812
1669909933950243487,-1.121024483372854,6.6426498557971385,7.948546315493303,-0.9896572976735627,-5.093636488420427,-1.607236415141812
1669909933950290595,-1.121024483372854,6.6426498557971385,7.948546315493303,-0.9895788488095282,-5.086250349926935,-1.607236415141812
1669909933950293979,-1.121024483372854,6.6426498557971385,7.948546315493303,-0.9895788488095282,-5.086250349926935,-1.607236415141812
1669909933950295934,-1.1731295830499766,6.681351048790794,7.991030869729433,-1.0,-5.999999999979683,-1.6072364151417395
1669909933950313413,-1.1731295830499766,6.681351048790794,7.991030869729433,-1.0,-5.247272482462834,-1.6072364151417395
1669909933950330126,-1.1731295830499766,6.681351048790794,7.991030869729433,-1.0,-5.247272482462834,-1.6072364151417395
1669909934021605890,-1.1731295830499766,6.681351048790794,7.991030869729433,-1.0,-5.241634092040763,-1.6072364151417395
1669909934021680225,-1.1731295830499766,6.681351048790794,7.991030869729433,-1.0,-5.241634092040763,-1.6072364151417395
1669909934021684128,-1.1731295830499766,6.681351048790794,7.991030869729433,-1.0,-5.236524571159292,-1.6072364151417395
1669909934021686053,-1.1731295830499766,6.681351048790794,7.991030869729433,-1.0,-5.233674154073718,-1.6072364151417395
1669909934021721029,-1.2070441478502145,6.715639406059097,8.012160176687473,-1.0,-5.999999999979691,-1.6072364151416907
1669909934048706564,-1.2070441478502145,6.715639406059097,8.012160176687473,-1.0,-5.999999999979691,-1.6072364151416907
1669909934048749018,-1.2070441478502145,6.715639406059097,8.012160176687473,-1.0,-5.345265237789754,-1.6072364151416907
1669909934048752362,-1.2070441478502145,6.715639406059097,8.012160176687473,-1.0,-5.342768268045252,-1.6072364151416907
1669909934048782594,-1.2070441478502145,6.715639406059097,8.012160176687473,-1.0,-5.342768268045252,-1.6072364151416907
1669909934061126993,-1.2070441478502145,6.715639406059097,8.012160176687473,-1.0,-5.339627754306661,-1.6072364151416907
1669909934076957167,-1.306793184745068,6.739972503051552,8.013086690315296,-1.0,-5.339627754306668,-1.6072364151416154
1669909934096057156,-1.306793184745068,6.739972503051552,8.013086690315296,-1.0,-5.999999999979698,-1.6072364151416154
1669909934110755954,-1.478667648303265,6.838301689491066,7.495933844455768,-1.0,-5.520517384158442,-1.8478745967088075
1669909934134703082,-1.478667648303265,6.838301689491066,7.495933844455768,-1.0,-5.520517384158442,-1.8478745967088075
1669909934384144072,-1.478667648303265,6.838301689491066,7.495933844455768,-1.0,-5.519029967046741,-1.8478745967088075
1669909934441942727,-1.478667648303265,6.838301689491066,7.495933844455768,-1.0,-5.519029967046741,-1.8478745967088075
1669909934441959509,-1.478667648303265,6.838301689491066,7.495933844455768,-1.0,-5.517776824484839,-1.8478745967088075
1669909934441976083,-1.5280646649353955,6.869314698714168,7.535981941726135,-1.0,-5.517776824484842,-1.8478745967087524
1669909934441992756,-1.5280646649353955,6.869314698714168,7.535981941726135,-1.0,-5.999999999979701,-1.8478745967087524
1669909934442009657,-1.5280646649353955,6.869314698714168,7.535981941726135,-1.0,-5.999999999979701,-1.8478745967087524
1669909934442025843,-1.5280646649353955,6.869314698714168,7.535981941726135,-1.0,-5.664549007116092,-1.8478745967087524
1669909934442065042,-1.5280646649353955,6.869314698714168,7.535981941726135,-1.0,-5.664549007116092,-1.8478745967087524
1669909934442071855,-1.5280646649353955,6.869314698714168,7.535981941726135,-1.0,-5.665093829285619,-1.8478745967087524
1669909934442086120,-1.5280646649353955,6.869314698714168,7.535981941726135,-1.0,-5.665093829285619,-1.8478745967087524
1669909934442125018,-1.5808757124928687,6.902542704291798,7.5555168693459756,-1.0,-5.9999999999797,-1.8478745967087074
1669909934442128102,-1.5808757124928687,6.902542704291798,7.5555168693459756,-1.0,-5.802374959299769,-1.8478745967087074
1669909934442145517,-1.5808757124928687,6.902542704291798,7.5555168693459756,-1.0,-5.802374959299769,-1.8478745967087074
1669909934442210509,-1.5808757124928687,6.902542704291798,7.5555168693459756,-1.0,-5.804508306783992,-1.8478745967087074
1669909934462481323,-1.5808757124928687,6.902542704291798,7.5555168693459756,-1.0,-5.805677433663162,-1.8478745967087074
1669909934462487739,-1.5808757124928687,6.902542704291798,7.5555168693459756,-1.0,-5.806850434284153,-1.8478745967087074
1669909934486852731,-1.7690489171532844,6.837344163604237,7.515032202521635,-1.0,-5.808182196807463,-1.6835757717427535
1669909934505898656,-1.7690489171532844,6.837344163604237,7.515032202521635,-1.0,-5.808182196807463,-1.6835757717427535
1669909934522359423,-1.849440386870561,6.832043780073255,7.503593558022615,-1.0,-5.9999999999797,-1.6835757717426882
1669909934539896429,-1.849440386870561,6.832043780073255,7.503593558022615,-1.0,-5.9998771558497515,-1.6835757717426882
1669909934567997438,-1.849440386870561,6.832043780073255,7.503593558022615,-1.0,-5.9998771558497515,-1.6835757717426882
1669909934583464506,-1.849440386870561,6.832043780073255,7.503593558022615,-1.0,-5.9999999999797,-1.6835757717426882
1669909934603824899,-1.849440386870561,6.832043780073255,7.503593558022615,-1.0,-5.9999999999797,-1.6835757717426882
1669909934622178468,-1.849440386870561,6.832043780073255,7.503593558022615,-1.0,-5.9999999999797,-1.6835757717426882
1669909934639231206,-1.906736031395236,6.861422353667848,7.492371969472737,-1.0,-5.999999999979699,-1.6835757717426563
1669909934655537657,-1.906736031395236,6.861422353667848,7.492371969472737,-0.9950772094039857,-5.999999999979699,-1.6835757717426563
1669909934771453547,-2.002905592542926,6.867499643249147,7.441156380426259,-1.0,-5.999999999979699,-1.525938771658733
1669909934812689788,-2.002905592542926,6.867499643249147,7.441156380426259,-1.0,-5.999999999979699,-1.525938771658733
1669909934812692276,-2.002905592542926,6.867499643249147,7.441156380426259,-1.0,-5.999999999979699,-1.525938771658733
1669909934812714956,-2.002905592542926,6.867499643249147,7.441156380426259,-1.0,-5.999999999979699,-1.525938771658733
1669909934812731021,-2.057115107451242,6.848602331828071,7.439736981874097,-1.0,-5.999999999979698,-1.5259387716587067
1669909934812774695,-2.057115107451242,6.848602331828071,7.439736981874097,-0.965865891267531,-5.999999999979698,-1.5259387716587067
1669909934859110216,-2.057115107451242,6.848602331828071,7.439736981874097,-0.965865891267531,-5.999999999979698,-1.5259387716587067
1669909934859112434,-2.057115107451242,6.848602331828071,7.439736981874097,-1.0,-5.999999999979698,-1.5259387716587067
1669909934876273523,-2.057115107451242,6.848602331828071,7.439736981874097,-1.0,-5.999999999979698,-1.5259387716587067
1669909934876325711,-2.057115107451242,6.848602331828071,7.439736981874097,-1.0,-5.999999999979698,-1.5259387716587067
1669909934876383397,-2.057115107451242,6.848602331828071,7.439736981874097,-1.0,-5.999999999979698,-1.5259387716587067
1669909934895241611,-2.057115107451242,6.848602331828071,7.439736981874097,-1.0,-5.999999999979698,-1.5259387716587067
1669909934913394472,-2.255502750023336,6.742093430648031,7.452336313557336,-1.0,-5.999999999979695,-1.344672180705822
1669909934933957896,-2.255502750023336,6.742093430648031,7.452336313557336,-0.9582288934013221,-5.999999999979695,-1.344672180705822
1669909934953764869,-2.255502750023336,6.742093430648031,7.452336313557336,-1.0,-5.999999999979695,-1.344672180705822
1669909934974941585,-2.255502750023336,6.742093430648031,7.452336313557336,-1.0,-5.999999999979695,-1.344672180705822
1669909934997552338,-2.255502750023336,6.742093430648031,7.452336313557336,-1.0,-5.999999999979695,-1.344672180705822
1669909935012171131,-2.255502750023336,6.742093430648031,7.452336313557336,-1.0,-5.999999999979695,-1.344672180705822
1669909935031177524,-2.255502750023336,6.742093430648031,7.452336313557336,-1.0,-5.999999999979695,-1.344672180705822
1669909935052713700,-2.255502750023336,6.742093430648031,7.452336313557336,-1.0,-5.999999999979695,-1.344672180705822
1669909935075846468,-2.2987511258967426,6.620422693508064,7.367776923416693,-0.9451243170719357,-5.999999999979691,-1.2133044004376363
1669909935094316919,-2.2987511258967426,6.620422693508064,7.367776923416693,-1.0,-5.999999999979691,-1.2133044004376363
1669909935114181170,-2.2987511258967426,6.620422693508064,7.367776923416693,-1.0,-5.999999999979691,-1.2133044004376363
1669909935135544087,-2.2987511258967426,6.620422693508064,7.367776923416693,-1.0,-5.999999999979691,-1.2133044004376363
1669909935152478579,-2.2987511258967426,6.620422693508064,7.367776923416693,-1.0,-5.999999999979691,-1.2133044004376363
1669909935175348371,-2.2987511258967426,6.620422693508064,7.367776923416693,-1.0,-5.999999999979691,-1.2133044004376363
1669909935198606236,-2.2987511258967426,6.620422693508064,7.367776923416693,-1.0,-5.999999999979691,-1.2133044004376363
1669909935494314072,-2.281577537620833,6.591374369876777,6.8459963729368045,-1.0,-5.999999999979691,-1.1364777758653593
1669909935495778882,-2.300487622950679,6.582676654495016,6.816715428306177,-1.0,-5.999999999979688,-1.1364777758653837
1669909935495782788,-2.300487622950679,6.582676654495016,6.816715428306177,-0.94534367366732,-5.999999999979688,-1.1364777758653837
1669909935495784963,-2.300487622950679,6.582676654495016,6.816715428306177,-0.94534367366732,-5.999999999979688,-1.1364777758653837
1669909935495792971,-2.300487622950679,6.582676654495016,6.816715428306177,-0.9983815159926779,-5.999999999979688,-1.1364777758653837
1669909935495796505,-2.300487622950679,6.582676654495016,6.816715428306177,-0.9983815159926779,-5.999999999979688,-1.1364777758653837
1669909935495799807,-2.300487622950679,6.582676654495016,6.816715428306177,-0.9983604678601212,-5.999999999979688,-1.1364777758653837
1669909935495889007,-2.300487622950679,6.582676654495016,6.816715428306177,-0.9983497458977587,-5.999999999979688,-1.1364777758653837
1669909935495894764,-2.300487622950679,6.582676654495016,6.816715428306177,-0.9983497458977587,-5.999999999979688,-1.1364777758653837
1669909935495897897,-2.279198961577795,6.537629047184623,6.778504763027802,-0.9548991629511289,-5.3260567766481515,-1.1364777758654387
1669909935495915359,-2.279198961577795,6.537629047184623,6.778504763027802,-0.9936234446661923,-5.999999999979686,-1.1364777758654387
1669909935524127275,-2.279198961577795,6.537629047184623,6.778504763027802,-0.9936234446661923,-5.999999999979686,-1.1364777758654387
1669909935524129577,-2.279198961577795,6.537629047184623,6.778504763027802,-0.9935390429445417,-5.999999999979686,-1.1364777758654387
1669909935524170981,-2.279198961577795,6.537629047184623,6.778504763027802,-0.9934709191690804,-5.999999999979686,-1.1364777758654387
1669909935524174044,-2.279198961577795,6.537629047184623,6.778504763027802,-0.9934709191690804,-5.999999999979686,-1.1364777758654387
1669909935524192381,-2.279198961577795,6.537629047184623,6.778504763027802,-0.9934155499676411,-5.999999999979686,-1.1364777758654387
1669909935535512473,-2.2235444212342297,6.509025577487551,6.750187398456561,-0.9934155499676411,-5.9999999999796785,-1.1364777758654978
1669909935555115539,-2.2235444212342297,6.509025577487551,6.750187398456561,-0.9686382902468059,-4.995263786266049,-1.1364777758654978
1669909935572166558,-2.2235444212342297,6.509025577487551,6.750187398456561,-0.9906089549644794,-5.9999999999796785,-1.1364777758654978
1669909935588968330,-2.2235444212342297,6.509025577487551,6.750187398456561,-0.9906089549644794,-5.9999999999796785,-1.1364777758654978
1669909935611574404,-2.145811321773628,6.484407071055972,6.991422893070208,-0.9904945880302287,-5.9999999999796785,-1.070011965924206
1669909935635534006,-2.145811321773628,6.484407071055972,6.991422893070208,-0.9904945880302287,-5.9999999999796785,-1.070011965924206
1669909935655552959,-2.145811321773628,6.484407071055972,6.991422893070208,-0.9903771591415353,-5.9999999999796785,-1.070011965924206
1669909935673315963,-2.145811321773628,6.484407071055972,6.991422893070208,-0.990318401359704,-5.9999999999796785,-1.070011965924206
1669909935687887075,-2.145811321773628,6.484407071055972,6.991422893070208,-0.990318401359704,-5.9999999999796785,-1.070011965924206
1669909935712787390,-2.145811321773628,6.484407071055972,6.991422893070208,-0.9901979669221234,-5.9999999999796785,-1.070011965924206
1669909935825175930,-2.095131769035067,6.466625175738357,6.9627594500332535,-0.9901979669221234,-5.999999999979666,-1.0700119659242724
1669909935865631735,-2.095131769035067,6.466625175738357,6.9627594500332535,-0.9672973965171845,-4.410645507888295,-1.0700119659242724
1669909935865655565,-2.127506925914492,6.478788099551223,6.972635939672536,-0.9875890730624368,-5.994527726082601,-1.2171881273326968
1669909935865696783,-2.127506925914492,6.478788099551223,6.972635939672536,-0.9875890730624368,-5.994527726082601,-1.2171881273326968
1669909935865700307,-2.127506925914492,6.478788099551223,6.972635939672536,-0.9874494479871652,-5.996417186851006,-1.2171881273326968
1669909935865705029,-2.127506925914492,6.478788099551223,6.972635939672536,-0.9874494479871652,-5.996417186851006,-1.2171881273326968
1669909935884082963,-2.127506925914492,6.478788099551223,6.972635939672536,-0.9873003610989675,-5.998428259206648,-1.2171881273326968
1669909935884102944,-2.127506925914492,6.478788099551223,6.972635939672536,-0.9872250381572344,-5.999445821245384,-1.2171881273326968
1669909935907108099,-2.0355719935492433,6.452021161734778,6.942874830205627,-0.959254687962767,-2.9859802568048908,-1.217188127332785
1669909935924458254,-2.0355719935492433,6.452021161734778,6.942874830205627,-0.959254687962767,-2.9859802568048908,-1.217188127332785
1669909935940847791,-2.0355719935492433,6.452021161734778,6.942874830205627,-0.9848921356041358,-5.774266400956288,-1.217188127332785
1669909935986634484,-2.0355719935492433,6.452021161734778,6.942874830205627,-0.9848011982987652,-5.773768916295205,-1.217188127332785
1669909936005997147,-1.7606633019045745,6.496344367682654,6.999089460809417,-0.9848011982987652,-5.773768916295205,-1.3686962798176787
1669909936006224160,-1.7606633019045745,6.496344367682654,6.999089460809417,-0.9846145744257228,-5.772748311817804,-1.3686962798176787
1669909936023003517,-1.7606633019045745,6.496344367682654,6.999089460809417,-0.9846145744257228,-5.772748311817804,-1.3686962798176787
1669909936039049871,-1.6631776548334758,6.495352682487772,6.957567403583978,-0.9815282626914377,-3.3639693945005114,-1.3686962798177744
1669909936074149957,-1.6631776548334758,6.495352682487772,6.957567403583978,-0.9840410015167687,-5.5140395919830505,-1.3686962798177744
1669909936091029150,-1.6631776548334758,6.495352682487772,6.957567403583978,-0.9839413493000104,-5.511655635914307,-1.3686962798177744
1669909936108524079,-1.6631776548334758,6.495352682487772,6.957567403583978,-0.9839413493000104,-5.511655635914307,-1.3686962798177744
1669909936130519459,-1.568526671023051,6.48848265113096,6.954435775547479,-0.9837772697269285,-5.507726954974047,-1.5573133528172518
1669909936146580249,-1.568526671023051,6.48848265113096,6.954435775547479,-0.9837772697269285,-5.507726954974047,-1.5573133528172518
1669909936163244989,-1.568526671023051,6.48848265113096,6.954435775547479,-0.9835982562948902,-5.503436191013715,-1.5573133528172518
1669909936187791359,-1.4707747528469175,6.455578001535898,6.931632984308649,-1.0,-1.8356186079347767,-1.5573133528173242
1669909936202746448,-1.4707747528469175,6.455578001535898,6.931632984308649,-1.0,-1.8356186079347767,-1.5573133528173242
1669909936223359574,-1.366163683882913,6.589364799059396,6.98263042035525,-0.9855373556399418,-5.276508360366794,-1.710589528077868
1669909936243375991,-1.366163683882913,6.589364799059396,6.98263042035525,-0.9855373556399418,-5.276508360366794,-1.710589528077868
1669909936480708597,-1.2558670212719754,6.604849717812702,6.978740185655486,-1.0,-3.3777353810182325,-1.7105895280779404
1669909936571848924,-1.2558670212719754,6.604849717812702,6.978740185655486,-0.9901371659836017,-5.058924323714382,-1.7105895280779404
1669909936571865144,-1.2558670212719754,6.604849717812702,6.978740185655486,-0.9901371659836017,-5.058924323714382,-1.7105895280779404
1669909936571880789,-1.2558670212719754,6.604849717812702,6.978740185655486,-0.9900459752021469,-5.048741004873779,-1.7105895280779404
1669909936571896265,-1.2558670212719754,6.604849717812702,6.978740185655486,-0.9900459752021469,-5.048741004873779,-1.7105895280779404
1669909936571912042,-1.2558670212719754,6.604849717812702,6.978740185655486,-0.989957082987053,-5.038821639078118,-1.7105895280779404
1669909936571927705,-1.2270939193371337,6.565577704579399,6.966152835726271,-0.989957082987053,-5.038821639078115,-1.7105895280779766
1669909936571943264,-1.2270939193371337,6.565577704579399,6.966152835726271,-1.0,-3.978074710637275,-1.7105895280779766
1669909936571958425,-1.2270939193371337,6.565577704579399,6.966152835726271,-1.0,-3.978074710637275,-1.7105895280779766
1669909936571973952,-1.2270939193371337,6.565577704579399,6.966152835726271,-0.9931512914175943,-4.908615728733449,-1.7105895280779766
1669909936571989237,-1.2270939193371337,6.565577704579399,6.966152835726271,-0.9931512914175943,-4.908615728733449,-1.7105895280779766
1669909936572007067,-1.2270939193371337,6.565577704579399,6.966152835726271,-0.9931021024018505,-4.896228587140175,-1.7105895280779766
1669909936612702538,-1.2270939193371337,6.565577704579399,6.966152835726271,-0.9931021024018505,-4.896228587140175,-1.7105895280779766
1669909936612749534,-1.1181491891531006,6.592446122245604,6.9915431021541075,-1.0,-3.2607091252598184,-1.7105895280780141
1669909936612770596,-1.1181491891531006,6.592446122245604,6.9915431021541075,-1.0,-3.2607091252598184,-1.7105895280780141
1669909936612790238,-1.1181491891531006,6.592446122245604,6.9915431021541075,-0.9951695676952367,-4.705298062920344,-1.7105895280780141
1669909936612810719,-1.1181491891531006,6.592446122245604,6.9915431021541075,-0.9951695676952367,-4.705298062920344,-1.7105895280780141
1669909936635947106,-1.1181491891531006,6.592446122245604,6.9915431021541075,-0.9951543447382514,-4.693220812330749,-1.7105895280780141
1669909936635976576,-1.1181491891531006,6.592446122245604,6.9915431021541075,-0.9951543447382514,-4.693220812330749,-1.7105895280780141
1669909936635999025,-1.1181491891531006,6.592446122245604,6.9915431021541075,-0.9951371668998744,-4.679594873080641,-1.7105895280780141
1669909936654097120,-1.0268789300842522,6.650854358406344,7.019716136790947,-0.9951371668998744,-4.679594873080628,-1.7105895280780123
1669909936678149586,-0.8602866301460502,6.658999929161349,7.014867298938469,-0.9617048467211643,-4.125359957861527,-1.8570635095180796
1669909936694482860,-0.8556777726468382,6.641707473345747,7.014548210819757,-0.9617048467211643,-4.125359957861517,-1.857063509518052
1669909936711015125,-0.8556777726468382,6.641707473345747,7.014548210819757,-0.9406763002037308,-4.512828400085844,-1.857063509518052
1669909936746111744,-0.8556777726468382,6.641707473345747,7.014548210819757,-0.9860221996969387,-4.577933728682198,-1.857063509518052
1669909936766340337,-0.8556777726468382,6.641707473345747,7.014548210819757,-0.9860221996969387,-4.577933728682198,-1.857063509518052
1669909936869625865,-0.8556777726468382,6.641707473345747,7.014548210819757,-0.9858898061486786,-4.563816818409839,-1.857063509518052
1669909936948701818,-0.8556777726468382,6.641707473345747,7.014548210819757,-0.98581283360878,-4.5555996728253545,-1.857063509518052
1669909936948741255,-0.8556777726468382,6.641707473345747,7.014548210819757,-0.98581283360878,-4.5555996728253545,-1.857063509518052
1669909936948760892,-0.8117603995091075,6.645721950305309,7.065479679091607,-0.9675993981046964,-4.833865887908644,-1.8570635095180223
1669909936948779023,-0.8117603995091075,6.645721950305309,7.065479679091607,-0.9837464574605184,-4.5646256701947285,-1.8570635095180223
1669909936948796361,-0.8851705024024841,6.643125999772436,7.069485131119071,-0.9837464574605184,-4.564625670194733,-1.85706350951794
1669909936948813896,-0.8851705024024841,6.643125999772436,7.069485131119071,-0.9759964581067073,-5.847947419321888,-1.85706350951794
1669909936948831460,-0.8851705024024841,6.643125999772436,7.069485131119071,-0.9759964581067073,-5.847947419321888,-1.85706350951794
1669909936966846059,-0.8851705024024841,6.643125999772436,7.069485131119071,-0.9826202740605479,-4.675358381104953,-1.85706350951794
1669909936966871295,-0.8851705024024841,6.643125999772436,7.069485131119071,-0.9826202740605479,-4.675358381104953,-1.85706350951794
1669909936982823688,-0.9215051958343383,6.6066205390333,7.082668784473716,-0.9824478642946353,-4.6629786087603655,-1.6362069547117075
1669909937003844996,-0.9215051958343383,6.6066205390333,7.082668784473716,-0.9824478642946353,-4.6629786087603655,-1.6362069547117075
1669909937023184169,-0.8868057325260567,6.598709180684788,7.1657863982617815,-0.988126565063684,-5.740555822283376,-1.636206954711647
1669909937039490456,-0.8868057325260567,6.598709180684788,7.1657863982617815,-0.988126565063684,-5.740555822283376,-1.636206954711647
1669909937055903807,-0.8868057325260567,6.598709180684788,7.1657863982617815,-0.9827718318633866,-4.761930419595074,-1.636206954711647
1669909937079263934,-1.006088437472388,6.608799704092352,7.170375746727926,-0.9827718318633866,-4.76193041959509,-1.6362069547115503
1669909937096511807,-1.006088437472388,6.608799704092352,7.170375746727926,-1.0,-5.999999999979596,-1.6362069547115503
1669909937116928379,-1.3566980603744128,6.651670613826606,7.1402825293724606,-1.0,-5.999999999979606,-1.5518045425353688
1669909937137232870,-1.3566980603744128,6.651670613826606,7.1402825293724606,-0.9880345231448151,-5.0892155650016555,-1.5518045425353688
1669909937163320729,-1.3566980603744128,6.651670613826606,7.1402825293724606,-0.9880345231448151,-5.0892155650016555,-1.5518045425353688
1669909937179702707,-1.3566980603744128,6.651670613826606,7.1402825293724606,-0.9879481330475441,-5.083291387369811,-1.5518045425353688
1669909937196393419,-1.3566980603744128,6.651670613826606,7.1402825293724606,-0.9879011160106598,-5.080065657393596,-1.5518045425353688
1669909937220520584,-1.2436526361514666,6.629457750858161,7.115678626078851,-0.9879011160106598,-5.080065657393596,-1.3293396681485814
1669909937241787948,-1.2436526361514666,6.629457750858161,7.115678626078851,-0.9878154571922908,-5.074189580045043,-1.3293396681485814
1669909937259122276,-1.2436526361514666,6.629457750858161,7.115678626078851,-0.9877624777280232,-5.070553123301928,-1.3293396681485814
1669909937283950766,-1.2436526361514666,6.629457750858161,7.115678626078851,-0.9877624777280232,-5.070553123301928,-1.3293396681485814
1669909937527078349,-1.2436526361514666,6.629457750858161,7.115678626078851,-0.9876826157145464,-5.065075240178343,-1.3293396681485814
1669909937586571474,-1.2344291210205356,6.63950095418916,7.177230371458167,-1.0,-5.999999999979617,-1.3293396681485334
1669909937586727120,-1.2344291210205356,6.63950095418916,7.177230371458167,-1.0,-5.999999999979617,-1.3293396681485334
1669909937586792074,-1.2344291210205356,6.63950095418916,7.177230371458167,-0.9906838944110935,-5.188444721815282,-1.3293396681485334
1669909937586852377,-1.4186761677295963,6.634080507793286,7.187473131639594,-0.9906838944110935,-5.188444721815282,-1.4627155288992086
1669909937586900938,-1.4186761677295963,6.634080507793286,7.187473131639594,-0.9906360089809451,-5.18407161430362,-1.4627155288992086
1669909937586924728,-1.4186761677295963,6.634080507793286,7.187473131639594,-0.9906360089809451,-5.18407161430362,-1.4627155288992086
1669909937586977774,-1.4186761677295963,6.634080507793286,7.187473131639594,-0.990589061561325,-5.179785560077316,-1.4627155288992086
1669909937587000500,-1.5694543614793979,6.663397466623173,7.208897109822863,-1.0,-5.999999999979657,-1.462715528899053
1669909937587018732,-1.5694543614793979,6.663397466623173,7.208897109822863,-1.0,-5.999999999979657,-1.462715528899053
1669909937587038133,-1.5694543614793979,6.663397466623173,7.208897109822863,-1.0,-5.605229165950737,-1.462715528899053
1669909937587112677,-1.5694543614793979,6.663397466623173,7.208897109822863,-1.0,-5.6058920813621915,-1.462715528899053
1669909937612619990,-1.5694543614793979,6.663397466623173,7.208897109822863,-1.0,-5.606636438216102,-1.462715528899053
1669909937612694928,-1.5694543614793979,6.663397466623173,7.208897109822863,-1.0,-5.606636438216102,-1.462715528899053
1669909937612739344,-1.751025285140709,6.688122170885783,7.185301740024846,-1.0,-5.9999999999796865,-1.462715528898919
1669909937612781099,-1.751025285140709,6.688122170885783,7.185301740024846,-1.0,-5.9999999999796865,-1.462715528898919
1669909937629706087,-1.751025285140709,6.688122170885783,7.185301740024846,-1.0,-5.9999999999796865,-1.462715528898919
1669909937629832632,-1.882761869952645,6.7030574626332795,7.180748477737561,-1.0,-5.999999999979703,-1.4627155288988352
1669909937667947999,-1.882761869952645,6.7030574626332795,7.180748477737561,-1.0,-5.999999999979703,-1.4627155288988352
1669909937691108793,-1.9197845092355381,6.7063797642459395,7.17915284875185,-1.0,-5.999999999979708,-1.4627155288988105
1669909937707358477,-1.9197845092355381,6.7063797642459395,7.17915284875185,-1.0,-5.999999999979708,-1.4627155288988105
1669909937725250376,-2.4353092542230255,6.7260177065600875,6.9494833374336435,-1.0,-5.999999999979708,-0.8732218667798987
1669909937747089075,-2.4353092542230255,6.7260177065600875,6.9494833374336435,-1.0,-5.999999999979708,-0.8732218667798987
1669909937764571842,-2.4353092542230255,6.7260177065600875,6.9494833374336435,-1.0,-5.999999999979708,-0.8732218667798987
1669909937781684887,-2.4353092542230255,6.7260177065600875,6.9494833374336435,-1.0,-5.999999999979708,-0.8732218667798987
1669909937804221485,-2.4353092542230255,6.7260177065600875,6.9494833374336435,-1.0,-5.999999999979708,-0.8732218667798987
1669909937918875281,-2.4834385186654333,6.776159513011793,6.929262766806724,-1.0,-5.999999999979719,-1.1101383715801678
1669909937957933607,-2.4834385186654333,6.776159513011793,6.929262766806724,-1.0,-5.999999999979719,-1.1101383715801678
1669909937958060661,-2.4834385186654333,6.776159513011793,6.929262766806724,-1.0,-5.999999999979719,-1.1101383715801678
1669909937958193279,-2.4834385186654333,6.776159513011793,6.929262766806724,-1.0,-5.999999999979719,-1.1101383715801678
1669909937958246418,-2.4834385186654333,6.776159513011793,6.929262766806724,-1.0,-5.999999999979719,-1.1101383715801678
1669909937958327548,-2.4834385186654333,6.776159513011793,6.929262766806724,-1.0,-5.999999999979719,-1.1101383715801678
1669909937958374764,-2.606747521248513,6.803824228873639,6.892474011811268,-1.0,-5.999999999979735,-1.1101383715801019
1669909937978799889,-2.606747521248513,6.803824228873639,6.892474011811268,-1.0,-5.999999999979735,-1.1101383715801019
1669909937978932862,-2.6954173761429314,6.807506244073154,6.886261401427492,-1.0,-5.999999999979744,-1.1101383715800561
1669909938020171312,-2.6954173761429314,6.807506244073154,6.886261401427492,-1.0,-5.999999999979744,-1.1101383715800561
1669909938043563703,-2.811092259270144,6.575406949410678,6.84998065019916,-1.0,-5.999999999979744,-0.7338596507839478
1669909938043727131,-2.811092259270144,6.575406949410678,6.84998065019916,-1.0,-5.999999999979744,-0.7338596507839478
1669909938081155427,-2.811092259270144,6.575406949410678,6.84998065019916,-1.0,-5.999999999979744,-0.7338596507839478
1669909938099661986,-2.851945319088628,6.5546785501583615,6.76841692386992,-1.0,-5.999999999979743,-0.7338596507839407
1669909938099806531,-2.851945319088628,6.5546785501583615,6.76841692386992,-1.0,-5.999999999979743,-0.7338596507839407
1669909938120183959,-2.8859497404214403,6.549309661155963,6.765813914865804,-1.0,-5.999999999979739,-0.7338596507839255
1669909938143912030,-2.8859497404214403,6.549309661155963,6.765813914865804,-1.0,-5.999999999979739,-0.7338596507839255
1669909938160494438,-2.8919565118939614,6.547333282839067,6.765351080377714,-1.0,-5.999999999979737,-0.7338596507839229
1669909938183580379,-3.0387207992229506,6.602902772231998,7.088915465905048,-1.0,-5.999999999979736,-0.6218041665784386
1669909938205692853,-3.0521831651564426,6.59223322527152,7.087917579489021,-1.0,-5.999999999979728,-0.6218041665784363
1669909938221142195,-3.0521831651564426,6.59223322527152,7.087917579489021,-0.9968221446642163,-5.999999999979728,-0.6218041665784363
1669909938244165732,-3.0521831651564426,6.59223322527152,7.087917579489021,-0.9968221446642163,-5.999999999979728,-0.6218041665784363
1669909938263508560,-3.0521831651564426,6.59223322527152,7.087917579489021,-1.0,-5.999999999979728,-0.6218041665784363
1669909938285784701,-3.235193564498026,6.558104201719579,7.232018662767677,-1.0,-5.999999999979728,-0.6908854097060207
1669909938310136238,-3.235193564498026,6.558104201719579,7.232018662767677,-1.0,-5.999999999979728,-0.6908854097060207
1669909938328061182,-3.235193564498026,6.558104201719579,7.232018662767677,-1.0,-5.999999999979728,-0.6908854097060207
