%time,field.force.x,field.force.y,field.force.z,field.torque.x,field.torque.y,field.torque.z
1669909449226240312,-0.9636930822273005,21.6874595817819,9.782570933606634,-1.0,-4.772144283720455,3.042217217635261e-12
1669909449226294282,-0.9636930822273005,21.6874595817819,9.782570933606634,-1.0,-4.772144283720455,3.042217217635261e-12
1669909449226316046,-0.9636930822273005,21.6874595817819,9.782570933606634,-1.0,-4.76738609143921,3.042217217635261e-12
1669909449226337356,-0.9636930822273005,21.6874595817819,9.782570933606634,-1.0,-4.764793052705154,3.042217217635261e-12
1669909449226358096,-0.7488912778278687,21.84417885465389,9.748132888465644,-1.0,-4.764793052705176,3.0633851511095997e-12
1669909449226385922,-0.7488912778278687,21.84417885465389,9.748132888465644,-1.0,-5.91861036530622,3.0633851511095997e-12
1669909449226419820,-0.7488912778278687,21.84417885465389,9.748132888465644,-1.0,-4.879076571817314,3.0633851511095997e-12
1669909449226458505,-0.7488912778278687,21.84417885465389,9.748132888465644,-1.0,-4.879076571817314,3.0633851511095997e-12
1669909449226590169,-0.7488912778278687,21.84417885465389,9.748132888465644,-1.0,-4.876513190946497,3.0633851511095997e-12
1669909449226626293,-0.7488912778278687,21.84417885465389,9.748132888465644,-1.0,-4.874413938792007,3.0633851511095997e-12
1669909449226646875,-0.7488912778278687,21.84417885465389,9.748132888465644,-1.0,-4.874413938792007,3.0633851511095997e-12
1669909449226666608,-0.7488912778278687,21.84417885465389,9.748132888465644,-1.0,-4.871694482170492,3.0633851511095997e-12
1669909449226685265,-0.7488912778278687,21.84417885465389,9.748132888465644,-1.0,-4.870087888240008,3.0633851511095997e-12
1669909449226705256,-0.7488912778278687,21.84417885465389,9.748132888465644,-1.0,-4.86840058468259,3.0633851511095997e-12
1669909449226754712,-0.8111882565113206,22.12529528184355,9.696715185610705,-1.0,-4.868400584682669,3.093537752075765e-12
1669909449226818241,-0.8111882565113206,22.12529528184355,9.696715185610705,-1.0,-5.999999999992049,3.093537752075765e-12
1669909449668886460,-0.8111882565113206,22.12529528184355,9.696715185610705,-1.0,-5.999999999992049,3.093537752075765e-12
1669909449668892812,-0.8111882565113206,22.12529528184355,9.696715185610705,-1.0,-5.073560449380431,3.093537752075765e-12
1669909449668897868,-0.8111882565113206,2.1252952818435475,9.696715185610705,-1.0,-5.073329363383045,3.093537752075765e-12
1669909449668903466,-0.8111882565113206,2.1252952818435475,9.696715185610705,-1.0,-5.073329363383045,3.093537752075765e-12
1669909449668909660,-0.8111882565113206,2.1252952818435475,9.696715185610705,-1.0,-5.072866835116609,3.093537752075765e-12
1669909449668914559,-0.8111882565113206,2.1252952818435475,9.696715185610705,-1.0,-5.072616246805665,3.093537752075765e-12
1669909449668922954,-0.8111882565113206,2.1252952818435475,9.696715185610705,-1.0,-5.072616246805665,3.093537752075765e-12
1669909449668927789,-0.8111882565113206,2.1252952818435475,9.696715185610705,-1.0,-5.07216750687554,3.093537752075765e-12
1669909449668932023,-0.8111882565113206,2.1252952818435475,9.696715185610705,-1.0,-5.07216750687554,3.093537752075765e-12
1669909449668936230,-0.8111882565113206,2.1252952818435475,9.696715185610705,-1.0,-5.071716889551338,3.093537752075765e-12
1669909449668940939,-0.8111882565113206,2.1252952818435475,9.696715185610705,-1.0,-5.071716889551338,3.093537752075765e-12
1669909449668944720,-0.8111882565113206,2.1252952818435475,9.696715185610705,-1.0,-5.071257227126496,3.093537752075765e-12
1669909449668949114,-0.8111882565113206,2.1252952818435475,9.696715185610705,-1.0,-5.071020695711188,3.093537752075765e-12
1669909449668953498,-0.8682854339019717,2.3021177334441,9.658534381617503,-1.0,-5.071020695711238,3.1266135976260827e-12
1669909449668957457,-0.8682854339019717,2.3021177334441,9.658534381617503,-1.0,-5.999999999992099,3.1266135976260827e-12
1669909449668961989,-0.8682854339019717,2.3021177334441,9.658534381617503,-1.0,-5.999999999992099,3.1266135976260827e-12
1669909449668966515,-0.8682854339019717,2.3021177334441,9.658534381617503,-1.0,-5.2341653437652,3.1266135976260827e-12
1669909449668970408,-0.8682854339019717,2.3021177334441,9.658534381617503,-1.0,-5.2350009937938236,3.1266135976260827e-12
1669909449668974702,-0.8682854339019717,2.3021177334441,9.658534381617503,-1.0,-5.2350009937938236,3.1266135976260827e-12
1669909449668979902,-0.8682854339019717,2.3021177334441,9.658534381617503,-1.0,-5.236666742443191,3.1266135976260827e-12
1669909449668983861,-0.8682854339019717,2.3021177334441,9.658534381617503,-1.0,-5.237509800265219,3.1266135976260827e-12
1669909449668993936,-0.8682854339019717,2.3021177334441,9.658534381617503,-1.0,-5.237509800265219,3.1266135976260827e-12
1669909449668998706,-0.8682854339019717,2.3021177334441,9.658534381617503,-1.0,-5.239179869525344,3.1266135976260827e-12
1669909449669002759,-0.9493929378210847,2.5243855002947795,9.600258264528883,-1.0,-5.999999999992167,3.180607418663589e-12
1669909449669006749,-0.9493929378210847,2.5243855002947795,9.600258264528883,-1.0,-5.5219334927589445,3.180607418663589e-12
1669909449669011348,-0.9493929378210847,2.5243855002947795,9.600258264528883,-1.0,-5.52464569261768,3.180607418663589e-12
1669909449683191294,-0.9493929378210847,2.5243855002947795,9.600258264528883,-1.0,-5.527588483614789,3.180607418663589e-12
1669909449692064420,-0.9493929378210847,2.5243855002947795,9.600258264528883,-1.0,-5.531930387624228,3.180607418663589e-12
1669909449692067210,-0.9493929378210847,2.5243855002947795,9.600258264528883,-1.0,-5.531930387624228,3.180607418663589e-12
1669909449722612243,-0.9493929378210847,2.5243855002947795,9.600258264528883,-1.0,-5.53582259642925,3.180607418663589e-12
1669909450161532772,-0.9493929378210847,2.5243855002947795,9.600258264528883,-1.0,-5.53582259642925,3.180607418663589e-12
1669909450169970834,-0.9493929378210847,2.5243855002947795,9.600258264528883,-1.0,-5.540599642461886,3.180607418663589e-12
1669909450170006476,-0.9493929378210847,2.5243855002947795,9.600258264528883,-1.0,-5.540599642461886,3.180607418663589e-12
1669909450170038978,-0.9493929378210847,2.5243855002947795,9.600258264528883,-1.0,-5.545966108838301,3.180607418663589e-12
1669909450170068949,-0.9493929378210847,2.5243855002947795,9.600258264528883,-1.0,-5.548659817842534,3.180607418663589e-12
1669909450170099395,-1.0332297857707697,2.4200595018839666,9.53280002883765,-1.0,-5.548659817842569,3.2463535711272642e-12
1669909450170130787,-1.0332297857707697,2.4200595018839666,9.53280002883765,-1.0,-5.999999999992202,3.2463535711272642e-12
1669909450170162937,-1.0332297857707697,2.4200595018839666,9.53280002883765,-1.0,-5.751147802017416,3.2463535711272642e-12
1669909450170195494,-1.0332297857707697,2.4200595018839666,9.53280002883765,-1.0,-5.755116878906157,3.2463535711272642e-12
1669909450170225826,-1.0332297857707697,2.4200595018839666,9.53280002883765,-1.0,-5.759081387209038,3.2463535711272642e-12
1669909450170257373,-1.0332297857707697,2.4200595018839666,9.53280002883765,-1.0,-5.759081387209038,3.2463535711272642e-12
1669909450170288075,-1.0332297857707697,2.4200595018839666,9.53280002883765,-1.0,-5.766944356161093,3.2463535711272642e-12
1669909450170321335,-1.0332297857707697,2.4200595018839666,9.53280002883765,-1.0,-5.770934744351226,3.2463535711272642e-12
1669909450170354247,-1.0332297857707697,2.4200595018839666,9.53280002883765,-1.0,-5.770934744351226,3.2463535711272642e-12
1669909450170387063,-1.0332297857707697,2.4200595018839666,9.53280002883765,-1.0,-5.778926619399587,3.2463535711272642e-12
1669909450170420825,-1.0598605615031917,2.1081992392270967,9.544091762459223,-0.166164701918695,-5.999999999992211,3.328075582429161e-12
1669909450170454615,-1.0598605615031917,2.1081992392270967,9.544091762459223,-0.166164701918695,-5.999999999992211,3.328075582429161e-12
1669909450170486270,-1.0598605615031917,2.1081992392270967,9.544091762459223,-1.0,-5.991150346796936,3.328075582429161e-12
1669909450170519317,-1.0598605615031917,2.1081992392270967,9.544091762459223,-1.0,-5.991150346796936,3.328075582429161e-12
1669909450170553609,-1.0598605615031917,2.1081992392270967,9.544091762459223,-1.0,-5.999999999992211,3.328075582429161e-12
1669909450170588813,-1.0598605615031917,2.1081992392270967,9.544091762459223,-1.0,-5.999999999992211,3.328075582429161e-12
1669909450184869376,-1.0598605615031917,2.1081992392270967,9.544091762459223,-1.0,-5.999999999992211,3.328075582429161e-12
1669909450211832209,-1.0598605615031917,2.1081992392270967,9.544091762459223,-1.0,-5.999999999992211,3.328075582429161e-12
1669909450223768238,-1.0598605615031917,2.1081992392270967,9.544091762459223,-1.0,-5.999999999992211,3.328075582429161e-12
1669909450223805044,-1.0598605615031917,2.1081992392270967,9.544091762459223,-1.0,-5.999999999992211,3.328075582429161e-12
1669909450264974899,-1.0874721846744833,1.7438431858446226,9.591683550591469,-0.11473499710862851,-5.999999999992216,3.383861999660281e-12
1669909450487356955,-1.0874721846744833,1.7438431858446226,9.591683550591469,-0.11473499710862851,-5.999999999992216,3.383861999660281e-12
1669909450487359257,-1.0874721846744833,1.7438431858446226,9.591683550591469,-1.0,-5.999999999992216,3.383861999660281e-12
1669909450487361543,-1.0874721846744833,1.7438431858446226,9.591683550591469,-1.0,-5.999999999992216,3.383861999660281e-12
1669909450487363560,-1.0874721846744833,1.7438431858446226,9.591683550591469,-1.0,-5.999999999992216,3.383861999660281e-12
1669909450487365861,-1.0874721846744833,1.7438431858446226,9.591683550591469,-1.0,-5.999999999992216,3.383861999660281e-12
1669909450487368051,-1.0874721846744833,1.7438431858446226,9.591683550591469,-1.0,-5.999999999992216,3.383861999660281e-12
1669909450487445785,-1.0874721846744833,1.7438431858446226,9.591683550591469,-1.0,-5.999999999992216,3.383861999660281e-12
1669909450487449009,-1.0874721846744833,1.7438431858446226,9.591683550591469,-1.0,-5.999999999992216,3.383861999660281e-12
1669909450487451251,-1.0874721846744833,1.7438431858446226,9.591683550591469,-1.0,-5.999999999992216,3.383861999660281e-12
1669909450487453129,-1.0874721846744833,1.7438431858446226,9.591683550591469,-1.0,-5.999999999992216,3.383861999660281e-12
1669909450487455081,-1.0981896092603736,1.4288565836804124,9.615267951481924,-0.4359865836952553,-5.999999999992262,3.4053630203956107e-12
1669909450487456971,-1.0981896092603736,1.4288565836804124,9.615267951481924,-0.4359865836952553,-5.999999999992262,3.4053630203956107e-12
1669909450487458903,-1.0981896092603736,1.4288565836804124,9.615267951481924,-1.0,-5.999999999992262,3.4053630203956107e-12
1669909450509514550,-1.0981896092603736,1.4288565836804124,9.615267951481924,-1.0,-5.999999999992262,3.4053630203956107e-12
1669909450537516274,-1.0981896092603736,1.4288565836804124,9.615267951481924,-1.0,-5.999999999992262,3.4053630203956107e-12
1669909450550189302,-1.0981896092603736,1.4288565836804124,9.615267951481924,-1.0,-5.999999999992262,3.4053630203956107e-12
1669909450579182122,-1.0981896092603736,21.428856583680414,9.615267951481924,-1.0,-5.999999999992262,4.261148571971484
1669909450592484525,-1.0981896092603736,21.428856583680414,9.615267951481924,-1.0,-5.999999999992262,4.261148571971484
1669909450616459161,-0.31906809112530277,21.428856583680414,9.615267951481924,-1.0,-5.999999999992262,10.951062440875598
1669909450633928155,-0.31906809112530277,21.428856583680414,9.615267951481924,-1.0,-5.999999999992262,10.951062440875598
1669909450656084578,-0.31906809112530277,21.428856583680414,9.615267951481924,-1.0,-5.999999999992262,10.951062440875598
1669909450690597834,0.5129628310491509,21.428856583680414,9.615267951481924,-1.0,-5.999999999992262,12.00000017881734
1669909450719216254,0.5129628310491509,21.428856583680414,9.615267951481924,-1.0,-5.999999999992262,12.00000017881734
1669909450719347137,0.5129628310491509,21.428856583680414,9.615267951481924,-1.0,-5.999999999992262,12.00000017881734
1669909450734091552,0.5447750097071492,21.16510956265171,9.608363376927768,-1.0,-5.99999999999239,12.000000178817285
1669909450753828398,0.5447750097071492,21.16510956265171,9.608363376927768,-0.8345660737688314,-5.42377890652805,12.000000178817285
1669909450773282130,0.5447750097071492,21.16510956265171,9.608363376927768,-0.8345660737688314,-5.42377890652805,12.000000178817285
1669909451007870420,0.5447750097071492,21.16510956265171,9.608363376927768,-1.0,-5.99999999999239,12.000000178817285
1669909451021939359,0.5447750097071492,21.16510956265171,9.608363376927768,-1.0,-5.99999999999239,12.000000178817285
1669909451021942079,0.5447750097071492,21.16510956265171,9.608363376927768,-1.0,-5.99999999999239,12.000000178817285
1669909451021944772,0.5447750097071492,21.16510956265171,9.608363376927768,-1.0,-5.99999999999239,12.000000178817285
1669909451021947794,0.5447750097071492,21.16510956265171,9.608363376927768,-1.0,-5.99999999999239,12.000000178817285
1669909451021950292,0.5447750097071492,21.16510956265171,9.608363376927768,-1.0,-5.99999999999239,12.000000178817285
1669909451021952762,0.5447750097071492,21.16510956265171,9.608363376927768,-1.0,-5.99999999999239,12.000000178817285
1669909451021955299,0.5447750097071492,21.16510956265171,9.608363376927768,-1.0,-5.99999999999239,12.000000178817285
1669909451021959791,0.5447750097071492,21.16510956265171,9.608363376927768,-1.0,-5.99999999999239,12.000000178817285
1669909451021962112,0.687385941082645,20.951596271105487,9.544271725417397,-1.0,-5.999999999992558,12.000000178817155
1669909451021964543,0.687385941082645,20.951596271105487,9.544271725417397,-1.0,-3.1388149584492746,12.000000178817155
1669909451034745225,0.687385941082645,20.951596271105487,9.544271725417397,-1.0,-5.999999999992558,12.000000178817155
1669909451048632978,0.687385941082645,20.951596271105487,9.544271725417397,-1.0,-5.999999999992558,12.000000178817155
1669909451062018468,0.687385941082645,20.951596271105487,9.544271725417397,-1.0,-5.999999999992558,12.000000178817155
1669909451075853534,-0.9237664992268797,20.951596271105487,9.544271725417397,-1.0,-5.999999999992558,2.7631073445113916
1669909451092403449,-0.9237664992268797,20.951596271105487,9.544271725417397,-1.0,-5.999999999992558,2.7631073445113916
1669909451113611295,-0.6438635716493841,20.951596271105487,9.544271725417397,-1.0,-5.999999999992558,10.252156555655839
1669909451160009846,-0.6438635716493841,20.951596271105487,9.544271725417397,-1.0,-5.999999999992558,10.252156555655839
1669909451181898510,-0.6438635716493841,20.951596271105487,9.544271725417397,-1.0,-5.999999999992558,10.252156555655839
1669909451192130685,0.687385941082645,20.951596271105487,9.544271725417397,-1.0,-5.999999999992558,12.000000178817155
1669909451192254773,0.687385941082645,20.951596271105487,9.544271725417397,-1.0,-5.999999999992558,12.000000178817155
1669909451220825972,1.3530106788222076,20.951596271105487,9.544271725417397,-1.0,-5.999999999992558,10.55168777704561
1669909451234634948,1.5556769109014468,20.94475141952622,9.537166262650778,-1.0,-5.999999999992659,10.551687777045482
1669909451258207719,1.5556769109014468,20.94475141952622,9.537166262650778,-1.0,-1.9631566317097329,10.551687777045482
1669909451272973569,-0.7211002671476409,20.94475141952622,9.537166262650778,-1.0,-1.9631566317097329,3.092219291556552e-12
1669909451293140845,-0.7211002671476409,20.94475141952622,9.537166262650778,-1.0,-5.6474754931772475,3.092219291556552e-12
1669909451535721930,-0.7211002671476409,20.94475141952622,9.537166262650778,-1.0,-5.648348457084742,3.092219291556552e-12
1669909451540812808,-0.7211002671476409,20.94475141952622,9.537166262650778,-1.0,-5.6493167244540565,3.092219291556552e-12
1669909451540866017,-0.7211002671476409,20.94475141952622,9.537166262650778,-1.0,-5.6493167244540565,3.092219291556552e-12
1669909451540909246,-0.7211002671476409,20.94475141952622,9.537166262650778,-1.0,-5.651054018777921,3.092219291556552e-12
1669909451540962388,-0.7211002671476409,20.94475141952622,9.537166262650778,-1.0,-5.65192623677022,3.092219291556552e-12
1669909451541005106,-0.7211002671476409,20.94475141952622,9.537166262650778,-1.0,-5.65192623677022,3.092219291556552e-12
1669909451541026322,-0.7211002671476409,20.94475141952622,9.537166262650778,-1.0,-5.653569274079145,3.092219291556552e-12
1669909451541108751,-0.514821655479628,20.981486139831077,9.534628211123612,-1.0,2.5487681474418524,2.9805690698621663e-12
1669909451541134591,-0.514821655479628,20.981486139831077,9.534628211123612,-1.0,2.5487681474418524,2.9805690698621663e-12
1669909451541178540,-0.514821655479628,20.981486139831077,9.534628211123612,-1.0,-5.139076333389121,2.9805690698621663e-12
1669909451541208495,-0.514821655479628,20.981486139831077,9.534628211123612,-1.0,-5.136424559772608,2.9805690698621663e-12
1669909451541341578,-0.514821655479628,20.981486139831077,9.534628211123612,-1.0,-5.136424559772608,2.9805690698621663e-12
1669909451554508273,-0.514821655479628,20.981486139831077,9.534628211123612,-1.0,-5.131552473612521,2.9805690698621663e-12
1669909451577270740,-0.514821655479628,20.981486139831077,9.534628211123612,-1.0,-5.1284697808376905,2.9805690698621663e-12
1669909451612653124,-0.514821655479628,20.981486139831077,9.534628211123612,-1.0,-5.1284697808376905,2.9805690698621663e-12
1669909451627878619,-0.514821655479628,20.981486139831077,9.534628211123612,-1.0,-5.12402017186494,0.8660766854912046
1669909451641057131,-0.514821655479628,20.981486139831077,9.534628211123612,-1.0,-5.121508747365402,0.8660766854912046
1669909451656751329,-0.3005419288721739,20.603660359442635,9.61008907846383,-1.0,-1.8163713848501228,0.8660766854911724
1669909451672566598,-0.3005419288721739,20.603660359442635,9.61008907846383,-1.0,-1.8163713848501228,10.352000892165272
1669909451693861266,-0.3005419288721739,20.603660359442635,9.61008907846383,-1.0,-4.918718132959008,10.352000892165272
1669909451711765734,-0.3005419288721739,20.603660359442635,9.61008907846383,-1.0,-4.918718132959008,12.000000178816883
1669909451734550173,-0.3005419288721739,20.603660359442635,9.61008907846383,-1.0,-4.911137205231115,12.000000178816883
1669909451753745748,-0.3005419288721739,20.603660359442635,9.61008907846383,-1.0,-4.911137205231115,12.000000178816883
1669909451774579981,-0.3005419288721739,20.603660359442635,9.61008907846383,-1.0,-4.903567461081556,12.000000178816883
1669909451796089780,-0.3005419288721739,20.603660359442635,9.61008907846383,-1.0,-4.8991498454161215,12.000000178816883
1669909451835144046,-0.3005419288721739,20.603660359442635,9.61008907846383,-1.0,-4.8991498454161215,4.960054457190601
1669909452077983856,-0.0432583182133332,20.574597093423908,9.675951616179388,-1.0,-4.01557032904595,4.960054457190596
1669909452077986264,-0.0432583182133332,20.574597093423908,9.675951616179388,-1.0,-4.799917029195409,4.960054457190596
1669909452077988822,-0.0432583182133332,20.574597093423908,9.675951616179388,-1.0,-4.795540216287713,1.7646702379017698
1669909452077991199,-0.0432583182133332,20.574597093423908,9.675951616179388,-1.0,-4.790912622309833,1.7646702379017698
1669909452077993611,-0.0432583182133332,20.574597093423908,9.675951616179388,-1.0,-4.790912622309833,1.7646702379017698
1669909452077998640,-0.0432583182133332,20.574597093423908,9.675951616179388,-1.0,-4.782379974481091,1.7646702379017698
1669909452078001187,-0.0432583182133332,20.574597093423908,9.675951616179388,-1.0,-4.782379974481091,1.7646702379017698
1669909452078003350,-0.0432583182133332,20.574597093423908,9.675951616179388,-1.0,-4.773751603115122,1.7646702379017698
1669909452078005853,-0.0432583182133332,20.574597093423908,9.675951616179388,-1.0,-4.769183873943422,1.7646702379017698
1669909452078008157,-0.0432583182133332,20.574597093423908,9.675951616179388,-1.0,-4.764370699742969,1.7646702379017698
1669909452078010537,-0.0432583182133332,20.574597093423908,9.675951616179388,-1.0,-4.764370699742969,1.7646702379017698
1669909452091304899,-0.0432583182133332,20.574597093423908,9.675951616179388,-1.0,-4.756312981864809,1.7646702379017698
1669909452091307378,0.14404056497887577,20.902363085259914,9.674564011499534,-1.0,-4.5169286359649465,1.7646702379017836
1669909452098387490,0.14404056497887577,20.902363085259914,9.674564011499534,-1.0,-4.733952662156241,1.7646702379017836
1669909452110844830,1.7551930052884002,20.902363085259914,9.674564011499534,-1.0,-4.733952662156241,12.000000178816892
1669909452137641596,1.7551930052884002,20.902363085259914,9.674564011499534,-1.0,-4.724880112829508,12.000000178816892
1669909452153157214,1.7551930052884002,20.902363085259914,9.674564011499534,-1.0,-4.724880112829508,12.000000178816892
1669909452176046338,0.14404056497887577,20.902363085259914,9.674564011499534,-1.0,-4.716136123164119,4.360992014411068
1669909452202822621,0.14404056497887577,20.902363085259914,9.674564011499534,-1.0,-4.7105308752701704,4.360992014411068
1669909452223793209,0.14404056497887577,20.902363085259914,9.674564011499534,-1.0,-4.7105308752701704,2.9569475747054914e-12
1669909452241866766,0.14404056497887577,20.902363085259914,9.674564011499534,-1.0,-4.701324378986715,2.9569475747054914e-12
1669909452294130547,0.14404056497887577,20.902363085259914,9.674564011499534,-1.0,-4.701324378986715,2.9569475747054914e-12
1669909452305796097,0.14404056497887577,20.902363085259914,9.674564011499534,-1.0,-4.69210315122839,2.9569475747054914e-12
1669909452305840707,0.14404056497887577,20.902363085259914,9.674564011499534,-1.0,-4.69210315122839,2.9569475747054914e-12
1669909452318874733,0.14404056497887577,20.902363085259914,9.674564011499534,-1.0,-4.684769972047182,2.9569475747054914e-12
1669909452343723191,0.14404056497887577,20.902363085259914,9.674564011499534,-1.0,-4.67882694209198,2.9569475747054914e-12
1669909452581611245,0.10416509252899175,21.227873887450613,9.684998744384975,-1.0,-4.6788269420916935,3.0324898349745066e-12
1669909452601102798,0.10416509252899175,21.227873887450613,9.684998744384975,-1.0,-5.9999999999917035,3.0324898349745066e-12
1669909452601119787,0.10416509252899175,21.227873887450613,9.684998744384975,-1.0,-4.835084485067996,3.0324898349745066e-12
1669909452601137462,0.10416509252899175,21.227873887450613,9.684998744384975,-1.0,-4.83161616518787,3.0324898349745066e-12
1669909452601154170,0.10416509252899175,21.227873887450613,9.684998744384975,-1.0,-4.83161616518787,3.0324898349745066e-12
1669909452601171119,0.10416509252899175,21.227873887450613,9.684998744384975,-1.0,-4.825031293860939,3.0324898349745066e-12
1669909452601187757,0.10416509252899175,21.227873887450613,9.684998744384975,-1.0,-4.821654413802851,3.0324898349745066e-12
1669909452601204432,0.10416509252899175,21.227873887450613,9.684998744384975,-1.0,-4.818204920799332,3.0324898349745066e-12
1669909452601220924,0.10416509252899175,21.227873887450613,9.684998744384975,-1.0,-4.814733563228005,3.0324898349745066e-12
1669909452601237887,0.10416509252899175,21.227873887450613,9.684998744384975,-1.0,-4.814733563228005,3.0324898349745066e-12
1669909452601254731,0.10416509252899175,21.227873887450613,9.684998744384975,-1.0,-4.8082623504898026,3.0324898349745066e-12
1669909452601271755,0.10416509252899175,21.227873887450613,9.684998744384975,-1.0,-4.8082623504898026,3.0324898349745066e-12
1669909452611662447,-0.02060720101992085,21.097373139660494,9.717252816833255,-1.0,-5.999999999991396,3.1414960890018188e-12
1669909452626386688,-0.02060720101992085,21.097373139660494,9.717252816833255,-1.0,-5.106427574839524,-12.000000178810792
1669909452643201303,-0.02060720101992085,21.097373139660494,9.717252816833255,-1.0,-5.106427574839524,-12.000000178810792
1669909452656556861,-0.02060720101992085,21.097373139660494,9.717252816833255,-1.0,-5.103904303759806,-12.000000178810792
1669909452677511750,-0.02060720101992085,21.097373139660494,9.717252816833255,-1.0,-5.10247150296547,-10.153083801266389
1669909452694272589,-0.02060720101992085,21.097373139660494,9.717252816833255,-1.0,-5.10247150296547,-10.153083801266389
1669909452735767232,-0.02060720101992085,21.097373139660494,9.717252816833255,-1.0,-5.099661791695128,-5.559887588020998
1669909452749873541,-0.02060720101992085,21.097373139660494,9.717252816833255,-1.0,-5.099661791695128,-5.559887588020998
1669909452764410833,-0.02060720101992085,21.097373139660494,9.717252816833255,-1.0,-5.096871869295861,-5.559887588020998
1669909452777599536,0.15811186999127794,20.846687791831943,9.795043808146099,-1.0,-5.0968718692956765,3.2283558516489965e-12
1669909452793653566,0.15811186999127794,20.846687791831943,9.795043808146099,-1.0,-5.9999999999912115,3.2283558516489965e-12
1669909452812106974,0.15811186999127794,20.846687791831943,9.795043808146099,-1.0,-5.9999999999912115,3.2283558516489965e-12
1669909452837524810,0.15811186999127794,20.846687791831943,9.795043808146099,-1.0,-5.4328713520912775,3.2283558516489965e-12
1669909452856304956,0.15811186999127794,20.846687791831943,9.795043808146099,-1.0,-5.433757656734116,3.2283558516489965e-12
1669909452872885792,0.15811186999127794,20.846687791831943,9.795043808146099,-1.0,-5.433757656734116,3.2283558516489965e-12
1669909453112877597,0.16529158890762,21.16236614090085,9.830339636257747,-1.0,-5.999999999991107,3.3079835106964165e-12
1669909453132214917,0.16529158890762,21.16236614090085,9.830339636257747,-1.0,-5.999999999991107,3.3079835106964165e-12
1669909453132246110,0.16529158890762,21.16236614090085,9.830339636257747,-1.0,-5.706297804176594,3.3079835106964165e-12
1669909453132270042,0.16529158890762,21.16236614090085,9.830339636257747,-1.0,-5.706297804176594,3.3079835106964165e-12
1669909453132288444,0.16529158890762,21.16236614090085,9.830339636257747,-1.0,-5.71155355308955,3.3079835106964165e-12
1669909453132306654,0.16529158890762,21.16236614090085,9.830339636257747,-1.0,-5.71418482940747,3.3079835106964165e-12
1669909453132475547,0.14900923611237626,21.39765898042775,9.867736095650711,-1.0,-5.999999999991132,3.336716070825399e-12
1669909453132479042,0.14900923611237626,21.39765898042775,9.867736095650711,-1.0,-5.999999999991132,3.336716070825399e-12
1669909453132481227,0.14900923611237626,21.39765898042775,9.867736095650711,-1.0,-5.846872351529222,3.336716070825399e-12
1669909453132483302,0.14900923611237626,21.39765898042775,9.867736095650711,-1.0,-5.846872351529222,3.336716070825399e-12
1669909453132485594,0.14900923611237626,21.39765898042775,9.867736095650711,-1.0,-5.853069307435646,3.336716070825399e-12
1669909453132487466,0.14900923611237626,21.39765898042775,9.867736095650711,-1.0,-5.853069307435646,3.336716070825399e-12
1669909453132489317,0.14900923611237626,21.39765898042775,9.867736095650711,-1.0,-5.85991389362311,3.336716070825399e-12
1669909453211002933,0.16608367972799892,21.81723122358289,9.883246798117808,-1.0,-5.999999999991176,3.384506644688496e-12
1669909453220283850,0.16608367972799892,21.81723122358289,9.883246798117808,-1.0,-5.999999999991176,3.384506644688496e-12
1669909453220293865,0.16608367972799892,21.81723122358289,9.883246798117808,-1.0,-5.999999999991176,3.384506644688496e-12
1669909453220410116,0.16608367972799892,21.81723122358289,9.883246798117808,-1.0,-5.999999999991176,3.384506644688496e-12
1669909453239234306,0.16608367972799892,21.81723122358289,9.883246798117808,-1.0,-5.999999999991176,3.384506644688496e-12
1669909453252569171,0.16608367972799892,21.81723122358289,9.883246798117808,-1.0,-5.999999999991176,3.384506644688496e-12
1669909453274260656,0.16608367972799892,21.81723122358289,9.883246798117808,-1.0,-5.999999999991176,3.384506644688496e-12
1669909453290502057,0.16608367972799892,21.81723122358289,9.883246798117808,-1.0,-5.999999999991176,3.384506644688496e-12
1669909453308565030,0.013288631256558159,21.999487480282827,9.910050926105496,-1.0,-5.999999999991208,3.413296164581971e-12
1669909453338850086,0.013288631256558159,21.999487480282827,9.910050926105496,-1.0,-5.999999999991208,3.413296164581971e-12
1669909453356594674,0.013288631256558159,21.999487480282827,9.910050926105496,-1.0,-5.999999999991208,3.413296164581971e-12
1669909453382347820,0.013288631256558159,21.999487480282827,9.910050926105496,-1.0,-5.999999999991208,-0.46747290528969376
1669909453651300456,0.013288631256558159,21.999487480282827,9.910050926105496,-1.0,-5.999999999991208,-0.46747290528969376
1669909453651347499,0.013288631256558159,21.999487480282827,9.910050926105496,-1.0,-5.999999999991208,-6.658168137070104
1669909453663128822,-0.1463573550239557,22.042518578417376,9.896269169689822,-1.0,-5.999999999991244,-6.6581681370700805
1669909453663187747,-0.1463573550239557,22.042518578417376,9.896269169689822,-1.0,-5.999999999991244,-6.6581681370700805
1669909453663239933,-0.1463573550239557,22.042518578417376,9.896269169689822,-1.0,-5.999999999991244,-9.254491031166454
1669909453663290122,-0.1463573550239557,22.042518578417376,9.896269169689822,-1.0,-5.999999999991244,-9.254491031166454
1669909453663339728,-0.1463573550239557,22.042518578417376,9.896269169689822,-1.0,-5.999999999991244,-9.254491031166454
1669909453663389052,-0.1463573550239557,22.042518578417376,9.896269169689822,-1.0,-5.999999999991244,-9.254491031166454
1669909453663437726,-0.1463573550239557,22.042518578417376,9.896269169689822,-1.0,-5.999999999991244,-9.254491031166454
1669909453663486117,-0.2704194071640022,22.104577466269156,9.854158154298167,-1.0,-5.999999999991271,-9.254491031166449
1669909453663675152,-0.2704194071640022,22.104577466269156,9.854158154298167,-1.0,-5.999999999991271,-9.254491031166449
1669909453663739016,-0.2704194071640022,22.104577466269156,9.854158154298167,-1.0,-5.999999999991271,-9.254491031166449
1669909453663790129,-0.2704194071640022,22.104577466269156,9.854158154298167,-1.0,-5.999999999991271,-9.254491031166449
1669909453668919021,-0.2704194071640022,22.104577466269156,9.854158154298167,-1.0,-5.999999999991271,-9.254491031166449
1669909453668990500,-0.2704194071640022,22.104577466269156,9.854158154298167,-1.0,-5.999999999991271,-0.4674729052896648
1669909453692146447,-0.2704194071640022,22.104577466269156,9.854158154298167,-1.0,-5.999999999991271,-0.4674729052896648
1669909453709236106,-0.32061488537121874,22.157947509935845,9.84269956365612,-1.0,-5.999999999991303,3.4383437531769816e-12
1669909453736222532,-0.32061488537121874,22.157947509935845,9.84269956365612,-1.0,-5.999999999991303,3.4383437531769816e-12
1669909453758420812,-0.32061488537121874,22.157947509935845,9.84269956365612,-1.0,-5.999999999991303,3.4383437531769816e-12
1669909453772544567,-0.32061488537121874,22.157947509935845,9.84269956365612,-1.0,-5.999999999991303,3.4383437531769816e-12
1669909453792677984,-0.32061488537121874,22.157947509935845,9.84269956365612,-1.0,-5.999999999991303,3.4383437531769816e-12
1669909453815061602,-0.32061488537121874,22.157947509935845,9.84269956365612,-1.0,-5.999999999991303,3.4383437531769816e-12
1669909453853874630,-0.3326082297748201,22.37704017358366,9.802629960581907,-1.0,-5.99999999999143,3.420554093256558e-12
1669909453867145758,-0.3326082297748201,22.37704017358366,9.802629960581907,-1.0,-5.99999999999143,3.420554093256558e-12
1669909453880075546,-0.325733089150129,22.37100177383522,9.803425520109881,-1.0,-5.999999999991567,3.402027632287344e-12
1669909453894196085,-0.325733089150129,22.37100177383522,9.803425520109881,-1.0,-5.999999999991567,3.402027632287344e-12
1669909453915309573,-0.32068621363366295,22.36601241419061,9.804037422019146,-1.0,-5.999999999991618,3.394124986193679e-12
1669909454160017413,-0.32068621363366295,22.36601241419061,9.804037422019146,-1.0,-5.999999999991618,3.394124986193679e-12
1669909454176532733,-0.32068621363366295,22.36601241419061,9.804037422019146,-1.0,-5.999999999991618,3.394124986193679e-12
1669909454176582892,-0.32068621363366295,22.36601241419061,9.804037422019146,-1.0,-5.999999999991618,3.394124986193679e-12
1669909454176678551,-0.32068621363366295,22.36601241419061,9.804037422019146,-1.0,-5.999999999991618,3.394124986193679e-12
1669909454176732346,-0.32068621363366295,22.36601241419061,9.804037422019146,-1.0,-5.999999999991618,3.394124986193679e-12
1669909454176780423,-0.32068621363366295,22.36601241419061,9.804037422019146,-1.0,-5.999999999991618,3.394124986193679e-12
1669909454176853554,-0.32068621363366295,22.36601241419061,9.804037422019146,-1.0,-5.999999999991618,3.394124986193679e-12
1669909454176860190,-0.3245416988468804,22.69991444334815,9.81477469970621,-1.0,-5.999999999991658,3.3860729034036273e-12
1669909454176930019,-0.3245416988468804,22.69991444334815,9.81477469970621,-1.0,-5.999999999991658,3.3860729034036273e-12
1669909454176976231,-0.3245416988468804,22.69991444334815,9.81477469970621,-1.0,-5.999999999991658,3.3860729034036273e-12
1669909454177023273,-0.3245416988468804,22.69991444334815,9.81477469970621,-1.0,-5.999999999991658,3.3860729034036273e-12
1669909454177068895,-0.3245416988468804,22.69991444334815,9.81477469970621,-1.0,-5.999999999991658,3.3860729034036273e-12
1669909454195063954,-0.3245416988468804,22.69991444334815,9.81477469970621,-1.0,-5.999999999991658,3.3860729034036273e-12
1669909454210458024,-0.3245416988468804,22.69991444334815,9.81477469970621,-1.0,-5.999999999991658,3.3860729034036273e-12
1669909454225373276,-0.3245416988468804,22.69991444334815,9.81477469970621,-1.0,-5.999999999991658,3.3860729034036273e-12
1669909454240732737,-0.3245416988468804,22.69991444334815,9.81477469970621,-1.0,-5.999999999991658,3.3860729034036273e-12
1669909454257976468,-0.4507676052289066,22.69806406471992,9.848607058012954,-1.0,-5.9999999999917755,3.3572912769136246e-12
1669909454280283999,-0.4507676052289066,22.69806406471992,9.848607058012954,-1.0,-5.9999999999917755,3.3572912769136246e-12
1669909454333248175,-0.4507676052289066,22.69806406471992,9.848607058012954,-1.0,-5.9999999999917755,3.3572912769136246e-12
1669909454333370031,-0.4507676052289066,22.69806406471992,9.848607058012954,-1.0,-5.9999999999917755,3.3572912769136246e-12
1669909454352850896,-0.4507676052289066,22.69806406471992,9.848607058012954,-1.0,-5.9999999999917755,3.3572912769136246e-12
1669909454362354093,-0.4507676052289066,22.69806406471992,9.848607058012954,-1.0,-5.9999999999917755,3.3572912769136246e-12
1669909454385737902,-0.4507676052289066,22.69806406471992,9.848607058012954,-1.0,-5.9999999999917755,0.16717075836249148
1669909454402843011,-0.6020307128940153,22.590157882656534,9.837348076449894,-0.8516083253037,-4.649084928345167,0.16717075836244208
1669909454414972019,-0.6020307128940153,22.590157882656534,9.837348076449894,-0.8516083253037,-4.649084928345167,6.557554006579846
1669909454435338801,-0.6020307128940153,22.590157882656534,9.837348076449894,-1.0,-5.999999999991892,6.557554006579846
1669909454673901308,-0.6020307128940153,22.590157882656534,9.837348076449894,-1.0,-5.999999999991892,6.557554006579846
1669909454716301064,-0.6020307128940153,22.590157882656534,9.837348076449894,-1.0,-5.999999999991892,11.749811768535107
1669909454716304527,-0.6020307128940153,22.590157882656534,9.837348076449894,-1.0,-5.999999999991892,11.749811768535107
1669909454716312473,-0.48853397906463625,22.590157882656534,9.837348076449894,-1.0,-5.999999999991892,11.949500441554516
1669909454716550344,-0.48853397906463625,22.590157882656534,9.837348076449894,-1.0,-5.999999999991892,11.949500441554516
1669909454716655623,-0.48853397906463625,22.590157882656534,9.837348076449894,-1.0,-5.999999999991892,11.949500441554516
1669909454716680491,-0.4657216384172481,22.52145597048829,9.831957435770939,-1.0,-5.613760037773921,11.949500441554488
1669909454716702003,-0.4657216384172481,22.52145597048829,9.831957435770939,-1.0,-5.613760037773921,11.949500441554488
1669909454716721566,-0.4657216384172481,22.52145597048829,9.831957435770939,-1.0,-5.999999999991936,11.949500441554488
1669909454716853455,-0.4657216384172481,22.52145597048829,9.831957435770939,-1.0,-5.999999999991936,11.949500441554488
1669909454716880041,-0.4657216384172481,22.52145597048829,9.831957435770939,-1.0,-5.999999999991936,11.949500441554488
1669909454740906088,-0.4657216384172481,22.52145597048829,9.831957435770939,-1.0,-5.999999999991936,11.949500441554488
1669909454740970975,-0.4657216384172481,22.52145597048829,9.831957435770939,-1.0,-5.999999999991936,11.949500441554488
1669909454740974076,-0.4657216384172481,22.52145597048829,9.831957435770939,-1.0,-5.999999999991936,11.949500441554488
1669909454741010262,-0.5447897913373717,22.41006016784725,9.847575859063575,-0.8598917514635608,-3.615597801418852,3.2387750760723286e-12
1669909454752106958,-0.5447897913373717,22.41006016784725,9.847575859063575,-0.8598917514635608,-3.615597801418852,3.2387750760723286e-12
1669909454775058259,-0.5447897913373717,22.41006016784725,9.847575859063575,-1.0,-5.999999999991992,3.2387750760723286e-12
1669909454799351925,-0.5447897913373717,22.41006016784725,9.847575859063575,-1.0,-5.999999999991992,3.2387750760723286e-12
1669909454815158112,-0.5447897913373717,22.41006016784725,9.847575859063575,-1.0,-5.999999999991992,3.2387750760723286e-12
1669909454835995238,-0.5447897913373717,22.41006016784725,9.847575859063575,-1.0,-5.999999999991992,3.2387750760723286e-12
1669909454852003726,-0.5447897913373717,22.41006016784725,9.847575859063575,-1.0,-5.999999999991992,3.2387750760723286e-12
1669909454877101837,-0.5447897913373717,22.41006016784725,9.847575859063575,-1.0,-5.999999999991992,3.2387750760723286e-12
1669909454890553920,-0.5447897913373717,22.41006016784725,9.847575859063575,-1.0,-5.999999999991992,3.2387750760723286e-12
1669909454914476032,-0.46009249422420384,22.421303052967783,9.84135744369139,-1.0,-4.990328346297666,3.211430704589973e-12
1669909454943567383,-0.46009249422420384,22.421303052967783,9.84135744369139,-1.0,-5.999999999991933,3.211430704589973e-12
1669909454953385043,-0.46009249422420384,22.421303052967783,9.84135744369139,-1.0,-5.999999999991933,3.211430704589973e-12
1669909455221706304,-0.46009249422420384,22.421303052967783,9.84135744369139,-1.0,-5.999999999991933,3.211430704589973e-12
1669909455255067976,-0.46009249422420384,22.421303052967783,9.84135744369139,-1.0,-5.999999999991933,3.211430704589973e-12
1669909455255070486,-0.46009249422420384,22.421303052967783,9.84135744369139,-1.0,-5.999999999991933,3.211430704589973e-12
1669909455255073078,-0.46009249422420384,22.421303052967783,9.84135744369139,-1.0,-5.999999999991933,3.211430704589973e-12
1669909455255229965,-0.43386881499459534,21.98887104440733,9.863605873876057,-1.0,-5.184859703846434,3.1939497353425336e-12
1669909455255360912,-0.43386881499459534,21.98887104440733,9.863605873876057,-1.0,-5.184859703846434,3.1939497353425336e-12
1669909455255424834,-0.43386881499459534,21.98887104440733,9.863605873876057,-1.0,-5.184859703846434,3.1939497353425336e-12
1669909455255938765,-0.43386881499459534,21.98887104440733,9.863605873876057,-1.0,-5.999999999991768,3.1939497353425336e-12
1669909455255951817,-0.43386881499459534,21.98887104440733,9.863605873876057,-1.0,-5.999999999991768,3.1939497353425336e-12
1669909455255954620,-0.43386881499459534,21.98887104440733,9.863605873876057,-1.0,-5.999999999991768,3.1939497353425336e-12
1669909455267951674,-0.43386881499459534,21.98887104440733,9.863605873876057,-1.0,-5.999999999991768,3.1939497353425336e-12
1669909455267962003,-0.43386881499459534,21.98887104440733,9.863605873876057,-1.0,-5.999999999991768,3.1939497353425336e-12
1669909455268023589,-0.43386881499459534,21.98887104440733,9.863605873876057,-1.0,-5.999999999991768,3.1939497353425336e-12
1669909455268027957,-0.34287776936288095,21.58412819732572,9.844513343570503,-1.0,-5.999999999991608,3.2071010416991046e-12
1669909455268061192,-0.34287776936288095,21.58412819732572,9.844513343570503,-1.0,-5.644929986570752,3.2071010416991046e-12
1669909455275646881,-0.34287776936288095,21.58412819732572,9.844513343570503,-1.0,-5.999999999991608,3.2071010416991046e-12
1669909455290885497,-0.34287776936288095,21.58412819732572,9.844513343570503,-1.0,-5.999999999991608,3.2071010416991046e-12
1669909455316252501,-0.34287776936288095,21.58412819732572,9.844513343570503,-1.0,-5.999999999991608,3.2071010416991046e-12
1669909455334834367,-0.34287776936288095,21.58412819732572,9.844513343570503,-1.0,-5.999999999991608,3.2071010416991046e-12
1669909455355849702,-0.34287776936288095,21.58412819732572,9.844513343570503,-1.0,-5.999999999991608,3.2071010416991046e-12
1669909455373141460,-0.34287776936288095,21.58412819732572,9.844513343570503,-1.0,-5.999999999991608,3.2071010416991046e-12
1669909455396871804,-0.34287776936288095,21.58412819732572,9.844513343570503,-1.0,-5.999999999991608,3.2071010416991046e-12
1669909455417685266,-0.1390832442649697,21.37173511516856,9.866044561659315,-0.9430866588579356,-5.999999999991475,3.2243190908426268e-12
1669909455440100153,-0.1390832442649697,21.37173511516856,9.866044561659315,-0.9430866588579356,-5.999999999991475,3.2243190908426268e-12
1669909455452823785,-0.1390832442649697,21.37173511516856,9.866044561659315,-1.0,-5.999999999991475,3.2243190908426268e-12
1669909455472095024,-0.1390832442649697,21.37173511516856,9.866044561659315,-1.0,-5.999999999991475,3.2243190908426268e-12
1669909455496788906,-0.1390832442649697,21.37173511516856,9.866044561659315,-1.0,-5.999999999991475,3.2243190908426268e-12
1669909455604291813,-0.1390832442649697,21.37173511516856,9.866044561659315,-1.0,-5.999999999991475,3.2243190908426268e-12
1669909455615552051,-0.1390832442649697,21.37173511516856,9.866044561659315,-1.0,-5.999999999991475,3.2243190908426268e-12
1669909455615577288,-0.1390832442649697,21.37173511516856,9.866044561659315,-1.0,-5.999999999991475,3.2243190908426268e-12
1669909455615598538,-0.1390832442649697,21.37173511516856,9.866044561659315,-1.0,-5.999999999991475,3.2243190908426268e-12
1669909455616956171,-0.1390832442649697,21.37173511516856,9.866044561659315,-1.0,-5.999999999991475,3.2243190908426268e-12
1669909455616964663,-0.028205943684635554,21.3766862193224,9.89618343099275,-1.0,-5.999999999991382,3.2254569169312026e-12
1669909455637680834,-0.028205943684635554,21.3766862193224,9.89618343099275,-1.0,-5.999999999991382,3.2254569169312026e-12
1669909455655615807,-0.028205943684635554,21.3766862193224,9.89618343099275,-1.0,-5.999999999991382,3.2254569169312026e-12
1669909455691967613,-0.028205943684635554,21.3766862193224,9.89618343099275,-1.0,-5.999999999991382,3.2254569169312026e-12
1669909455709227505,-0.028205943684635554,21.3766862193224,9.89618343099275,-1.0,-5.999999999991382,3.2254569169312026e-12
1669909455723832085,-0.028205943684635554,21.3766862193224,9.89618343099275,-1.0,-5.999999999991382,3.2254569169312026e-12
1669909455743063136,-0.028205943684635554,21.3766862193224,9.89618343099275,-1.0,-5.999999999991382,3.2254569169312026e-12
1669909455759034384,-0.028205943684635554,1.3766862193224012,9.89618343099275,-1.0,-5.999999999991382,3.2254569169312026e-12
1669909455771887872,-0.028205943684635554,1.3766862193224012,9.89618343099275,-1.0,-5.999999999991382,3.2254569169312026e-12
1669909455791626249,0.10908291210082177,1.6841188594641199,9.84496359252134,-1.0,-5.999999999991368,3.215058175957157e-12
1669909455809917553,0.10908291210082177,1.6841188594641199,9.84496359252134,-1.0,-5.999999999991368,3.215058175957157e-12
1669909455838739064,0.10908291210082177,1.6841188594641199,9.84496359252134,-1.0,-5.999999999991368,3.215058175957157e-12
1669909455852327102,0.10908291210082177,1.6841188594641199,9.84496359252134,-1.0,-5.999999999991368,3.215058175957157e-12
1669909455870704380,0.10908291210082177,1.6841188594641199,9.84496359252134,-1.0,-5.999999999991368,3.215058175957157e-12
1669909455894054604,0.10908291210082177,1.6841188594641199,9.84496359252134,-1.0,-5.999999999991368,3.215058175957157e-12
1669909455918707464,0.10908291210082177,1.6841188594641199,9.84496359252134,-1.0,-5.999999999991368,3.215058175957157e-12
1669909455934977272,0.17143578933886255,1.855062046541765,9.854114762825882,-1.0,-5.960807590962016,3.2112469940263467e-12
1669909455953496266,0.17143578933886255,1.855062046541765,9.854114762825882,-1.0,-5.960807590962016,3.2112469940263467e-12
1669909455969406731,0.17143578933886255,1.855062046541765,9.854114762825882,-1.0,-5.999999999991353,3.2112469940263467e-12
1669909456004542954,0.17143578933886255,1.855062046541765,9.854114762825882,-1.0,-5.999999999991353,3.2112469940263467e-12
1669909456261140322,0.17143578933886255,1.855062046541765,9.854114762825882,-1.0,-5.999999999991353,3.2112469940263467e-12
1669909456285269511,0.20708619063142886,1.9643504615277219,9.874193316213477,-1.0,-5.9999999999913465,3.211609799563383e-12
1669909456285320639,0.20708619063142886,1.9643504615277219,9.874193316213477,-1.0,-5.997198663269357,3.211609799563383e-12
1669909456291767728,0.20708619063142886,1.9643504615277219,9.874193316213477,-1.0,-5.997198663269357,3.211609799563383e-12
1669909456293567940,0.20708619063142886,1.9643504615277219,9.874193316213477,-1.0,-5.9999999999913465,3.211609799563383e-12
1669909456293731026,0.20708619063142886,1.9643504615277219,9.874193316213477,-1.0,-5.9999999999913465,3.211609799563383e-12
1669909456293795984,0.18125132319670695,1.9296600877387378,9.894706919764406,-1.0,-5.999999999991338,3.2154959588258825e-12
1669909456293851014,0.18125132319670695,1.9296600877387378,9.894706919764406,-1.0,-5.999999999991338,3.2154959588258825e-12
1669909456293903034,0.18125132319670695,1.9296600877387378,9.894706919764406,-1.0,-5.999999999991338,3.2154959588258825e-12
1669909456293971473,0.18125132319670695,1.9296600877387378,9.894706919764406,-1.0,-5.999999999991338,3.2154959588258825e-12
1669909456294175058,0.18125132319670695,1.9296600877387378,9.894706919764406,-1.0,-5.999999999991338,3.2154959588258825e-12
1669909456294259788,0.18601373995828133,1.894182131848564,9.895805103894997,-0.9858070655010848,-5.999999999991327,3.2201914598435235e-12
1669909456294322125,0.18601373995828133,1.894182131848564,9.895805103894997,-1.0,-5.999999999991327,3.2201914598435235e-12
1669909456294373002,0.18601373995828133,1.894182131848564,9.895805103894997,-1.0,-5.999999999991327,3.2201914598435235e-12
1669909456294423387,0.18601373995828133,1.894182131848564,9.895805103894997,-1.0,-5.999999999991327,3.2201914598435235e-12
1669909456317311635,0.18601373995828133,1.894182131848564,9.895805103894997,-1.0,-5.999999999991327,3.2201914598435235e-12
1669909456334706907,0.18601373995828133,1.894182131848564,9.895805103894997,-1.0,-5.999999999991327,3.2201914598435235e-12
1669909456352801893,0.20266577682183717,1.7099901879499524,9.906994895436021,-0.9557643638012158,-5.999999999991318,3.2233654997001507e-12
1669909456373304960,0.20266577682183717,1.7099901879499524,9.906994895436021,-0.9557643638012158,-5.999999999991318,3.2233654997001507e-12
1669909456396621712,0.2125926088309309,1.6594557474252283,9.908122862756402,-0.927320954712305,-5.973381824697404,3.2245432544059587e-12
1669909456428635817,0.2125926088309309,21.659455747425227,9.908122862756402,-1.0,-5.999999999991308,3.2245432544059587e-12
1669909456446784295,0.2125926088309309,21.659455747425227,9.908122862756402,-1.0,-5.999999999991308,3.2245432544059587e-12
1669909456457654497,0.2125926088309309,21.659455747425227,9.908122862756402,-1.0,-5.999999999991308,3.2245432544059587e-12
1669909456485161866,0.2125926088309309,21.659455747425227,9.908122862756402,-1.0,-5.999999999991308,-6.258793920275324
1669909456507400567,0.2125926088309309,21.659455747425227,9.908122862756402,-1.0,-5.999999999991308,-6.258793920275324
1669909456524675417,0.2125926088309309,21.659455747425227,9.908122862756402,-1.0,-5.999999999991308,-10.851990580555553
1669909456540599892,0.2198420148667398,21.500667156638123,9.918655946119765,-1.0,-5.999999999991304,-10.851990580555553
1669909456644678652,0.2198420148667398,21.500667156638123,9.918655946119765,-0.9757226443877215,-5.999999999991304,-10.851990580555553
1669909456670991198,0.2198420148667398,21.500667156638123,9.918655946119765,-1.0,-5.999999999991304,-7.756449580189342
1669909456671933723,0.2198420148667398,21.500667156638123,9.918655946119765,-1.0,-5.999999999991304,-7.756449580189342
1669909456672887913,0.2198420148667398,21.500667156638123,9.918655946119765,-1.0,-5.999999999991304,-7.756449580189342
1669909456673056134,0.2198420148667398,21.500667156638123,9.918655946119765,-1.0,-5.999999999991304,-7.756449580189342
1669909456673161903,0.2198420148667398,21.500667156638123,9.918655946119765,-1.0,-5.999999999991304,-7.756449580189342
1669909456683563157,0.2198420148667398,21.500667156638123,9.918655946119765,-1.0,-5.999999999991304,-7.756449580189342
1669909456697662813,0.2079654014121649,21.365329371419325,9.939444378623037,-1.0,-5.999999999991298,-7.756449580189345
1669909456720386124,0.2079654014121649,21.365329371419325,9.939444378623037,-0.8854434443375188,-5.7948169820247655,3.220542563590213e-12
1669909456736361244,0.2079654014121649,21.365329371419325,9.939444378623037,-1.0,-5.999999999991298,3.220542563590213e-12
1669909456746789089,0.2079654014121649,21.365329371419325,9.939444378623037,-1.0,-5.999999999991298,3.220542563590213e-12
1669909456777261498,0.2079654014121649,21.365329371419325,9.939444378623037,-1.0,-5.999999999991298,3.220542563590213e-12
1669909456821706869,0.2079654014121649,21.365329371419325,9.939444378623037,-1.0,-5.999999999991298,3.220542563590213e-12
1669909456844061492,0.2079654014121649,21.365329371419325,9.939444378623037,-1.0,-5.999999999991298,3.220542563590213e-12
1669909456844139469,0.2167112696496124,21.190767097564596,9.94997526309887,-1.0,-5.999999999991294,3.207515620052875e-12
1669909456858244609,0.2167112696496124,21.190767097564596,9.94997526309887,-0.8160951988198903,-5.412783590779496,3.207515620052875e-12
1669909456875540153,0.2167112696496124,21.190767097564596,9.94997526309887,-1.0,-5.999999999991294,3.207515620052875e-12
1669909456894505721,0.2599359373626925,21.13706194812178,9.9498611931757,-1.0,-5.999999999991299,3.1904936850567324e-12
1669909456921303370,0.2599359373626925,21.13706194812178,9.9498611931757,-0.8626809871637381,-5.311805950500417,3.1904936850567324e-12
1669909456937766349,0.2599359373626925,21.13706194812178,9.9498611931757,-0.8626809871637381,-5.311805950500417,3.1904936850567324e-12
1669909456977675409,0.2599359373626925,21.13706194812178,9.9498611931757,-0.989594762994279,-5.924302675868453,3.1904936850567324e-12
1669909456986147928,0.2599359373626925,21.13706194812178,9.9498611931757,-0.989594762994279,-5.924302675868453,3.1904936850567324e-12
1669909457004971445,0.2599359373626925,21.13706194812178,9.9498611931757,-0.9895188916437264,-5.923751407114866,3.1904936850567324e-12
1669909457021219556,0.2599359373626925,21.13706194812178,9.9498611931757,-0.9895188916437264,-5.923751407114866,3.1904936850567324e-12
1669909457038720467,0.2599359373626925,21.13706194812178,9.9498611931757,-0.9893727632356729,-5.9226882245300105,3.1904936850567324e-12
1669909457061131036,0.25388429100742227,21.010563833794667,9.95966539334191,-0.9893727632356729,-5.922688224530027,3.178253031893808e-12
1669909457298081067,0.25388429100742227,21.010563833794667,9.95966539334191,-0.9358122401567692,-5.456318884659301,3.178253031893808e-12
1669909457326338505,0.25388429100742227,21.010563833794667,9.95966539334191,-0.9358122401567692,-5.456318884659301,3.178253031893808e-12
1669909457326389057,0.25388429100742227,19.595147831521107,9.95966539334191,-0.9839381881522973,-5.875727828355603,3.178253031893808e-12
1669909457326453692,0.25388429100742227,19.595147831521107,9.95966539334191,-0.9839381881522973,-5.875727828355603,3.178253031893808e-12
1669909457326497416,0.30430666100330417,19.66733136002924,9.989139540541956,-1.0,-4.779994346250296,3.1411945630576862e-12
1669909457326600541,0.30430666100330417,19.66733136002924,9.989139540541956,-1.0,-4.779994346250296,3.1411945630576862e-12
1669909457326663001,0.30430666100330417,19.66733136002924,9.989139540541956,-0.9873687191885437,-5.758958602728434,3.1411945630576862e-12
1669909457326705265,0.30430666100330417,19.66733136002924,9.989139540541956,-0.9872896830801098,-5.757375687071722,3.1411945630576862e-12
1669909457327026975,0.30430666100330417,19.66733136002924,9.989139540541956,-0.9872896830801098,-5.757375687071722,3.1411945630576862e-12
1669909457327085429,0.30430666100330417,19.66733136002924,9.989139540541956,-0.987141170969189,-5.754404038605258,3.1411945630576862e-12
1669909457327126787,0.30430666100330417,19.66733136002924,9.989139540541956,-0.9870648617182738,-5.7528751936225255,3.1411945630576862e-12
1669909457327204766,0.3084268163272742,19.798835033236784,9.988541464353808,-1.0,-4.466096800965276,3.1125687671750564e-12
1669909457342694716,0.3084268163272742,19.798835033236784,9.988541464353808,-1.0,-4.466096800965276,3.1125687671750564e-12
1669909457342743091,0.3084268163272742,19.798835033236784,9.988541464353808,-1.0,-5.6657390381742205,3.1125687671750564e-12
1669909457358703829,0.3084268163272742,19.798835033236784,9.988541464353808,-1.0,-5.663477978422884,3.1125687671750564e-12
1669909457376552955,0.3084268163272742,1.2142510355103453,9.988541464353808,-1.0,-5.663477978422884,3.1125687671750564e-12
1669909457405673355,0.3515410748432052,1.2982849367820184,9.98722421987977,-1.0,-4.888941435953297,3.084388252026931e-12
1669909457420480548,0.3515410748432052,1.2982849367820184,9.98722421987977,-1.0,-5.576760983700303,3.084388252026931e-12
1669909457432597166,0.3515410748432052,1.2982849367820184,9.98722421987977,-1.0,-5.5740204043425585,3.084388252026931e-12
1669909457460935480,0.3515410748432052,1.2982849367820184,9.98722421987977,-1.0,-5.57135709545899,3.084388252026931e-12
1669909457483080137,0.3515410748432052,1.2982849367820184,9.98722421987977,-1.0,-5.5685224383534,3.084388252026931e-12
1669909457496336017,0.3515410748432052,1.2982849367820184,9.98722421987977,-1.0,-5.5685224383534,3.084388252026931e-12
1669909457517960853,0.40913955188761864,1.4190097055476631,10.016032091771054,-1.0,-5.2302359078083605,3.076545954849913e-12
1669909457538126314,0.40913955188761864,1.4190097055476631,10.016032091771054,-1.0,-5.528388743825019,3.076545954849913e-12
1669909457554139758,0.40913955188761864,1.4190097055476631,10.016032091771054,-1.0,-5.525489528390431,3.076545954849913e-12
1669909457577084474,0.40913955188761864,1.4190097055476631,10.016032091771054,-1.0,-5.525489528390431,3.076545954849913e-12
1669909457693242572,0.40913955188761864,1.4190097055476631,10.016032091771054,-1.0,-5.519919595848904,3.076545954849913e-12
1669909457743354791,0.40913955188761864,1.4190097055476631,10.016032091771054,-1.0,-5.517076975714851,3.076545954849913e-12
1669909457743398129,0.40913955188761864,1.4190097055476631,10.016032091771054,-1.0,-5.514058976571245,3.076545954849913e-12
1669909457743541040,0.44020679268763396,1.5607685255485748,10.03433861227947,-1.0,-5.514058976571282,3.0703645638400726e-12
1669909457743585192,0.44020679268763396,1.5607685255485748,10.03433861227947,-1.0,-5.317239806306899,3.0703645638400726e-12
1669909457743625881,0.44020679268763396,1.5607685255485748,10.03433861227947,-1.0,-5.317239806306899,3.0703645638400726e-12
1669909457743711617,0.44020679268763396,1.5607685255485748,10.03433861227947,-1.0,-5.4817632873697955,3.0703645638400726e-12
1669909457754662407,0.44020679268763396,1.5607685255485748,10.03433861227947,-1.0,-5.4817632873697955,3.0703645638400726e-12
1669909457754814378,0.44020679268763396,1.5607685255485748,10.03433861227947,-1.0,-5.476462459641511,3.0703645638400726e-12
1669909457772469565,0.44020679268763396,1.8393864514905192,10.03433861227947,-1.0,-5.473518048323752,3.0703645638400726e-12
1669909457800705505,0.44020679268763396,1.8393864514905192,10.03433861227947,-1.0,-5.473518048323752,3.0703645638400726e-12
1669909457820742868,0.447394973224602,10.776285454471038,10.062539880533082,-1.0,-5.68547286019714,3.0815354273083937e-12
1669909457840376097,0.447394973224602,10.776285454471038,10.062539880533082,-1.0,-5.68547286019714,3.0815354273083937e-12
1669909457855999430,0.447394973224602,10.776285454471038,10.062539880533082,-1.0,-5.485923154822616,3.0815354273083937e-12
1669909457875468587,0.447394973224602,12.939565703113006,10.062539880533082,-1.0,-5.483126945182036,3.0815354273083937e-12
1669909457896497874,0.447394973224602,12.939565703113006,10.062539880533082,-1.0,-5.483126945182036,3.0815354273083937e-12
1669909457919097839,0.447394973224602,13.771596476275848,10.062539880533082,-1.0,-5.4775169037451645,3.0815354273083937e-12
1669909457934343616,0.447394973224602,13.771596476275848,10.062539880533082,-1.0,-5.4775169037451645,3.0815354273083937e-12
1669909457958896887,0.43645414413095596,13.702377397225586,10.093184357548944,-1.0,-5.999999999991575,3.1069700506210516e-12
1669909457974486589,0.43645414413095596,14.86786397139856,10.093184357548944,-1.0,-5.5271203519272385,3.1069700506210516e-12
1669909457997215093,0.43645414413095596,14.86786397139856,10.093184357548944,-1.0,-5.5271203519272385,3.1069700506210516e-12
1669909458018905388,0.43645414413095596,15.699894744561401,10.093184357548944,-1.0,-5.522180534642075,3.1069700506210516e-12
1669909458042973135,0.43645414413095596,15.699894744561401,10.093184357548944,-1.0,-5.522180534642075,3.1069700506210516e-12
1669909458058064719,0.43645414413095596,15.699894744561401,10.093184357548944,-1.0,-5.517521604507156,3.1069700506210516e-12
1669909458075181219,0.41213690855523866,16.412854428694605,10.155114101262471,-0.8829767789837012,-5.999999999991581,3.1403511106703006e-12
1669909458096953472,0.41213690855523866,16.412854428694605,10.155114101262471,-1.0,-5.5951189278908995,3.1403511106703006e-12
1669909458108208070,0.3662472110256322,17.527040884672694,10.156978467239655,-1.0,-5.595118927890902,3.1730149996030075e-12
1669909458362970508,0.34621280162750645,17.50435280520357,10.157654369769054,-0.8766434849261759,-5.999999999991585,3.1864386045451918e-12
1669909458380431741,0.34621280162750645,17.50435280520357,10.157654369769054,-0.8766434849261759,-5.999999999991585,3.1864386045451918e-12
1669909458380433590,0.34621280162750645,18.003571507519855,10.157654369769054,-1.0,-5.7117153276392765,3.1864386045451918e-12
1669909458380435450,0.34621280162750645,18.003571507519855,10.157654369769054,-1.0,-5.7117153276392765,3.1864386045451918e-12
1669909458380437240,0.34621280162750645,18.003571507519855,10.157654369769054,-1.0,-5.709739075403925,3.1864386045451918e-12
1669909458380439530,0.34621280162750645,18.003571507519855,10.157654369769054,-1.0,-5.709739075403925,3.1864386045451918e-12
1669909458380444449,0.32935872347564443,17.936064444529496,10.197864700090875,-1.0,-5.81571497004653,3.1908839938598497e-12
1669909458380464982,0.32935872347564443,17.936064444529496,10.197864700090875,-1.0,-5.81571497004653,3.1908839938598497e-12
1669909458380469970,0.32935872347564443,17.936064444529496,10.197864700090875,-1.0,-5.718357393224308,3.1908839938598497e-12
1669909458380478569,0.32935872347564443,17.936064444529496,10.197864700090875,-1.0,-5.71737155192456,3.1908839938598497e-12
1669909458380483103,0.32935872347564443,17.936064444529496,10.197864700090875,-1.0,-5.71737155192456,3.1908839938598497e-12
1669909458380485750,0.32935872347564443,17.936064444529496,10.197864700090875,-1.0,-5.715550938628711,3.1908839938598497e-12
1669909458383923048,0.27861476510235283,17.772514282354766,10.219052299614978,-0.768260386250087,-5.999999999991601,3.2251141555286795e-12
1669909458401271352,0.27861476510235283,17.772514282354766,10.219052299614978,-0.768260386250087,-5.999999999991601,3.2251141555286795e-12
1669909458421031475,0.23816039414730167,17.7605520378174,10.21920274725834,-1.0,-5.999999999991625,3.24090804066423e-12
1669909458436380944,14.830281041577722,18.259770740133686,10.21920274725834,-1.0,-5.999999999991625,-1.8652848154274002
1669909458456331007,14.830281041577722,18.259770740133686,10.21920274725834,-1.0,-5.902074081405951,-1.8652848154274002
1669909458478654720,15.32949855180111,18.259770740133686,10.21920274725834,-1.0,-5.902342052843398,-1.965128704902269
1669909458505133291,15.32949855180111,18.259770740133686,10.21920274725834,-1.0,-5.902609925553624,-1.965128704902269
