%time,field.force.x,field.force.y,field.force.z,field.torque.x,field.torque.y,field.torque.z
1669909988916119917,-0.6405025589611029,5.662327203584611,9.142733846070836,-1.0,-5.913516255715347,11.748518049723025
1669909988958601418,0.3413665751595402,9.557606670690475,9.083527732851575,-0.9480998623255739,-5.357951881074589,5.1541055738986685
1669909988958779792,0.3413665751595402,9.557606670690475,9.083527732851575,-0.9480998623255739,-5.357951881074589,5.1541055738986685
1669909988958831401,0.3413665751595402,9.557606670690475,9.083527732851575,-1.0,-5.851696198520542,5.1541055738986685
1669909988958939678,0.3413665751595402,9.557606670690475,9.083527732851575,-1.0,-5.850715841869663,5.1541055738986685
1669909988959037157,0.3413665751595402,9.557606670690475,9.083527732851575,-1.0,-5.850715841869663,5.1541055738986685
1669909988959171721,0.3413665751595402,9.557606670690475,9.083527732851575,-1.0,-5.848720024914619,5.1541055738986685
1669909988959223569,0.2838068001531998,9.393658413860326,9.095438651781684,-1.0,-5.848720024914696,5.154105573898658
1669909988959260291,0.2838068001531998,9.393658413860326,9.095438651781684,-1.0,-5.627096641087234,5.154105573898658
1669909988959366166,0.2838068001531998,9.393658413860326,9.095438651781684,-1.0,-5.627096641087234,5.154105573898658
1669909988959812393,0.2838068001531998,9.393658413860326,9.095438651781684,-1.0,-5.821769354909438,5.154105573898658
1669909988960179561,0.2838068001531998,9.393658413860326,9.095438651781684,-1.0,-5.821769354909438,5.154105573898658
1669909988960238603,0.2838068001531998,9.393658413860326,9.095438651781684,-1.0,-5.819663872562466,5.154105573898658
1669909988968778084,0.2838068001531998,9.393658413860326,9.095438651781684,-1.0,-5.819663872562466,5.154105573898658
1669909988968850611,0.3265019036009428,9.301711514484095,9.09807138738571,-1.0,-5.426742986763844,5.154105573898644
1669909988981688579,0.3265019036009428,9.301711514484095,9.09807138738571,-1.0,-5.7739449066266975,5.154105573898644
1669909989005685730,0.3265019036009428,9.301711514484095,9.09807138738571,-1.0,-5.771947809118965,5.154105573898644
1669909989025298869,0.3265019036009428,9.301711514484095,9.09807138738571,-1.0,-5.771947809118965,5.154105573898644
1669909989045745937,0.3597519344793822,9.253592416427317,9.100044634014903,-0.9886858427492822,-5.0712374387292005,5.154105573898624
1669909989062054526,-0.5799291065750454,5.954060181758587,8.985820080906688,-0.9886858427492822,-5.0712374387292005,10.670110881334613
1669909989084705069,-0.5799291065750454,5.954060181758587,8.985820080906688,-1.0,-5.704634499387292,10.670110881334613
1669909989100912669,-0.5799291065750454,5.954060181758587,8.985820080906688,-1.0,-5.704634499387292,10.670110881334613
1669909989142890656,-0.5799291065750454,5.954060181758587,8.985820080906688,-1.0,-5.701229612917731,10.670110881334613
1669909989157567926,-0.5799291065750454,5.954060181758587,8.985820080906688,-1.0,-5.699451683241251,10.670110881334613
1669909989157606779,-0.36238139186480983,7.132553085467999,8.173980828196346,-1.0,-5.69768628841403,11.480605602270435
1669909989178755488,-0.36238139186480983,7.132553085467999,8.173980828196346,-1.0,-5.69768628841403,11.480605602270435
1669909989195867389,-0.5064513781890361,6.9655435395225895,8.174222913645247,-1.0,-5.591949570701181,11.480605602270433
1669909989430029260,-0.5064513781890361,6.9655435395225895,8.174222913645247,-1.0,-5.681333511665796,11.480605602270433
1669909989474690768,-0.5064513781890361,6.9655435395225895,8.174222913645247,-1.0,-5.681333511665796,11.480605602270433
1669909989474799040,-0.15508274229616809,7.097100229261817,8.620189336203078,-1.0,-5.6776810409853145,8.942120075231859
1669909989474891109,-0.15508274229616809,7.097100229261817,8.620189336203078,-1.0,-5.675726849970412,8.942120075231859
1669909989474954525,-0.15508274229616809,7.097100229261817,8.620189336203078,-1.0,-5.673813897664631,8.942120075231859
1669909989475089052,-0.15508274229616809,7.097100229261817,8.620189336203078,-1.0,-5.673813897664631,8.942120075231859
1669909989475179780,-0.18010359371575962,6.882667232559984,8.611328012075823,-1.0,-5.227489109009602,8.942120075231854
1669909989475265168,-0.18010359371575962,6.882667232559984,8.611328012075823,-1.0,-5.621594684028076,8.942120075231854
1669909989475586913,-0.18010359371575962,6.882667232559984,8.611328012075823,-1.0,-5.619295800629743,8.942120075231854
1669909989475690023,-0.18010359371575962,6.882667232559984,8.611328012075823,-1.0,-5.619295800629743,8.942120075231854
1669909989475744078,-0.18010359371575962,6.882667232559984,8.611328012075823,-1.0,-5.615219792708912,8.942120075231854
1669909989475784852,-0.18010359371575962,6.882667232559984,8.611328012075823,-1.0,-5.615219792708912,8.942120075231854
1669909989488472615,-0.18010359371575962,6.882667232559984,8.611328012075823,-1.0,-5.610929361187638,8.942120075231854
1669909989488537176,-0.18010359371575962,6.882667232559984,8.611328012075823,-1.0,-5.607779698529793,8.942120075231854
1669909989502640308,-0.18010359371575962,6.882667232559984,8.611328012075823,-1.0,-5.607779698529793,8.942120075231854
1669909989524593205,-0.18010359371575962,6.882667232559984,8.611328012075823,-1.0,-5.604372778099406,8.942120075231854
1669909989540695598,-0.18010359371575962,6.882667232559984,8.611328012075823,-1.0,-5.604372778099406,8.942120075231854
1669909989556853305,-0.18590264061536052,6.729695539279961,8.612219510166415,-1.0,-5.523045719237217,8.942120075231868
1669909989591916061,-0.18590264061536052,6.729695539279961,8.612219510166415,-1.0,-5.590426679535856,8.942120075231868
1669909989614627238,-0.32630018929089755,6.25823352794268,8.406782565204868,-1.0,-5.590426679535856,9.38296705484994
1669909989630940104,-0.32630018929089755,6.25823352794268,8.406782565204868,-1.0,-5.586058589597853,9.38296705484994
1669909989646049905,-0.32630018929089755,6.25823352794268,8.406782565204868,-1.0,-5.5837289096095395,9.38296705484994
1669909989663573512,-0.32630018929089755,6.25823352794268,8.406782565204868,-1.0,-5.5837289096095395,9.38296705484994
1669909989678986633,-0.32630018929089755,6.25823352794268,8.406782565204868,-1.0,-5.579324873672375,9.38296705484994
1669909989709621832,0.07271960338507437,7.572663764759087,8.048539278595218,-1.0,-5.576886760347715,8.527903854852992
1669909989952830399,0.07271960338507437,7.572663764759087,8.048539278595218,-1.0,-5.576886760347715,8.527903854852992
1669909990043519942,0.06660596216405777,7.4506745615547905,8.059132219024455,-1.0,-5.683323192176183,8.52790385485301
1669909990043586462,0.06660596216405777,7.4506745615547905,8.059132219024455,-1.0,-5.683323192176183,8.52790385485301
1669909990043628566,0.06660596216405777,7.4506745615547905,8.059132219024455,-1.0,-5.579084273249532,8.52790385485301
1669909990043667987,0.06660596216405777,7.4506745615547905,8.059132219024455,-1.0,-5.579084273249532,8.52790385485301
1669909990043706955,0.06660596216405777,7.4506745615547905,8.059132219024455,-1.0,-5.575810772167579,8.52790385485301
1669909990043745798,0.06660596216405777,7.4506745615547905,8.059132219024455,-1.0,-5.573673499570979,8.52790385485301
1669909990043782996,0.06660596216405777,7.4506745615547905,8.059132219024455,-1.0,-5.571554346861829,8.52790385485301
1669909990043820609,0.13418090419487205,7.155693342063376,8.04930211743358,-1.0,-5.571554346861672,8.52790385485304
1669909990043857024,0.13418090419487205,7.155693342063376,8.04930211743358,-1.0,-5.95542975257118,8.52790385485304
1669909990043893090,0.13418090419487205,7.155693342063376,8.04930211743358,-1.0,-5.6072077320490035,8.52790385485304
1669909990043928250,0.13418090419487205,7.155693342063376,8.04930211743358,-1.0,-5.6072077320490035,8.52790385485304
1669909990043976416,0.13418090419487205,7.155693342063376,8.04930211743358,-1.0,-5.603542652916277,8.52790385485304
1669909990082108196,0.13418090419487205,7.155693342063376,8.04930211743358,-1.0,-5.601698704394427,8.52790385485304
1669909990082165696,0.135451960653504,7.052888928889827,8.058994175877569,-1.0,-5.999999999979487,8.527903854853072
1669909990082206252,0.135451960653504,7.052888928889827,8.058994175877569,-1.0,-5.999999999979487,8.527903854853072
1669909990082244178,0.135451960653504,7.052888928889827,8.058994175877569,-1.0,-5.649945033384013,8.527903854853072
1669909990082282050,0.02823503249927388,5.8809295883174695,7.73436939903736,-1.0,-5.648409065293592,5.579848140484252
1669909990102612323,0.006560714626099959,5.891664284940204,7.734157998281691,-1.0,-5.64840906529348,5.579848140484274
1669909990120297880,0.006560714626099959,5.891664284940204,7.734157998281691,-1.0,-5.909312870341727,5.579848140484274
1669909990138894922,0.006560714626099959,5.891664284940204,7.734157998281691,-1.0,-5.909312870341727,5.579848140484274
1669909990138945967,0.006560714626099959,5.891664284940204,7.734157998281691,-1.0,-5.68333948071303,5.579848140484274
1669909990160291587,0.006560714626099959,5.891664284940204,7.734157998281691,-1.0,-5.681927463966831,5.579848140484274
1669909990177986226,0.006560714626099959,5.891664284940204,7.734157998281691,-1.0,-5.681927463966831,5.579848140484274
1669909990200021727,0.6228299566445612,7.082806784387073,7.271869737821791,-1.0,-5.679667975058265,1.8013012781800635
1669909990222108369,0.6228299566445612,7.082806784387073,7.271869737821791,-1.0,-5.678392138623671,1.8013012781800635
1669909990258455583,0.6228299566445612,7.082806784387073,7.271869737821791,-1.0,-5.678392138623671,1.8013012781800635
1669909990536886663,0.6484516707829706,7.005389900685585,7.261538477813352,-1.0,-5.999999999979239,1.8013012781800888
1669909990536931921,0.6484516707829706,7.005389900685585,7.261538477813352,-1.0,-5.999999999979239,1.8013012781800888
1669909990536969327,0.6484516707829706,7.005389900685585,7.261538477813352,-1.0,-5.719470030341023,1.8013012781800888
1669909990537006150,0.6484516707829706,7.005389900685585,7.261538477813352,-1.0,-5.71853908582785,1.8013012781800888
1669909990537042136,0.6484516707829706,7.005389900685585,7.261538477813352,-1.0,-5.71853908582785,1.8013012781800888
1669909990537078387,0.6484516707829706,7.005389900685585,7.261538477813352,-1.0,-5.716685339628954,1.8013012781800888
1669909990537115040,0.6678170067949434,6.967561618894635,7.24071956023671,-1.0,-5.716685339628778,1.8013012781801183
1669909990537151203,0.6678170067949434,6.967561618894635,7.24071956023671,-1.0,-5.999999999979062,1.8013012781801183
1669909990537187823,0.6678170067949434,6.967561618894635,7.24071956023671,-1.0,-5.771246544080997,1.8013012781801183
1669909990537239833,0.6678170067949434,6.967561618894635,7.24071956023671,-1.0,-5.770674265764136,1.8013012781801183
1669909990537283819,0.6678170067949434,6.967561618894635,7.24071956023671,-1.0,-5.770674265764136,1.8013012781801183
1669909990537321989,0.6678170067949434,6.967561618894635,7.24071956023671,-1.0,-5.769555108719813,1.8013012781801183
1669909990569645070,0.6678170067949434,6.967561618894635,7.24071956023671,-1.0,-5.769555108719813,1.8013012781801183
1669909990569692264,0.6678170067949434,6.967561618894635,7.24071956023671,-1.0,-5.768478862239861,1.8013012781801183
1669909990569738391,0.6753427323726694,6.884020620796887,7.220014798861985,-1.0,-5.768478862239736,1.8013012781801432
1669909990606034484,0.7837011826066057,6.851896101448743,7.26718978903914,-1.0,-5.999999999978937,1.5382769331398218
1669909990606095334,0.7837011826066057,6.851896101448743,7.26718978903914,-1.0,-5.808895184974116,1.5382769331398218
1669909990606138068,0.7837011826066057,6.851896101448743,7.26718978903914,-1.0,-5.808895184974116,1.5382769331398218
1669909990619191650,0.7837011826066057,6.851896101448743,7.26718978903914,-1.0,-5.808343757864981,1.5382769331398218
1669909990638358734,0.7837011826066057,6.851896101448743,7.26718978903914,-1.0,-5.808343757864981,1.5382769331398218
1669909990654789433,0.7837011826066057,6.851896101448743,7.26718978903914,-1.0,-5.807805258192424,1.5382769331398218
1669909990676241448,0.7837011826066057,6.851896101448743,7.26718978903914,-1.0,-5.807529643022426,1.5382769331398218
1669909990710151079,1.6193168771294633,8.74302869460365,6.691298949939256,-1.0,-5.807233046746548,0.5446804873707504
1669909990728053237,1.6204942614873488,8.744978525517785,6.67123025335572,-1.0,-5.999999999978816,0.5446804873707797
1669909990749788710,1.6204942614873488,8.744978525517785,6.67123025335572,-1.0,-5.999999999978816,0.5446804873707797
1669909990766655445,1.6204942614873488,8.744978525517785,6.67123025335572,-1.0,-5.8603427699984145,0.5446804873707797
1669909991000141904,1.6204942614873488,8.744978525517785,6.67123025335572,-1.0,-5.860423534619129,0.5446804873707797
1669909991060007194,1.6204942614873488,8.744978525517785,6.67123025335572,-1.0,-5.860539149455383,0.5446804873707797
1669909991060044156,1.6204942614873488,8.744978525517785,6.67123025335572,-1.0,-5.860539149455383,0.5446804873707797
1669909991060078285,1.6204942614873488,8.744978525517785,6.67123025335572,-1.0,-5.86066540488941,0.5446804873707797
1669909991060112511,1.6058746733779765,8.76073964670879,6.642327049712353,-1.0,-5.860665404889273,0.544680487370812
1669909991060146605,1.6058746733779765,8.76073964670879,6.642327049712353,-1.0,-5.999999999978679,0.544680487370812
1669909991060180614,1.6058746733779765,8.76073964670879,6.642327049712353,-1.0,-5.9074919083936015,0.544680487370812
1669909991060214516,1.6058746733779765,8.76073964670879,6.642327049712353,-1.0,-5.9074919083936015,0.544680487370812
1669909991060248223,1.6058746733779765,8.76073964670879,6.642327049712353,-1.0,-5.9074919083936015,0.544680487370812
1669909991060283176,1.6058746733779765,8.76073964670879,6.642327049712353,-1.0,-5.908081209748232,0.544680487370812
1669909991093436052,1.6053654923960317,8.743423524733771,6.623507330806705,-1.0,-5.999999999978618,0.5446804873708251
1669909991109360857,1.6053654923960317,8.743423524733771,6.623507330806705,-1.0,-5.930234951288441,0.5446804873708251
1669909991109400190,1.6053654923960317,8.743423524733771,6.623507330806705,-1.0,-5.930234951288441,0.5446804873708251
1669909991109438160,1.2404200360104192,7.351472082968939,6.832671652229282,-1.0,-5.9310678804692625,-1.1498785391386983
1669909991126794170,1.2404200360104192,7.351472082968939,6.832671652229282,-1.0,-5.9310678804692625,-1.1498785391386983
1669909991165350982,1.2404200360104192,7.351472082968939,6.832671652229282,-1.0,-5.9310678804692625,-1.1498785391386983
1669909991187040774,1.2404200360104192,7.351472082968939,6.832671652229282,-1.0,-5.932068751532278,-1.1498785391386983
1669909991187080809,1.2404200360104192,7.351472082968939,6.832671652229282,-1.0,-5.932068751532278,-1.1498785391386983
1669909991187118773,1.2404200360104192,7.351472082968939,6.832671652229282,-1.0,-5.9329285678010475,-1.1498785391386983
1669909991199481212,1.2404200360104192,7.351472082968939,6.832671652229282,-1.0,-5.933436515909075,-1.1498785391386983
1669909991217623298,1.2404200360104192,7.351472082968939,6.832671652229282,-1.0,-5.933944201909645,-1.1498785391386983
1669909991239294480,2.4913352259673336,9.687329857609255,6.749105803767976,-0.8686316960943264,-5.999999999978544,0.9264940023485265
1669909991260096608,2.4913352259673336,9.687329857609255,6.749105803767976,-0.8686316960943264,-5.999999999978544,0.9264940023485265
1669909991278234578,2.4913352259673336,9.687329857609255,6.749105803767976,-1.0,-5.945050487462052,0.9264940023485265
1669909991294616374,2.4913352259673336,9.687329857609255,6.749105803767976,-1.0,-5.945050487462052,0.9264940023485265
1669909991529363565,2.4913352259673336,9.687329857609255,6.749105803767976,-1.0,-5.946152493129672,0.9264940023485265
1669909991612121814,2.4913352259673336,9.687329857609255,6.749105803767976,-1.0,-5.946751426266382,0.9264940023485265
1669909991612169622,2.4913352259673336,9.687329857609255,6.749105803767976,-1.0,-5.946751426266382,0.9264940023485265
1669909991612207074,2.4913352259673336,9.687329857609255,6.749105803767976,-1.0,-5.9478762351212815,0.9264940023485265
1669909991612244342,2.4913352259673336,9.687329857609255,6.749105803767976,-1.0,-5.9478762351212815,0.9264940023485265
1669909991612281237,2.5758206124405683,9.669435944824526,6.721556205566959,-0.9184269049737365,-5.523660397262919,0.9264940023485091
1669909991612318002,2.5758206124405683,9.669435944824526,6.721556205566959,-1.0,-5.9037438302588345,0.9264940023485091
1669909991612354254,2.5758206124405683,9.669435944824526,6.721556205566959,-1.0,-5.9040163009060525,0.9264940023485091
1669909991612390999,2.5758206124405683,9.669435944824526,6.721556205566959,-1.0,-5.9040163009060525,0.9264940023485091
1669909991612427803,2.5758206124405683,9.669435944824526,6.721556205566959,-1.0,-5.904580095959246,0.9264940023485091
1669909991612463493,2.5758206124405683,9.669435944824526,6.721556205566959,-1.0,-5.904580095959246,0.9264940023485091
1669909991612499397,2.5758206124405683,9.669435944824526,6.721556205566959,-1.0,-5.905124628554171,0.9264940023485091
1669909991646008577,2.632669449250319,9.630467628160993,6.692960332446536,-1.0,-5.9051246285541605,0.926494002348472
1669909991646085343,2.632669449250319,9.630467628160993,6.692960332446536,-0.9463496416167541,-5.057412173231223,0.926494002348472
1669909991646127748,2.632669449250319,9.630467628160993,6.692960332446536,-1.0,-5.818285360588812,0.926494002348472
1669909991646167134,2.632669449250319,9.630467628160993,6.692960332446536,-1.0,-5.818285360588812,0.926494002348472
1669909991646207419,1.9182030264540695,8.28195485941557,6.446205745749912,-1.0,-5.817688916655931,-0.47830358146996366
1669909991665203929,1.9182030264540695,8.28195485941557,6.446205745749912,-1.0,-5.817688916655931,-0.47830358146996366
1669909991679040409,1.9787706351487775,8.28377503204546,6.4261595172373145,-1.0,-4.94663193143231,-0.4783035814700076
1669909991692083158,1.9787706351487775,8.28377503204546,6.4261595172373145,-1.0,-5.722145603589162,-0.4783035814700076
1669909991721047054,1.9787706351487775,8.28377503204546,6.4261595172373145,-1.0,-5.721222636078489,-0.4783035814700076
1669909991733928238,1.9787706351487775,8.28377503204546,6.4261595172373145,-1.0,-5.720288734228065,-0.4783035814700076
1669909991753300599,1.9787706351487775,8.28377503204546,6.4261595172373145,-1.0,-5.720288734228065,-0.4783035814700076
1669909991781347087,1.9885593555824186,8.28343320483555,6.405522003517177,-1.0,-5.03328268313888,-0.47830358147004043
1669909991790067066,2.1898202501193906,9.125464445298807,6.368334963665035,-1.0,-5.643055460184063,0.5256683752002438
1669909991831628996,2.1898202501193906,9.125464445298807,6.368334963665035,-1.0,-5.643055460184063,0.5256683752002438
1669909992064564027,2.2321951500195376,9.141029474908311,6.367321061988809,-1.0,-4.934944575323578,0.5256683752002087
1669909992064648566,2.2321951500195376,9.141029474908311,6.367321061988809,-1.0,-4.934944575323578,0.5256683752002087
1669909992064694081,2.2534269275703886,9.14902476508332,6.366729169282402,-1.0,-5.191453360267323,0.5256683752001936
1669909992064735042,2.2534269275703886,9.14902476508332,6.366729169282402,-1.0,-5.191453360267323,0.5256683752001936
1669909992064774283,2.2534269275703886,9.14902476508332,6.366729169282402,-1.0,-5.513784041742206,0.5256683752001936
1669909992064856333,2.2534269275703886,9.14902476508332,6.366729169282402,-1.0,-5.513784041742206,0.5256683752001936
1669909992064895860,2.2534269275703886,9.14902476508332,6.366729169282402,-1.0,-5.509403000940688,0.5256683752001936
1669909992064934016,2.2534269275703886,9.14902476508332,6.366729169282402,-1.0,-5.507205873475298,0.5256683752001936
1669909992064972076,2.2534269275703886,9.14902476508332,6.366729169282402,-1.0,-5.507205873475298,0.5256683752001936
1669909992065010796,2.286235317954555,9.137728245702622,6.346031779462899,-1.0,-5.1187450975015825,0.5256683752001825
1669909992065046214,2.286235317954555,9.137728245702622,6.346031779462899,-1.0,-5.1187450975015825,0.5256683752001825
1669909992065082812,2.286235317954555,9.137728245702622,6.346031779462899,-1.0,-5.45549850503455,0.5256683752001825
1669909992078614838,2.286235317954555,9.137728245702622,6.346031779462899,-1.0,-5.452950355380388,0.5256683752001825
1669909992100879514,2.286235317954555,9.137728245702622,6.346031779462899,-1.0,-5.452950355380388,0.5256683752001825
1669909992116477320,2.286235317954555,9.137728245702622,6.346031779462899,-1.0,-5.448097867195231,0.5256683752001825
1669909992132861571,2.3633338869116787,9.170071005326141,6.3448228144716365,-1.0,-4.2708530204766095,0.5256683752001627
1669909992156739947,2.022469228555966,8.998702883225311,6.35167764664403,-1.0,-4.2708530204766095,1.3192504271925791
1669909992171274454,2.022469228555966,8.998702883225311,6.35167764664403,-1.0,-5.371262007004608,1.3192504271925791
1669909992195523547,2.0409698008263812,9.00491760183312,6.351014777470285,-1.0,-4.768652794535854,1.3192504271925747
1669909992219525832,2.0409698008263812,9.00491760183312,6.351014777470285,-1.0,-5.330993769611067,1.3192504271925747
1669909992245525338,2.0409698008263812,9.00491760183312,6.351014777470285,-1.0,-5.32735279491318,1.3192504271925747
1669909992266477896,2.0409698008263812,9.00491760183312,6.351014777470285,-1.0,-5.323693658982743,1.3192504271925747
1669909992278637260,2.0409698008263812,9.00491760183312,6.351014777470285,-1.0,-5.323693658982743,1.3192504271925747
1669909992294483584,2.109002989407848,9.992665509471669,5.8829484427458585,-1.0,-5.318390976891499,2.3042529076398672
1669909992311886977,2.109002989407848,9.992665509471669,5.8829484427458585,-1.0,-5.318390976891499,2.3042529076398672
1669909992333982510,2.1554388109712797,10.046073200971207,5.8926679171999545,-1.0,-5.201079984238988,2.3042529076398726
1669909992444894171,2.1554388109712797,10.046073200971207,5.8926679171999545,-1.0,-5.296936617560815,2.3042529076398726
1669909992485692705,2.150478719864471,10.047869087224926,5.892742340374017,-1.0,-5.296936617560857,2.304252907639885
1669909992485779059,2.171070038471801,10.272157193189587,5.837847356605554,-1.0,-5.375565141295605,2.4114165455163956
1669909992485820260,2.171070038471801,10.272157193189587,5.837847356605554,-1.0,-5.296441081585123,2.4114165455163956
1669909992485868009,2.171070038471801,10.272157193189587,5.837847356605554,-1.0,-5.296441081585123,2.4114165455163956
1669909992485961549,2.171070038471801,10.272157193189587,5.837847356605554,-1.0,-5.290210502263205,2.4114165455163956
1669909992510987418,2.171070038471801,10.272157193189587,5.837847356605554,-1.0,-5.287043111730101,2.4114165455163956
1669909992511724368,2.171070038471801,10.272157193189587,5.837847356605554,-1.0,-5.287043111730101,2.4114165455163956
1669909992559087364,2.171070038471801,10.272157193189587,5.837847356605554,-1.0,-5.280732240976418,2.4114165455163956
1669909992592632797,2.1966360665753397,10.2733963672029,5.848178461048446,-1.0,-5.744459977930243,2.4114165455164174
1669909992592680491,2.1966360665753397,10.2733963672029,5.848178461048446,-1.0,-5.744459977930243,2.4114165455164174
1669909992592764260,2.1966360665753397,10.2733963672029,5.848178461048446,-1.0,-5.298232347006302,2.4114165455164174
1669909992610069396,2.1966360665753397,10.2733963672029,5.848178461048446,-1.0,-5.298232347006302,2.4114165455164174
1669909992624617377,2.1966360665753397,10.2733963672029,5.848178461048446,-1.0,-5.292109015920116,2.4114165455164174
1669909992639824400,1.632179111976913,9.815872305999896,5.944114222977005,-1.0,-5.292109015920116,2.531438916927741
1669909992658630499,1.632179111976913,9.815872305999896,5.944114222977005,-1.0,-5.286095511308906,2.531438916927741
1669909992674403270,1.632179111976913,9.815872305999896,5.944114222977005,-1.0,-5.286095511308906,2.531438916927741
1669909992693700493,1.632179111976913,9.815872305999896,5.944114222977005,-1.0,-5.280340142490508,2.531438916927741
1669909992713731548,1.6391124526325798,9.796386181020384,5.964865574823915,-1.0,-5.280340142490539,2.531438916927774
1669909992739703188,1.8544661203686332,11.200282393598204,5.888881871687471,-1.0,-5.813917527578775,3.111619055277307
1669909992753794857,1.8544661203686332,11.200282393598204,5.888881871687471,-1.0,-5.813917527578775,3.111619055277307
1669909992786492120,1.8544661203686332,11.200282393598204,5.888881871687471,-1.0,-5.330392324018194,3.111619055277307
1669909992819352969,1.8544661203686332,11.200282393598204,5.888881871687471,-1.0,-5.327537424215774,3.111619055277307
1669909992830065101,1.8544661203686332,11.200282393598204,5.888881871687471,-1.0,-5.327537424215774,3.111619055277307
1669909992858403235,1.8544661203686332,11.200282393598204,5.888881871687471,-1.0,-5.322906008909942,3.111619055277307
1669909992872709581,1.8544661203686332,11.200282393598204,5.888881871687471,-1.0,-5.320176455160358,3.111619055277307
1669909993124503106,1.8544661203686332,11.200282393598204,5.888881871687471,-1.0,-5.320176455160358,3.111619055277307
1669909993124671547,2.0141995126156007,11.208590930944942,5.903262647305769,-1.0,-5.999999999978889,2.137044668203868
1669909993124762764,2.0141995126156007,11.208590930944942,5.903262647305769,-1.0,-5.484883824292358,2.137044668203868
1669909993124810324,2.0141995126156007,11.208590930944942,5.903262647305769,-1.0,-5.484883824292358,2.137044668203868
1669909993124852982,2.0141995126156007,11.208590930944942,5.903262647305769,-1.0,-5.481888477495644,2.137044668203868
1669909993124896847,2.0141995126156007,11.208590930944942,5.903262647305769,-1.0,-5.481888477495644,2.137044668203868
1669909993124939352,2.0141995126156007,11.208590930944942,5.903262647305769,-1.0,-5.47908475746581,2.137044668203868
1669909993124981203,2.0141995126156007,11.208590930944942,5.903262647305769,-1.0,-5.477548193250935,2.137044668203868
1669909993125021923,1.9106675139533322,11.207801222580194,5.8933233634081414,-1.0,-5.999999999978908,2.1370446682039455
1669909993125062220,1.9106675139533322,11.207801222580194,5.8933233634081414,-1.0,-5.667132589667739,2.1370446682039455
1669909993125103345,1.9106675139533322,11.207801222580194,5.8933233634081414,-1.0,-5.667132589667739,2.1370446682039455
1669909993140930292,1.9106675139533322,11.207801222580194,5.8933233634081414,-1.0,-5.666772265397434,2.1370446682039455
1669909993141040295,1.9106675139533322,11.207801222580194,5.8933233634081414,-1.0,-5.666574535203007,2.1370446682039455
1669909993141088525,1.9106675139533322,11.207801222580194,5.8933233634081414,-1.0,-5.666574535203007,2.1370446682039455
1669909993153133621,1.8545934397456827,11.155072872954328,5.872589072060919,-1.0,-5.99999999997891,2.1370446682039903
1669909993181066207,1.8545934397456827,11.155072872954328,5.872589072060919,-1.0,-5.99999999997891,2.1370446682039903
1669909993197190506,1.8545934397456827,11.155072872954328,5.872589072060919,-1.0,-5.790302390130519,2.1370446682039903
1669909993220579117,1.8545934397456827,11.155072872954328,5.872589072060919,-1.0,-5.791041055982175,2.1370446682039903
1669909993233499269,0.31477798034526716,10.08430880816551,5.901264866662359,-1.0,-5.791041055982175,3.1060624122683214
1669909993253035081,0.31477798034526716,10.08430880816551,5.901264866662359,-1.0,-5.792117730442305,3.1060624122683214
1669909993275037478,0.31477798034526716,10.08430880816551,5.901264866662359,-1.0,-5.792117730442305,3.1060624122683214
1669909993296849164,0.31477798034526716,10.08430880816551,5.901264866662359,-1.0,-5.793355204100073,3.1060624122683214
1669909993322059888,0.22635044086889244,10.049694009585824,5.889585536929379,-1.0,-5.999999999978909,3.1060624122683724
1669909993335966708,1.5851205915601632,12.661500402255502,5.799967569323788,-1.0,-5.940635981636785,2.602975890046807
1669909993358843152,1.5851205915601632,12.661500402255502,5.799967569323788,-1.0,-5.940635981636785,2.602975890046807
1669909993370540044,1.5851205915601632,12.661500402255502,5.799967569323788,-1.0,-5.943594514550155,2.602975890046807
1669909993489081125,1.5851205915601632,12.661500402255502,5.799967569323788,-1.0,-5.943594514550155,2.602975890046807
1669909993522535615,1.5851205915601632,12.661500402255502,5.799967569323788,-1.0,-5.946848390626068,2.602975890046807
1669909993522577442,1.5851205915601632,12.661500402255502,5.799967569323788,-1.0,-5.946848390626068,2.602975890046807
1669909993522615494,1.5851205915601632,12.661500402255502,5.799967569323788,-1.0,-5.9499216667469135,2.602975890046807
1669909993522654130,1.5072669735934594,12.678079352989375,5.766690070797045,-1.0,-5.949921666746911,2.602975890046868
1669909993522691934,1.5072669735934594,12.678079352989375,5.766690070797045,-1.0,-5.999999999978907,2.602975890046868
1669909993538260660,1.5072669735934594,12.678079352989375,5.766690070797045,-1.0,-5.999999999978907,2.602975890046868
1669909993538753437,1.5072669735934594,12.678079352989375,5.766690070797045,-1.0,-5.999999999978907,2.602975890046868
1669909993554898148,1.5072669735934594,12.678079352989375,5.766690070797045,-1.0,-5.999999999978907,2.602975890046868
1669909993598852572,1.5072669735934594,12.678079352989375,5.766690070797045,-1.0,-5.999999999978907,2.602975890046868
1669909993618388058,0.41669986628107836,11.672141299858271,5.730093414951403,-1.0,-5.999999999978907,2.175550684339318
1669909993628200271,0.41669986628107836,11.672141299858271,5.730093414951403,-1.0,-5.999999999978907,2.175550684339318
1669909993645045337,0.41669986628107836,11.672141299858271,5.730093414951403,-1.0,-5.999999999978907,2.175550684339318
1669909993659487169,0.41669986628107836,11.672141299858271,5.730093414951403,-1.0,-5.999999999978907,2.175550684339318
1669909993671949312,0.36524364383854196,11.711432732293883,5.707176816211412,-1.0,-5.9999999999788995,2.1755506843393473
1669909993696925311,0.36524364383854196,11.711432732293883,5.707176816211412,-1.0,-5.9999999999788995,2.1755506843393473
1669909993710743691,0.36524364383854196,11.711432732293883,5.707176816211412,-1.0,-5.9999999999788995,2.1755506843393473
1669909993741097287,0.36524364383854196,11.711432732293883,5.707176816211412,-1.0,-5.9999999999788995,2.1755506843393473
1669909993755734662,0.6409870938766769,12.603524721811095,5.64730305646486,-1.0,-5.9999999999788995,2.046638578182998
1669909993778561233,0.5805231941154487,12.601300144472173,5.603377282690884,-1.0,-5.999999999978877,2.046638578183013
1669909993794755986,1.0705706787517555,13.31037011174207,5.582397341799618,-1.0,-5.999999999978877,2.336577326065856
1669909993818223178,1.0705706787517555,13.31037011174207,5.582397341799618,-1.0,-5.999999999978877,2.336577326065856
1669909993839565453,1.0705706787517555,13.31037011174207,5.582397341799618,-1.0,-5.999999999978877,2.336577326065856
1669909993862638230,1.0705706787517555,13.31037011174207,5.582397341799618,-1.0,-5.999999999978877,2.336577326065856
1669909993872997898,1.0705706787517555,13.31037011174207,5.582397341799618,-1.0,-5.999999999978877,2.336577326065856
1669909993896369940,1.0705706787517555,13.31037011174207,5.582397341799618,-1.0,-5.999999999978877,2.336577326065856
1669909993912568834,1.0705706787517555,13.31037011174207,5.582397341799618,-1.0,-5.999999999978877,2.336577326065856
1669909994153626023,1.0395802784726453,13.298061719014466,5.530023244754481,-1.0,-5.999999999978858,2.33657732606585
1669909994191342419,1.0395802784726453,13.298061719014466,5.530023244754481,-1.0,-5.999999999978858,2.33657732606585
1669909994191440250,1.0395802784726453,13.298061719014466,5.530023244754481,-1.0,-5.999999999978858,2.33657732606585
1669909994191493714,1.0395802784726453,13.298061719014466,5.530023244754481,-1.0,-5.999999999978858,2.33657732606585
1669909994191532635,0.13227282501910448,12.756868233754457,6.098077265159297,-1.0,-5.999999999978858,0.8884285949235675
1669909994191569132,0.13227282501910448,12.756868233754457,6.098077265159297,-1.0,-5.999999999978858,0.8884285949235675
1669909994191604970,0.13227282501910448,12.756868233754457,6.098077265159297,-1.0,-5.999999999978858,0.8884285949235675
1669909994191640059,0.1299421343152899,12.789150550185358,6.055945239649777,-1.0,-5.9999999999788285,0.8884285949235484
1669909994191676014,0.1299421343152899,12.789150550185358,6.055945239649777,-1.0,-5.9999999999788285,0.8884285949235484
1669909994191711405,0.1299421343152899,12.789150550185358,6.055945239649777,-1.0,-5.9999999999788285,0.8884285949235484
1669909994191746600,0.1299421343152899,12.789150550185358,6.055945239649777,-1.0,-5.9999999999788285,0.8884285949235484
1669909994191782259,0.1299421343152899,12.789150550185358,6.055945239649777,-1.0,-5.9999999999788285,0.8884285949235484
1669909994220751906,0.1299421343152899,12.789150550185358,6.055945239649777,-1.0,-5.9999999999788285,0.8884285949235484
1669909994220805544,0.1299421343152899,12.789150550185358,6.055945239649777,-1.0,-5.9999999999788285,0.8884285949235484
1669909994231602307,0.11996397659173547,12.79947137398179,6.004788667026087,-1.0,-5.999999999978799,0.888428594923527
1669909994244518160,0.11996397659173547,12.79947137398179,6.004788667026087,-1.0,-5.999999999978799,0.888428594923527
1669909994263676610,0.11996397659173547,12.79947137398179,6.004788667026087,-1.0,-5.999999999978799,0.888428594923527
1669909994285132378,0.11996397659173547,12.79947137398179,6.004788667026087,-1.0,-5.999999999978799,0.888428594923527
1669909994301413546,0.11996397659173547,12.79947137398179,6.004788667026087,-1.0,-5.999999999978799,0.888428594923527
1669909994323988561,0.11996397659173547,12.79947137398179,6.004788667026087,-1.0,-5.999999999978799,0.888428594923527
1669909994340213943,0.11996397659173547,12.79947137398179,6.004788667026087,-1.0,-5.999999999978799,0.888428594923527
1669909994357760020,0.2900071785613774,13.167428873085116,5.605600611178657,-1.0,-5.539402915414378,0.8828433975641559
1669909994379556385,0.2900071785613774,13.167428873085116,5.605600611178657,-1.0,-5.999999999978739,0.8828433975641559
1669909994396317801,0.33327848985367703,13.185169396352665,5.605511105771073,-1.0,-5.210802169197725,0.8828433975641221
1669909994418238607,0.3596360126982588,13.19283556385319,5.60556312606136,-1.0,-5.210802169197711,0.8828433975641039
1669909994436086806,0.7762528823229629,14.770744556620524,6.064105830643574,-1.0,-5.8268927881413415,-0.9597320482071134
1669909994544140561,0.7762528823229629,14.770744556620524,6.064105830643574,-1.0,-5.8268927881413415,-0.9597320482071134
1669909994599777921,0.7762528823229629,14.770744556620524,6.064105830643574,-1.0,-5.999999999978693,-0.9597320482071134
1669909994599840529,0.7762528823229629,14.770744556620524,6.064105830643574,-1.0,-5.999999999978693,-0.9597320482071134
1669909994600268865,0.7762528823229629,14.770744556620524,6.064105830643574,-1.0,-5.999999999978693,-0.9597320482071134
1669909994637129373,0.7762528823229629,14.770744556620524,6.064105830643574,-1.0,-5.999999999978693,-0.9597320482071134
1669909994637216634,0.7973322165540125,14.786209392485382,6.024135950129198,-1.0,-5.65325305146086,-0.95973204820713
1669909994654676439,0.7973322165540125,14.786209392485382,6.024135950129198,-1.0,-5.65325305146086,-0.95973204820713
1669909994654717029,0.7973322165540125,14.786209392485382,6.024135950129198,-1.0,-5.999999999978681,-0.95973204820713
1669909994654791293,0.8973430362871552,14.470878171858551,5.728425684492754,-1.0,-5.999999999978681,0.2739158459071259
1669909994666496190,0.8973430362871552,14.470878171858551,5.728425684492754,-1.0,-5.999999999978681,0.2739158459071259
1669909994687660226,0.8973430362871552,14.470878171858551,5.728425684492754,-1.0,-5.999999999978681,0.2739158459071259
1669909994687755627,0.8973430362871552,14.470878171858551,5.728425684492754,-1.0,-5.999999999978681,0.2739158459071259
1669909994703967955,0.8973430362871552,14.470878171858551,5.728425684492754,-1.0,-5.999999999978681,0.2739158459071259
1669909994726413679,0.8973430362871552,14.470878171858551,5.728425684492754,-1.0,-5.999999999978681,0.2739158459071259
1669909994742480765,0.9517938350539626,14.532331074372465,5.708595095673998,-1.0,-5.999999999978655,0.27391584590708273
1669909994760316683,0.9517938350539626,14.532331074372465,5.708595095673998,-1.0,-5.131867450273716,0.27391584590708273
1669909994780012074,0.9517938350539626,14.532331074372465,5.708595095673998,-1.0,-5.999999999978655,0.27391584590708273
1669909994792353300,1.1463103895287934,15.298728788987333,5.879592178861102,-1.0,-5.999999999978655,-0.16945868264252886
1669909994815176572,1.1463103895287934,15.298728788987333,5.879592178861102,-1.0,-5.999999999978655,-0.16945868264252886
1669909994837991371,1.1463103895287934,15.298728788987333,5.879592178861102,-1.0,-5.999999999978655,-0.16945868264252886
1669909994850214311,1.1463103895287934,15.298728788987333,5.879592178861102,-1.0,-5.999999999978655,-0.16945868264252886
1669909994870786606,1.1463103895287934,15.298728788987333,5.879592178861102,-1.0,-5.999999999978655,-0.16945868264252886
1669909994898967662,1.1844975572477503,15.342293936132693,5.859850632023198,-1.0,-5.1736488960769735,-0.16945868264256564
1669909994915025889,1.1844975572477503,15.342293936132693,5.859850632023198,-1.0,-5.1736488960769735,-0.16945868264256564
1669909994930676388,1.1844975572477503,15.342293936132693,5.859850632023198,-1.0,-5.999999999978655,-0.16945868264256564
1669909995191114390,1.5461301129709408,15.754576879858279,5.733510242771489,-1.0,-5.999999999978655,0.4345625359627739
1669909995213276855,1.5461301129709408,15.754576879858279,5.733510242771489,-1.0,-5.999999999978655,0.4345625359627739
1669909995213321320,1.5461301129709408,15.754576879858279,5.733510242771489,-1.0,-5.999999999978655,0.4345625359627739
1669909995213362654,1.5461301129709408,15.754576879858279,5.733510242771489,-1.0,-5.999999999978655,0.4345625359627739
1669909995213402399,1.5461301129709408,15.754576879858279,5.733510242771489,-1.0,-5.999999999978655,0.4345625359627739
1669909995213442157,1.6543350255982834,15.872122125783795,5.743129772409531,-1.0,-4.803752339732836,0.43456253596272837
1669909995213482085,1.6543350255982834,15.872122125783795,5.743129772409531,-1.0,-4.803752339732836,0.43456253596272837
1669909995213520298,1.6543350255982834,15.872122125783795,5.743129772409531,-1.0,-5.919298660220479,0.43456253596272837
1669909995213557525,1.6543350255982834,15.872122125783795,5.743129772409531,-1.0,-5.919154275272091,0.43456253596272837
1669909995213594589,1.6543350255982834,15.872122125783795,5.743129772409531,-1.0,-5.919154275272091,0.43456253596272837
1669909995213631910,1.6543350255982834,15.872122125783795,5.743129772409531,-1.0,-5.918884874367113,0.43456253596272837
1669909995213669651,1.6543350255982834,15.872122125783795,5.743129772409531,-1.0,-5.9187409940287745,0.43456253596272837
1669909995226557396,1.6543350255982834,15.872122125783795,5.743129772409531,-1.0,-5.918573443512777,0.43456253596272837
1669909995226602255,1.731611965051101,15.987470147065913,5.742511420983825,-1.0,-5.918573443512819,0.434562535962688
1669909995246912828,1.731611965051101,15.987470147065913,5.742511420983825,-1.0,-5.035529971821921,0.434562535962688
1669909995261983745,1.731611965051101,15.987470147065913,5.742511420983825,-1.0,-5.035529971821921,0.434562535962688
1669909995280393778,1.731611965051101,15.987470147065913,5.742511420983825,-1.0,-5.810293018043121,0.434562535962688
1669909995295847791,0.3805456774441464,14.695438143663203,6.327282160062348,-1.0,-5.810293018043121,0.9154108911814561
1669909995313739573,0.3805456774441464,14.695438143663203,6.327282160062348,-1.0,-5.808585951539132,0.9154108911814561
1669909995332558653,0.3805456774441464,14.695438143663203,6.327282160062348,-1.0,-5.807697278259201,0.9154108911814561
1669909995349474109,0.3805456774441464,14.695438143663203,6.327282160062348,-1.0,-5.807697278259201,0.9154108911814561
1669909995372760656,0.3805456774441464,14.695438143663203,6.327282160062348,-1.0,-5.80608471771123,0.9154108911814561
1669909995391200549,1.7872640548933947,17.151960533098006,6.0135797061664835,-1.0,-5.806084717711278,0.6542599573793093
1669909995412851231,1.7872640548933947,17.151960533098006,6.0135797061664835,-1.0,-5.075477253821126,0.6542599573793093
1669909995433662558,1.7872640548933947,17.151960533098006,6.0135797061664835,-1.0,-5.075477253821126,0.6542599573793093
1669909995485807761,1.7872640548933947,17.151960533098006,6.0135797061664835,-1.0,-5.721861672373794,0.6542599573793093
1669909995596572788,1.7872640548933947,17.151960533098006,6.0135797061664835,-1.0,-5.721861672373794,0.6542599573793093
1669909995596649268,1.7872640548933947,17.151960533098006,6.0135797061664835,-1.0,-5.719867783374485,0.6542599573793093
1669909995621373516,1.7872640548933947,17.151960533098006,6.0135797061664835,-1.0,-5.71850555174332,0.6542599573793093
1669909995621420382,0.8735630098252459,16.08905841583267,6.613434571415455,-1.0,-5.291196109409543,1.6592424362959555
1669909995621462352,0.8735630098252459,16.08905841583267,6.613434571415455,-1.0,-5.291196109409543,1.6592424362959555
1669909995621504273,0.8735630098252459,16.08905841583267,6.613434571415455,-1.0,-5.689720014255592,1.6592424362959555
1669909995621544274,0.8735630098252459,16.08905841583267,6.613434571415455,-1.0,-5.688001908597762,1.6592424362959555
1669909995621631020,0.8735630098252459,16.08905841583267,6.613434571415455,-1.0,-5.688001908597762,1.6592424362959555
1669909995635714311,0.8735630098252459,16.08905841583267,6.613434571415455,-1.0,-5.685157803694982,1.6592424362959555
1669909995654307214,0.8735630098252459,16.08905841583267,6.613434571415455,-1.0,-5.683608334102525,1.6592424362959555
1669909995696360161,0.8735630098252459,16.08905841583267,6.613434571415455,-1.0,-5.683608334102525,1.6592424362959555
1669909995720407624,0.8735630098252459,16.08905841583267,6.613434571415455,-1.0,-5.680586692286602,1.6592424362959555
1669909995736433407,0.8735630098252459,16.08905841583267,6.613434571415455,-1.0,-5.679055689731268,1.6592424362959555
1669909995753241751,0.6112358648096162,16.10429682805452,6.474483151285498,-1.0,-5.790098938314985,1.9637185335221055
1669909995763225506,0.6112358648096162,16.10429682805452,6.474483151285498,-1.0,-5.790098938314985,1.9637185335221055
1669909995780287173,0.6112358648096162,16.10429682805452,6.474483151285498,-1.0,-5.681767008073826,1.9637185335221055
1669909995796879459,0.6112358648096162,16.10429682805452,6.474483151285498,-1.0,-5.680272872512142,1.9637185335221055
1669909995814824455,0.6112358648096162,16.10429682805452,6.474483151285498,-1.0,-5.680272872512142,1.9637185335221055
1669909995837761585,0.6112358648096162,16.10429682805452,6.474483151285498,-1.0,-5.677225588600491,1.9637185335221055
1669909995847948338,0.6112358648096162,16.10429682805452,6.474483151285498,-1.0,-5.677225588600491,1.9637185335221055
1669909995877984195,0.6112358648096162,16.10429682805452,6.474483151285498,-1.0,-5.674374645361609,1.9637185335221055
1669909995892402816,0.4749698120866853,16.39584817960176,6.481557328550665,-1.0,-5.674374645361609,1.9440610706867936
1669909995909505809,0.4611072968064865,16.429560703216296,6.5001554134486135,-1.0,-5.999999999978956,1.9440610706868189
1669909995935995608,0.4611072968064865,16.429560703216296,6.5001554134486135,-1.0,-5.999999999978956,1.9440610706868189
1669909995958188742,0.4611072968064865,16.429560703216296,6.5001554134486135,-1.0,-5.73225018547546,1.9440610706868189
1669909995971322395,0.4611072968064865,16.429560703216296,6.5001554134486135,-1.0,-5.73225018547546,1.9440610706868189
1669909995992848504,0.4611072968064865,16.429560703216296,6.5001554134486135,-1.0,-5.7301518536845695,1.9440610706868189
1669909996014457783,0.4611072968064865,16.429560703216296,6.5001554134486135,-1.0,-5.729089211407209,1.9440610706868189
1669909996259608616,-0.29227000667461556,16.137528938232165,6.843603337108892,-1.0,-5.728027238250839,3.5922275483670254
1669909996259650083,-0.29227000667461556,16.137528938232165,6.843603337108892,-1.0,-5.726786940056672,3.5922275483670254
1669909996259686598,-0.29227000667461556,16.137528938232165,6.843603337108892,-1.0,-5.726786940056672,3.5922275483670254
1669909996259755816,-0.25331551213230263,16.202358273806688,6.8926367001283335,-1.0,-5.99999999997898,3.5922275483670356
1669909996259817525,-0.25331551213230263,16.202358273806688,6.8926367001283335,-1.0,-5.7630465413579,3.5922275483670356
1669909996259870873,-0.25331551213230263,16.202358273806688,6.8926367001283335,-1.0,-5.7630465413579,3.5922275483670356
1669909996260014915,-0.25331551213230263,16.202358273806688,6.8926367001283335,-1.0,-5.761506904029351,3.5922275483670356
1669909996260122884,-0.25331551213230263,16.202358273806688,6.8926367001283335,-1.0,-5.760630261506641,3.5922275483670356
1669909996260210764,-0.25331551213230263,16.202358273806688,6.8926367001283335,-1.0,-5.759650529024777,3.5922275483670356
1669909996260293737,-0.25331551213230263,16.202358273806688,6.8926367001283335,-1.0,-5.759650529024777,3.5922275483670356
1669909996260384172,-0.3021804836563345,16.207781577884997,6.909996083775009,-1.0,-5.999999999979006,3.592227548367046
1669909996269378100,-0.3021804836563345,16.207781577884997,6.909996083775009,-1.0,-5.999999999979006,3.592227548367046
1669909996269439527,-0.3021804836563345,16.207781577884997,6.909996083775009,-1.0,-5.810957046298086,3.592227548367046
1669909996301909896,-0.3021804836563345,16.207781577884997,6.909996083775009,-1.0,-5.810503402931467,3.592227548367046
1669909996312730946,-0.3021804836563345,16.207781577884997,6.909996083775009,-1.0,-5.810049010713264,3.592227548367046
1669909996336257649,-0.3021804836563345,16.207781577884997,6.909996083775009,-1.0,-5.810049010713264,3.592227548367046
1669909996351644706,-1.3999772665075538,15.040283942997302,7.001349738636459,-1.0,-5.809150727648296,2.6409861445489153
1669909996374009727,-1.4193057910120281,15.029056034493781,7.009017360456301,-1.0,-5.9999999999790115,2.6409861445489153
1669909996396087610,-1.4193057910120281,15.029056034493781,7.009017360456301,-1.0,-5.9999999999790115,2.6409861445489153
1669909996408816546,-1.4193057910120281,15.029056034493781,7.009017360456301,-1.0,-5.825260256091331,2.6409861445489153
1669909996431875462,-1.4193057910120281,15.029056034493781,7.009017360456301,-1.0,-5.824921354461861,2.6409861445489153
1669909996464109163,-1.4193057910120281,15.029056034493781,7.009017360456301,-1.0,-5.8245800872858515,2.6409861445489153
1669909996492994279,-1.441087217023761,15.011873526931993,7.007088164828183,-1.0,-5.865018389504619,2.640986144548911
1669909996505032066,-1.018302083900363,16.24776749169945,6.815572182677151,-1.0,-5.865018389504619,2.259463369852561
1669909996537232714,-1.018302083900363,16.24776749169945,6.815572182677151,-1.0,-5.826907994459305,2.259463369852561
1669909996637105875,-1.018302083900363,16.24776749169945,6.815572182677151,-1.0,-5.8264627224482,2.259463369852561
1669909996656335737,-1.00506984496443,16.279381903103825,6.812759375060841,-1.0,-5.826462722448149,2.259463369852548
1669909996656436704,-1.00506984496443,16.279381903103825,6.812759375060841,-1.0,-5.548400344691807,2.259463369852548
1669909996656496054,-1.00506984496443,16.279381903103825,6.812759375060841,-1.0,-5.548400344691807,2.259463369852548
1669909996656565366,-1.00506984496443,16.279381903103825,6.812759375060841,-1.0,-5.800474120370553,2.259463369852548
1669909996656636614,-1.00506984496443,16.279381903103825,6.812759375060841,-1.0,-5.800474120370553,2.259463369852548
1669909996656690946,-1.00506984496443,16.279381903103825,6.812759375060841,-1.0,-5.799520314762116,2.259463369852548
1669909996670879747,-1.00506984496443,16.279381903103825,6.812759375060841,-1.0,-5.79903934869609,2.259463369852548
1669909996697112513,-1.050790337604115,16.19515329123049,6.821272332875855,-1.0,-5.35177264408517,2.259463369852537
1669909996710763496,-1.050790337604115,16.19515329123049,6.821272332875855,-1.0,-5.771453841484233,2.259463369852537
1669909996735249844,-1.050790337604115,16.19515329123049,6.821272332875855,-1.0,-5.771453841484233,2.259463369852537
1669909996755512679,-1.7616575339256026,15.085723693375874,6.814468164651521,-1.0,-5.770150819879524,1.380850486463541
1669909996776223741,-1.7616575339256026,15.085723693375874,6.814468164651521,-1.0,-5.770150819879524,1.380850486463541
1669909996790556787,-1.7616575339256026,15.085723693375874,6.814468164651521,-1.0,-5.7689188518852665,1.380850486463541
1669909996812504010,-1.7616575339256026,15.085723693375874,6.814468164651521,-1.0,-5.7689188518852665,1.380850486463541
1669909996834556077,-1.441679684203694,15.557366902833271,6.74282099744571,-1.0,-5.76762263655413,1.0421255976023616
1669909996856245398,-1.441679684203694,15.557366902833271,6.74282099744571,-1.0,-5.7669557686607185,1.0421255976023616
1669909996888203261,-1.4798322591326118,15.495775037836472,6.741910162321737,-1.0,-5.068775466999871,1.0421255976023511
1669909996901167635,-1.4798322591326118,15.495775037836472,6.741910162321737,-1.0,-5.068775466999871,1.0421255976023511
1669909996925070008,-1.4798322591326118,15.495775037836472,6.741910162321737,-1.0,-5.724014932192531,1.0421255976023511
1669909996940520030,-1.4798322591326118,15.495775037836472,6.741910162321737,-1.0,-5.724014932192531,1.0421255976023511
1669909996957465632,-1.4798322591326118,15.495775037836472,6.741910162321737,-1.0,-5.722296564993347,1.0421255976023511
1669909996968840224,-1.4798322591326118,15.495775037836472,6.741910162321737,-1.0,-5.722296564993347,1.0421255976023511
1669909996997671616,-1.751494136764753,15.02915649993364,6.805448117605856,-1.0,-5.720472993900396,0.5082866549553708
1669909997014865488,-1.751494136764753,15.02915649993364,6.805448117605856,-1.0,-5.719554070378639,0.5082866549553708
1669909997058630575,-1.7352963705925515,15.013948401816245,6.81609779656385,-1.0,-5.719554070378473,0.5082866549553482
1669909997287836654,-1.7352963705925515,15.013948401816245,6.81609779656385,-1.0,-4.5805695252195315,0.5082866549553482
1669909997287932786,-1.7352963705925515,15.013948401816245,6.81609779656385,-1.0,-5.5929023386917125,0.5082866549553482
1669909997311965192,-1.7352963705925515,15.013948401816245,6.81609779656385,-1.0,-5.5910864911419536,0.5082866549553482
1669909997312040566,-1.7352963705925515,15.013948401816245,6.81609779656385,-1.0,-5.5910864911419536,0.5082866549553482
1669909997312083458,-1.7352963705925515,15.013948401816245,6.81609779656385,-1.0,-5.58771216562407,0.5082866549553482
1669909997312122003,-1.723595130021136,14.550261244032974,7.34518734348208,-1.0,-4.619530701747249,-1.4030929282246116
1669909997312159076,-1.723595130021136,14.550261244032974,7.34518734348208,-1.0,-4.619530701747249,-1.4030929282246116
1669909997312195626,-1.723595130021136,14.550261244032974,7.34518734348208,-1.0,-5.526251410791865,-1.4030929282246116
1669909997312234723,-1.723595130021136,14.550261244032974,7.34518734348208,-1.0,-5.526251410791865,-1.4030929282246116
1669909997312284710,-1.723595130021136,14.550261244032974,7.34518734348208,-1.0,-5.522124099401069,-1.4030929282246116
1669909997312321890,-1.723595130021136,14.550261244032974,7.34518734348208,-1.0,-5.519983149463694,-1.4030929282246116
1669909997312358540,-1.7281792089147345,14.559016239108757,7.368226243132284,-1.0,-5.519983149463618,-1.4030929282246047
1669909997312394854,-1.7281792089147345,14.559016239108757,7.368226243132284,-1.0,-5.076085916138086,-1.4030929282246047
1669909997318369975,-1.7124963666078759,14.507409967021271,7.372052817343963,-1.0,-5.107623058798289,-1.4030929282245943
1669909997324476090,-1.7124963666078759,14.507409967021271,7.372052817343963,-1.0,-5.107623058798289,-1.4030929282245943
1669909997346897479,-1.7124963666078759,14.507409967021271,7.372052817343963,-1.0,-5.432012188957161,-1.4030929282245943
1669909997374754103,-1.7124963666078759,14.507409967021271,7.372052817343963,-1.0,-5.432012188957161,-1.4030929282245943
1669909997390183526,-1.7124963666078759,14.507409967021271,7.372052817343963,-1.0,-5.42669592678326,-1.4030929282245943
1669909997414244506,-1.7124963666078759,14.507409967021271,7.372052817343963,-1.0,-5.42406515822256,-1.4030929282245943
1669909997430380125,-1.9718074167844963,13.573765195445343,7.604463993310226,-1.0,-5.42406515822256,-1.6301472857532808
1669909997457442303,-1.9718074167844963,13.573765195445343,7.604463993310226,-1.0,-5.419030314358142,-1.6301472857532808
1669909997479206551,-1.9706045197181878,13.6036806802932,7.645217588869832,-1.0,-5.3865737370444595,-1.6301472857532764
1669909997497333275,-1.9706045197181878,13.6036806802932,7.645217588869832,-1.0,-5.3865737370444595,-1.6301472857532764
1669909997507338793,-1.9706045197181878,13.6036806802932,7.645217588869832,-1.0,-5.408914390081561,-1.6301472857532764
1669909997536324817,-1.8855773018531976,13.590516398448107,7.633498421637318,-1.0,-5.406257790169143,-0.5793747492072846
1669909997568947056,-1.8855773018531976,13.590516398448107,7.633498421637318,-1.0,-5.406257790169143,-0.5793747492072846
1669909997691097337,-1.8855773018531976,13.590516398448107,7.633498421637318,-1.0,-5.401138177562139,-0.5793747492072846
1669909997727686730,-1.8058560894661126,13.758246253031848,7.611707112519047,-1.0,-5.398482593886121,-0.3867718297926451
1669909997727758455,-1.8058560894661126,13.758246253031848,7.611707112519047,-1.0,-5.395739165544587,-0.3867718297926451
1669909997727763620,-1.868705503960159,13.7340488588127,7.637395769395624,-1.0,-5.3957391655445415,-0.38677182979260355
1669909997727897696,-1.868705503960159,13.7340488588127,7.637395769395624,-1.0,-5.612757126384219,-0.38677182979260355
1669909997727902802,-1.868705503960159,13.7340488588127,7.637395769395624,-1.0,-5.612757126384219,-0.38677182979260355
1669909997728070084,-1.868705503960159,13.7340488588127,7.637395769395624,-1.0,-5.40964543324823,-0.38677182979260355
1669909997728083497,-1.9103123710453354,13.675235925535207,7.642052458726218,-0.8887480070365052,-5.409645433248233,-0.38677182979255403
1669909997728090625,-1.9103123710453354,13.675235925535207,7.642052458726218,-0.8887480070365052,-5.999999999978401,-0.38677182979255403
1669909997746145294,-1.9103123710453354,13.675235925535207,7.642052458726218,-1.0,-5.480172305339305,-0.38677182979255403
1669909997782833892,-1.9103123710453354,13.675235925535207,7.642052458726218,-1.0,-5.478042184753453,-0.38677182979255403
1669909997796358737,-1.9103123710453354,13.675235925535207,7.642052458726218,-1.0,-5.478042184753453,-0.38677182979255403
1669909997819265125,-1.9103123710453354,13.675235925535207,7.642052458726218,-1.0,-5.474181212464162,-0.38677182979255403
1669909997833896333,-2.520048813611253,12.327700076917653,7.891714261971764,-1.0,-5.474181212464162,-0.7914419285890409
1669909997851318222,-2.519228520681435,12.428797000719637,7.973182386525459,-1.0,-5.80691725045483,-0.7914419285890225
1669909997871926547,-2.519228520681435,12.428797000719637,7.973182386525459,-1.0,-5.80691725045483,-0.7914419285890225
1669909997893048411,-2.519228520681435,12.428797000719637,7.973182386525459,-1.0,-5.502658037191276,-0.7914419285890225
1669909997917741632,-2.519228520681435,12.428797000719637,7.973182386525459,-1.0,-5.500937739640019,-0.7914419285890225
1669909997932314519,-2.519228520681435,12.428797000719637,7.973182386525459,-1.0,-5.500937739640019,-0.7914419285890225
1669909997951335361,-2.519228520681435,12.428797000719637,7.973182386525459,-1.0,-5.497512067621316,-0.7914419285890225
1669909997973101372,-2.586462584894604,12.463040412587281,8.026526486491063,-1.0,-5.497512067621336,-0.7914419285889702
1669909997991021875,-2.586462584894604,12.463040412587281,8.026526486491063,-1.0,-5.999999999978431,-0.7914419285889702
1669909998013770564,-2.586462584894604,12.463040412587281,8.026526486491063,-1.0,-5.599398447074021,-0.7914419285889702
1669909998034866516,-2.586462584894604,12.463040412587281,8.026526486491063,-1.0,-5.598327499434219,-0.7914419285889702
1669909998047056679,-2.586462584894604,12.463040412587281,8.026526486491063,-1.0,-5.598327499434219,-0.7914419285889702
1669909998074062943,-2.586462584894604,12.463040412587281,8.026526486491063,-1.0,-5.5963688509566705,-0.7914419285889702
1669909998337180332,-3.0291567124542658,11.333775581044312,8.033451056097844,-1.0,-5.595098442989532,0.2378683816704912
1669909998353133759,-3.0291567124542658,11.333775581044312,8.033451056097844,-1.0,-5.595098442989532,0.2378683816704912
1669909998353137178,-3.0291567124542658,11.333775581044312,8.033451056097844,-1.0,-5.593428814495961,0.2378683816704912
1669909998353157490,-3.0291567124542658,11.333775581044312,8.033451056097844,-1.0,-5.592306575877532,0.2378683816704912
1669909998353175579,-3.1338876655445036,11.293339422300285,8.075985635383601,-1.0,-5.592306575877564,0.23786838167054125
1669909998353193675,-3.1338876655445036,11.293339422300285,8.075985635383601,-1.0,-5.999999999978463,0.23786838167054125
1669909998353881790,-3.1338876655445036,11.293339422300285,8.075985635383601,-1.0,-5.710440362523877,0.23786838167054125
1669909998353886543,-3.1338876655445036,11.293339422300285,8.075985635383601,-1.0,-5.710440362523877,0.23786838167054125
1669909998353889219,-3.1338876655445036,11.293339422300285,8.075985635383601,-1.0,-5.709996558816251,0.23786838167054125
1669909998353926842,-3.1338876655445036,11.293339422300285,8.075985635383601,-1.0,-5.7097701301906465,0.23786838167054125
1669909998353965787,-3.1338876655445036,11.293339422300285,8.075985635383601,-1.0,-5.7097701301906465,0.23786838167054125
1669909998353984158,-3.2416971848255174,11.27599737770748,8.107269516482035,-1.0,-5.999999999978518,0.23786838167058505
1669909998354001808,-3.2416971848255174,11.27599737770748,8.107269516482035,-1.0,-5.999999999978518,0.23786838167058505
1669909998362941599,-3.2416971848255174,11.27599737770748,8.107269516482035,-1.0,-5.836595724380845,0.23786838167058505
1669909998369863005,-3.2416971848255174,11.27599737770748,8.107269516482035,-1.0,-5.83721087084984,0.23786838167058505
1669909998385200543,-3.2416971848255174,11.27599737770748,8.107269516482035,-1.0,-5.837851084976634,0.23786838167058505
1669909998415650962,-3.2416971848255174,11.27599737770748,8.107269516482035,-1.0,-5.837851084976634,0.23786838167058505
1669909998442905324,-3.2416971848255174,11.27599737770748,8.107269516482035,-1.0,-5.839036039949641,0.23786838167058505
1669909998455377443,-3.719760708594896,10.14069817192745,7.832446953549066,-1.0,-5.839036039949641,1.0132126137678532
1669909998471283590,-3.719760708594896,10.14069817192745,7.832446953549066,-1.0,-5.840252761888796,1.0132126137678532
1669909998492668232,-3.719760708594896,10.14069817192745,7.832446953549066,-1.0,-5.840252761888796,1.0132126137678532
1669909998509684194,-3.8148280508314585,10.13293868257152,7.842495976599766,-1.0,-5.999999999978559,1.013212613767876
1669909998532436222,-3.720155907372139,10.45819228841411,7.907904772671772,-1.0,-5.926448322970936,0.353113766766085
1669909998550158962,-3.720155907372139,10.45819228841411,7.907904772671772,-1.0,-5.927611979275648,0.353113766766085
1669909998565409564,-3.720155907372139,10.45819228841411,7.907904772671772,-1.0,-5.927611979275648,0.353113766766085
1669909998622086965,-3.720155907372139,10.45819228841411,7.907904772671772,-1.0,-5.929902035603915,0.353113766766085
1669909998726582481,-3.720155907372139,10.45819228841411,7.907904772671772,-1.0,-5.931067186313412,0.353113766766085
1669909998726670502,-3.975269747475288,9.42619925691234,7.883835076006962,-1.0,-5.931067186313412,1.8747681006853718
1669909998743543126,-3.975269747475288,9.42619925691234,7.883835076006962,-1.0,-5.933414986324328,1.8747681006853718
1669909998743562243,-3.975269747475288,9.42619925691234,7.883835076006962,-1.0,-5.933414986324328,1.8747681006853718
1669909998743841714,-3.975269747475288,9.42619925691234,7.883835076006962,-1.0,-5.93570537493591,1.8747681006853718
1669909998743882542,-3.975269747475288,9.42619925691234,7.883835076006962,-1.0,-5.936877273700093,1.8747681006853718
1669909998743888207,-4.094672269626318,9.41266747364139,7.893251669801358,-1.0,-5.999999999978618,1.874768100685406
1669909998752527610,-4.094672269626318,9.41266747364139,7.893251669801358,-1.0,-5.999999999978618,1.874768100685406
