%time,field.force.x,field.force.y,field.force.z,field.torque.x,field.torque.y,field.torque.z
1669910108879568393,-0.1786277373366014,9.532771309772588,6.990959374501198,-1.0,-5.999999999972994,-0.6323459185591233
1669910108892013238,-0.219697521538283,0.3005250300560979,9.66557773788163,-1.0,-5.999999999972994,6.865317045754091e-12
1669910108892015420,-0.219697521538283,0.3005250300560979,9.66557773788163,-1.0,-5.999999999972994,6.865317045754091e-12
1669910108892017446,-0.219697521538283,0.3005250300560979,9.66557773788163,-1.0,-5.999999999972994,6.865317045754091e-12
1669910108892019185,-0.219697521538283,0.3005250300560979,9.66557773788163,-1.0,-5.999999999972994,6.865317045754091e-12
1669910108892020885,-0.219697521538283,0.3005250300560979,9.66557773788163,-1.0,-5.999999999972994,6.865317045754091e-12
1669910108892022503,-0.219697521538283,0.3005250300560979,9.66557773788163,-1.0,-5.999999999972994,6.865317045754091e-12
1669910108892024109,-0.14738499959024937,0.29617508948976984,9.65691002766371,-1.0,-4.288342065493425,6.802038758952286e-12
1669910108892025742,-0.14738499959024937,0.29617508948976984,9.65691002766371,-0.989597068825383,-5.995113996403602,6.802038758952286e-12
1669910108892027631,-0.14738499959024937,0.29617508948976984,9.65691002766371,-0.989597068825383,-5.995113996403602,6.802038758952286e-12
1669910108892029262,-0.14738499959024937,0.29617508948976984,9.65691002766371,-1.0,-5.9950512740842,6.802038758952286e-12
1669910108892030881,-0.14738499959024937,0.29617508948976984,9.65691002766371,-1.0,-5.9950127177586054,6.802038758952286e-12
1669910108892032495,-0.14738499959024937,0.29617508948976984,9.65691002766371,-1.0,-5.9950127177586054,6.802038758952286e-12
1669910108898366799,-0.14738499959024937,0.29617508948976984,9.65691002766371,-1.0,-5.994955707496919,6.802038758952286e-12
1669910108898369108,-0.05527940534498829,0.30531123435795593,9.667198252141878,-1.0,-5.994955707496904,6.7570863437846894e-12
1669910108898403691,-0.05527940534498829,0.30531123435795593,9.667198252141878,-1.0,-4.929912557343732,6.7570863437846894e-12
1669910108898592909,-0.05527940534498829,0.30531123435795593,9.667198252141878,-1.0,-5.878484309737983,6.7570863437846894e-12
1669910108916885946,-0.05527940534498829,0.30531123435795593,9.667198252141878,-1.0,-5.878484309737983,6.7570863437846894e-12
1669910108957297958,-0.05527940534498829,0.30531123435795593,9.667198252141878,-1.0,-5.876904634046518,6.7570863437846894e-12
1669910108979514885,-0.05527940534498829,0.30531123435795593,9.667198252141878,-1.0,-5.876006958220412,6.7570863437846894e-12
1669910108979611748,-0.012917325933372553,0.29075368674440083,9.64684230289033,-1.0,-5.876006958220397,6.6997660839119825e-12
1669910108990735600,1.1391349573536758,9.390480363685318,7.458500685306101,-0.9872795584798788,-4.229853419996307,-1.4433738961748837
1669910109011939992,1.1391349573536758,9.390480363685318,7.458500685306101,-0.9872795584798788,-4.229853419996307,-1.4433738961748837
1669910109023374326,1.2009949081470577,9.371630114001075,7.457745540986695,-1.0,-4.661433126745401,-1.4433738961749218
1669910109046832726,1.2009949081470577,9.371630114001075,7.457745540986695,-1.0,-5.600484648689228,-1.4433738961749218
1669910109064149721,1.2009949081470577,9.371630114001075,7.457745540986695,-1.0,-5.600484648689228,-1.4433738961749218
1669910109087917424,1.5130685859253017,9.174888294619361,7.581435460696854,-1.0,-5.59553872826126,-0.8021664060585639
1669910109417871718,1.5130685859253017,9.174888294619361,7.581435460696854,-1.0,-5.592959612919946,-0.8021664060585639
1669910109445241630,1.5130685859253017,9.174888294619361,7.581435460696854,-1.0,-5.592959612919946,-0.8021664060585639
1669910109445257042,1.5130685859253017,9.174888294619361,7.581435460696854,-1.0,-5.587837246628751,-0.8021664060585639
1669910109445273197,1.4727298094074863,9.141148345200094,7.621293625804487,-1.0,-5.587837246628747,-0.8021664060585705
1669910109445302972,1.4727298094074863,9.141148345200094,7.621293625804487,-1.0,-5.416476670604595,-0.8021664060585705
1669910109445318612,1.4727298094074863,9.141148345200094,7.621293625804487,-1.0,-5.416476670604595,-0.8021664060585705
1669910109445681822,1.4727298094074863,9.141148345200094,7.621293625804487,-1.0,-5.559428683076537,-0.8021664060585705
1669910109445705971,1.4727298094074863,9.141148345200094,7.621293625804487,-1.0,-5.556519082850078,-0.8021664060585705
1669910109445725303,1.4727298094074863,9.141148345200094,7.621293625804487,-1.0,-5.556519082850078,-0.8021664060585705
1669910109445744069,1.4727298094074863,9.141148345200094,7.621293625804487,-1.0,-5.551418228077448,-0.8021664060585705
1669910109445760348,1.5555444151313913,9.082271762685291,7.690029283548872,-0.8466625426229714,-3.215173002851938,-0.8021664060586005
1669910109445774826,1.5555444151313913,9.082271762685291,7.690029283548872,-1.0,-3.215173002851938,-0.8021664060586005
1669910109445791624,1.5555444151313913,9.082271762685291,7.690029283548872,-1.0,-5.4066508810154605,-0.8021664060586005
1669910109460342127,1.5555444151313913,9.082271762685291,7.690029283548872,-1.0,-5.4066508810154605,-0.8021664060586005
1669910109460358932,1.5555444151313913,9.082271762685291,7.690029283548872,-1.0,-5.39995380914283,-0.8021664060586005
1669910109460375682,1.5555444151313913,9.082271762685291,7.690029283548872,-1.0,-5.396372151204725,-0.8021664060586005
1669910109460392674,1.5555444151313913,9.082271762685291,7.690029283548872,-1.0,-5.396372151204725,-0.8021664060586005
1669910109460408980,1.5882699365940103,9.044079424350135,7.749026249555314,-1.0,-4.6536573706901585,-0.802166406058627
1669910109466663047,1.5882699365940103,9.044079424350135,7.749026249555314,-0.9621669650517859,-5.305673962698272,-0.802166406058627
1669910109512468149,1.5882699365940103,9.044079424350135,7.749026249555314,-1.0,-5.301278382864864,-0.802166406058627
1669910109525530427,1.5882699365940103,9.044079424350135,7.749026249555314,-1.0,-5.296923274602907,-0.802166406058627
1669910109525600659,1.5882699365940103,9.044079424350135,7.749026249555314,-1.0,-5.296923274602907,-0.802166406058627
1669910109548995423,1.5882699365940103,9.044079424350135,7.749026249555314,-1.0,-5.289334385096944,-0.802166406058627
1669910109562201186,1.5882699365940103,9.044079424350135,7.749026249555314,-1.0,-5.289334385096944,-0.802166406058627
1669910109588635880,1.779383289369584,9.187339188067787,7.636476139930451,-1.0,-5.28110463809831,-0.7478301040762242
1669910109605815424,1.8520299989824902,9.130622503680359,7.655484295302648,-1.0,-5.281104638098327,-0.7478301040762392
1669910109922027175,1.8520299989824902,9.130622503680359,7.655484295302648,-0.9861147802530676,-4.709633106515397,-0.7478301040762392
1669910109947268267,1.8520299989824902,9.130622503680359,7.655484295302648,-1.0,-5.207464943068694,-0.7478301040762392
1669910109947287673,1.8520299989824902,9.130622503680359,7.655484295302648,-1.0,-5.207464943068694,-0.7478301040762392
1669910109947305506,1.8572422761564862,9.228982088488708,7.664165860825795,-1.0,-5.19813741959413,-0.34899923018452794
1669910109947324369,1.8572422761564862,9.228982088488708,7.664165860825795,-1.0,-5.19813741959413,-0.34899923018452794
1669910109947343210,1.8572422761564862,9.228982088488708,7.664165860825795,-1.0,-5.189678013004835,-0.34899923018452794
1669910109947360615,1.879815078788245,9.282190582366733,7.664037692919308,-1.0,-5.189678013004876,-0.3489992301845102
1669910109947377615,1.879815078788245,9.282190582366733,7.664037692919308,-1.0,-5.137445600566612,-0.3489992301845102
1669910109947516124,1.879815078788245,9.282190582366733,7.664037692919308,-1.0,-5.137445600566612,-0.3489992301845102
1669910109947548003,1.879815078788245,9.282190582366733,7.664037692919308,-1.0,-5.166620413921749,-0.3489992301845102
1669910109947764906,1.879815078788245,9.282190582366733,7.664037692919308,-1.0,-5.166620413921749,-0.3489992301845102
1669910109947785181,1.879815078788245,9.282190582366733,7.664037692919308,-1.0,-5.157897937140855,-0.3489992301845102
1669910109947802656,1.879815078788245,9.282190582366733,7.664037692919308,-1.0,-5.157897937140855,-0.3489992301845102
1669910109947821317,1.879815078788245,9.282190582366733,7.664037692919308,-1.0,-5.148921777163694,-0.3489992301845102
1669910109958354351,1.933361294553538,9.32915331601652,7.6948150913291435,-1.0,-5.978088129812391,-0.34899923018447565
1669910109958466209,1.933361294553538,9.32915331601652,7.6948150913291435,-1.0,-5.188234918976552,-0.34899923018447565
1669910109958490790,1.933361294553538,9.32915331601652,7.6948150913291435,-1.0,-5.183918531312024,-0.34899923018447565
1669910109968432464,1.933361294553538,9.32915331601652,7.6948150913291435,-1.0,-5.183918531312024,-0.34899923018447565
1669910109986085013,1.933361294553538,9.32915331601652,7.6948150913291435,-1.0,-5.176525163761145,-0.34899923018447565
1669910110008679896,1.933361294553538,9.32915331601652,7.6948150913291435,-1.0,-5.176525163761145,-0.34899923018447565
1669910110024001622,1.933361294553538,9.32915331601652,7.6948150913291435,-1.0,-5.167832232900033,-0.34899923018447565
1669910110047652735,1.8382346070099345,9.174570552878889,7.713769671058911,-1.0,-5.1678322329000945,0.01846468484232916
1669910110098249879,1.8382346070099345,9.174570552878889,7.713769671058911,-1.0,-5.999999999973044,0.01846468484232916
1669910110118356352,1.8382346070099345,9.174570552878889,7.713769671058911,-1.0,-5.999999999973044,0.01846468484232916
1669910110118400931,1.7928107712342882,9.183254437916883,7.714877914550124,-1.0,-5.999999999973074,0.018464684842367275
1669910110134177755,1.7928107712342882,9.183254437916883,7.714877914550124,-1.0,-5.334830401785087,0.018464684842367275
1669910110143029104,1.7928107712342882,9.183254437916883,7.714877914550124,-1.0,-5.334830401785087,0.018464684842367275
1669910110396341772,1.7928107712342882,9.183254437916883,7.714877914550124,-1.0,-5.328894953378012,0.018464684842367275
1669910110396383673,1.5739767882897997,8.962871032231458,7.753667127253829,-1.0,-5.325902934394081,1.1790670082040398
1669910110396423966,1.5739767882897997,8.962871032231458,7.753667127253829,-1.0,-5.325902934394081,1.1790670082040398
1669910110396462953,1.5811062329070131,8.999561226191487,7.774536153250779,-1.0,-5.999999999973108,1.1790670082040804
1669910110396501527,1.5811062329070131,8.999561226191487,7.774536153250779,-1.0,-5.397134671359156,1.1790670082040804
1669910110396540573,1.5811062329070131,8.999561226191487,7.774536153250779,-1.0,-5.397134671359156,1.1790670082040804
1669910110396592307,1.5811062329070131,8.999561226191487,7.774536153250779,-1.0,-5.392330287420313,1.1790670082040804
1669910110396655295,1.5811062329070131,8.999561226191487,7.774536153250779,-1.0,-5.389599313509137,1.1790670082040804
1669910110396700425,1.5811062329070131,8.999561226191487,7.774536153250779,-1.0,-5.389599313509137,1.1790670082040804
1669910110396740682,1.5811062329070131,8.999561226191487,7.774536153250779,-1.0,-5.384890245078999,1.1790670082040804
1669910110396779703,1.5811062329070131,8.999561226191487,7.774536153250779,-1.0,-5.384890245078999,1.1790670082040804
1669910110396818664,1.519527646117576,9.050150031895937,7.795811252766146,-1.0,-5.99999999997317,1.1790670082041637
1669910110406664714,1.519527646117576,9.050150031895937,7.795811252766146,-1.0,-5.548901609877723,1.1790670082041637
1669910110429357310,1.519527646117576,9.050150031895937,7.795811252766146,-1.0,-5.547513549443297,1.1790670082041637
1669910110467285941,1.519527646117576,9.050150031895937,7.795811252766146,-1.0,-5.547513549443297,1.1790670082041637
1669910110478792215,1.519527646117576,9.050150031895937,7.795811252766146,-1.0,-5.544903451938501,1.1790670082041637
1669910110490306686,1.519527646117576,9.050150031895937,7.795811252766146,-1.0,-5.544903451938501,1.1790670082041637
1669910110537121145,1.519527646117576,9.050150031895937,7.795811252766146,-1.0,-5.5423471234768815,1.1790670082041637
1669910110552020498,1.483480647241611,9.056168157780458,7.7962594668673875,-1.0,-5.999999999973213,1.17906700820422
1669910110552060147,1.2163968533630558,8.899410326206972,7.645464185934007,-1.0,-5.681060446188761,1.0870940610835536
1669910110566068510,1.2163968533630558,8.899410326206972,7.645464185934007,-1.0,-5.681060446188761,1.0870940610835536
1669910110590075632,1.2163968533630558,8.899410326206972,7.645464185934007,-1.0,-5.68027884975073,1.0870940610835536
1669910110618346291,1.1546347632535492,8.899765834531758,7.645470422889712,-1.0,-5.999999999973236,1.0870940610836062
1669910110628308199,1.1546347632535492,8.899765834531758,7.645470422889712,-1.0,-5.999999999973236,1.0870940610836062
1669910110656724737,1.1546347632535492,8.899765834531758,7.645470422889712,-1.0,-5.79466508199791,1.0870940610836062
1669910110667872998,1.1546347632535492,8.899765834531758,7.645470422889712,-1.0,-5.79466508199791,1.0870940610836062
1669910110924107543,1.1546347632535492,8.899765834531758,7.645470422889712,-1.0,-5.7954322946750505,1.0870940610836062
1669910110924151771,1.1546347632535492,8.899765834531758,7.645470422889712,-1.0,-5.7954322946750505,1.0870940610836062
1669910110924193277,1.1546347632535492,8.899765834531758,7.645470422889712,-1.0,-5.796080832588488,1.0870940610836062
1669910110924232959,1.1546347632535492,8.899765834531758,7.645470422889712,-1.0,-5.796080832588488,1.0870940610836062
1669910110924273710,1.1546347632535492,8.899765834531758,7.645470422889712,-1.0,-5.796788082334749,1.0870940610836062
1669910110924312821,1.0919335967933974,8.89602532805119,7.625315020051514,-1.0,-5.9999999999732365,1.0870940610836344
1669910110924352191,1.0919335967933974,8.89602532805119,7.625315020051514,-1.0,-5.876901742422931,1.0870940610836344
1669910110924392416,1.0919335967933974,8.89602532805119,7.625315020051514,-1.0,-5.876901742422931,1.0870940610836344
1669910110924433927,1.0919335967933974,8.89602532805119,7.625315020051514,-1.0,-5.878645172055261,1.0870940610836344
1669910110924474578,1.0919335967933974,8.89602532805119,7.625315020051514,-1.0,-5.879525542856044,1.0870940610836344
1669910110924515269,1.0919335967933974,8.89602532805119,7.625315020051514,-1.0,-5.880420294183577,1.0870940610836344
1669910110935783949,1.0919335967933974,8.89602532805119,7.625315020051514,-1.0,-5.8813213218041485,1.0870940610836344
1669910110935835098,1.0919335967933974,8.89602532805119,7.625315020051514,-1.0,-5.8813213218041485,1.0870940610836344
1669910110943312138,0.8092411345875106,8.652552871119122,7.296747693982636,-1.0,-5.883029596336352,1.5418694168399172
1669910110982474228,0.8092411345875106,8.652552871119122,7.296747693982636,-1.0,-5.883029596336352,1.5418694168399172
1669910110997009986,0.7005703200196338,8.631524050765165,7.295878179644161,-1.0,-5.99999999997324,1.5418694168399905
1669910111037092427,0.7005703200196338,8.631524050765165,7.295878179644161,-1.0,-5.99999999997324,1.5418694168399905
1669910111055103537,0.7005703200196338,8.631524050765165,7.295878179644161,-1.0,-5.99999999997324,1.5418694168399905
1669910111055114433,0.7005703200196338,8.631524050765165,7.295878179644161,-1.0,-5.99999999997324,1.5418694168399905
1669910111070125907,0.7005703200196338,8.631524050765165,7.295878179644161,-1.0,-5.99999999997324,1.5418694168399905
1669910111092955930,0.7005703200196338,8.631524050765165,7.295878179644161,-1.0,-5.99999999997324,1.5418694168399905
1669910111108937412,0.7005703200196338,8.631524050765165,7.295878179644161,-1.0,-5.99999999997324,1.5418694168399905
1669910111132748336,0.7005703200196338,8.631524050765165,7.295878179644161,-1.0,-5.99999999997324,1.5418694168399905
1669910111154058588,0.6002319072488502,8.503442373028063,7.31562680486609,-1.0,-5.999999999973233,1.503453366465523
1669910111170254832,0.6002319072488502,8.503442373028063,7.31562680486609,-1.0,-5.999999999973233,1.503453366465523
1669910111188333162,0.6002319072488502,8.503442373028063,7.31562680486609,-1.0,-5.999999999973233,1.503453366465523
1669910111436792798,0.6002319072488502,8.503442373028063,7.31562680486609,-1.0,-5.999999999973233,1.503453366465523
1669910111457728921,0.6002319072488502,8.503442373028063,7.31562680486609,-1.0,-5.999999999973233,1.503453366465523
1669910111457744111,0.6002319072488502,8.503442373028063,7.31562680486609,-1.0,-5.999999999973233,1.503453366465523
1669910111457758393,0.6002319072488502,8.503442373028063,7.31562680486609,-1.0,-5.999999999973233,1.503453366465523
1669910111457773077,0.6002319072488502,8.503442373028063,7.31562680486609,-1.0,-5.999999999973233,1.503453366465523
1669910111457787384,0.6002319072488502,8.503442373028063,7.31562680486609,-1.0,-5.999999999973233,1.503453366465523
1669910111457802622,0.6002319072488502,8.503442373028063,7.31562680486609,-1.0,-5.999999999973233,1.503453366465523
1669910111457817146,0.6002319072488502,8.503442373028063,7.31562680486609,-1.0,-5.999999999973233,1.503453366465523
1669910111458080841,0.6002319072488502,8.503442373028063,7.31562680486609,-1.0,-5.999999999973233,1.503453366465523
1669910111458188219,0.5307649045839793,8.487793944606416,7.284333775973216,-1.0,-5.999999999973228,1.503453366465546
1669910111458204915,0.5307649045839793,8.487793944606416,7.284333775973216,-1.0,-5.999999999973228,1.503453366465546
1669910111474338248,0.5307649045839793,8.487793944606416,7.284333775973216,-1.0,-5.999999999973228,1.503453366465546
1669910111474380863,0.5307649045839793,8.487793944606416,7.284333775973216,-1.0,-5.999999999973228,1.503453366465546
1669910111474407829,0.5307649045839793,8.487793944606416,7.284333775973216,-1.0,-5.999999999973228,1.503453366465546
1669910111492436820,0.5307649045839793,8.487793944606416,7.284333775973216,-1.0,-5.999999999973228,1.503453366465546
1669910111526549433,0.5307649045839793,8.487793944606416,7.284333775973216,-1.0,-5.999999999973228,1.503453366465546
1669910111543192926,0.5307649045839793,8.487793944606416,7.284333775973216,-1.0,-5.999999999973228,1.503453366465546
1669910111554681007,0.49554869231133525,8.360054634341829,7.399575631356135,-1.0,-5.999999999973228,1.3082072138857617
1669910111573003670,0.49554869231133525,8.360054634341829,7.399575631356135,-1.0,-5.999999999973228,1.3082072138857617
1669910111598411536,0.49554869231133525,8.360054634341829,7.399575631356135,-1.0,-5.999999999973228,1.3082072138857617
1669910111616798815,0.42874058035661333,8.321121215010008,7.338577466109971,-1.0,-5.999999999973205,1.308207213885751
1669910111652787733,0.42874058035661333,8.321121215010008,7.338577466109971,-1.0,-5.999999999973205,1.308207213885751
1669910111674938851,0.42874058035661333,8.321121215010008,7.338577466109971,-1.0,-5.999999999973205,1.308207213885751
1669910111675013360,0.42874058035661333,8.321121215010008,7.338577466109971,-1.0,-5.999999999973205,1.308207213885751
1669910111691600973,0.5884241059188997,8.367218851232847,7.281567262510041,-1.0,-5.999999999973205,0.6974262557994989
1669910111711196359,0.5884241059188997,8.367218851232847,7.281567262510041,-1.0,-5.999999999973205,0.6974262557994989
1669910111955696408,0.5884241059188997,8.367218851232847,7.281567262510041,-1.0,-5.999999999973205,0.6974262557994989
1669910111984289505,0.5884241059188997,8.367218851232847,7.281567262510041,-1.0,-5.999999999973205,0.6974262557994989
1669910111984304394,0.5884241059188997,8.367218851232847,7.281567262510041,-1.0,-5.999999999973205,0.6974262557994989
1669910111984319055,0.5884241059188997,8.367218851232847,7.281567262510041,-1.0,-5.999999999973205,0.6974262557994989
1669910111984334588,0.5401252603778239,8.326276801185987,7.21140873547613,-1.0,-5.370003920364969,0.6974262557994524
1669910111984349323,0.5401252603778239,8.326276801185987,7.21140873547613,-1.0,-5.999999999973172,0.6974262557994524
1669910111984535290,0.5401252603778239,8.326276801185987,7.21140873547613,-1.0,-5.999999999973172,0.6974262557994524
1669910111984553462,0.5401252603778239,8.326276801185987,7.21140873547613,-1.0,-5.999999999973172,0.6974262557994524
1669910111984569390,0.5401252603778239,8.326276801185987,7.21140873547613,-1.0,-5.999999999973172,0.6974262557994524
1669910111984585690,0.5401252603778239,8.326276801185987,7.21140873547613,-1.0,-5.999999999973172,0.6974262557994524
1669910111984600631,0.5401252603778239,8.326276801185987,7.21140873547613,-1.0,-5.999999999973172,0.6974262557994524
1669910111984615840,0.5642812421903821,8.338181595317035,7.191584633231491,-1.0,-5.415425196972284,0.6974262557993951
1669910111993958757,0.5642812421903821,8.338181595317035,7.191584633231491,-1.0,-5.999999999973131,0.6974262557993951
1669910111993976862,0.5642812421903821,8.338181595317035,7.191584633231491,-1.0,-5.999999999973131,0.6974262557993951
1669910112006168252,0.5642812421903821,8.338181595317035,7.191584633231491,-1.0,-5.999999999973131,0.6974262557993951
1669910112029879607,0.5642812421903821,8.338181595317035,7.191584633231491,-1.0,-5.999999999973131,0.6974262557993951
1669910112051966626,0.9831199517832013,8.520573596469074,7.2012134655717315,-1.0,-5.999999999973131,-0.03238195669135722
1669910112067756409,0.9831199517832013,8.520573596469074,7.2012134655717315,-1.0,-5.999999999973131,-0.03238195669135722
1669910112107396440,0.9831199517832013,8.520573596469074,7.2012134655717315,-1.0,-5.999999999973131,-0.03238195669135722
1669910112127991937,0.9963791552085854,8.535773876943587,7.17141838592317,-1.0,-4.77916788870859,-0.03238195669140651
1669910112146336010,0.9963791552085854,8.535773876943587,7.17141838592317,-1.0,-5.9999999999730935,-0.03238195669140651
1669910112162803007,0.9244639161128976,8.48653090361595,7.153720276773237,-1.0,-5.9999999999730935,0.5657250434229897
1669910112179840469,0.9244639161128976,8.48653090361595,7.153720276773237,-1.0,-5.9999999999730935,0.5657250434229897
1669910112204561876,0.9244639161128976,8.48653090361595,7.153720276773237,-1.0,-5.9999999999730935,0.5657250434229897
1669910112220061690,0.9244639161128976,8.48653090361595,7.153720276773237,-1.0,-5.9999999999730935,0.5657250434229897
1669910112236179284,0.9781743260553638,8.496784390422055,7.123904123582413,-1.0,-4.674017462580386,0.5657250434229276
1669910112471728219,0.9781743260553638,8.496784390422055,7.123904123582413,-1.0,-4.674017462580386,0.5657250434229276
1669910112509936249,0.9781743260553638,8.496784390422055,7.123904123582413,-1.0,-5.999999999973047,0.5657250434229276
1669910112510018403,1.308708313340159,8.571801392715297,7.1194881549158335,-1.0,-4.763471376265916,-0.37673765792755515
1669910112510087273,1.3304462960557915,8.570828605316455,7.119565435848081,-1.0,-5.4893980543331224,-0.3767376579275669
1669910112510135407,1.3304462960557915,8.570828605316455,7.119565435848081,-1.0,-5.4893980543331224,-0.3767376579275669
1669910112510175272,1.3304462960557915,8.570828605316455,7.119565435848081,-1.0,-5.943878501833077,-0.3767376579275669
1669910112510215196,1.3304462960557915,8.570828605316455,7.119565435848081,-1.0,-5.944015112510276,-0.3767376579275669
1669910112510253180,1.3304462960557915,8.570828605316455,7.119565435848081,-1.0,-5.944015112510276,-0.3767376579275669
1669910112510292214,1.3304462960557915,8.570828605316455,7.119565435848081,-1.0,-5.944235483947984,-0.3767376579275669
1669910112510331108,1.3304462960557915,8.570828605316455,7.119565435848081,-1.0,-5.944235483947984,-0.3767376579275669
1669910112510368805,1.3304462960557915,8.570828605316455,7.119565435848081,-1.0,-5.94446759631875,-0.3767376579275669
1669910112510442476,1.35303882064811,8.577878211139343,7.099610706539464,-1.0,-5.944467596318719,-0.37673765792760106
1669910112523903997,1.35303882064811,8.577878211139343,7.099610706539464,-1.0,-5.210812417983026,-0.37673765792760106
1669910112523936892,1.35303882064811,8.577878211139343,7.099610706539464,-1.0,-5.865106824433382,-0.37673765792760106
1669910112561730959,1.35303882064811,8.577878211139343,7.099610706539464,-1.0,-5.865106824433382,-0.37673765792760106
1669910112579081659,1.35303882064811,8.577878211139343,7.099610706539464,-1.0,-5.864192474841786,-0.37673765792760106
1669910112579136849,1.35303882064811,8.577878211139343,7.099610706539464,-1.0,-5.864192474841786,-0.37673765792760106
1669910112598220912,1.35303882064811,8.577878211139343,7.099610706539464,-1.0,-5.863496301688518,-0.37673765792760106
1669910112615363674,1.3959538343304234,8.596271590854073,7.089658954678688,-1.0,-4.204222939485996,-0.37673765792763086
1669910112637463341,1.3959538343304234,8.596271590854073,7.089658954678688,-1.0,-5.764227104113042,-0.37673765792763086
1669910112653678596,1.7877844872826176,8.65839274373188,7.427526989518318,-1.0,-5.764227104113042,-0.7978277094594225
1669910112676540421,1.7877844872826176,8.65839274373188,7.427526989518318,-1.0,-5.762093535600519,-0.7978277094594225
1669910112693584544,1.7877844872826176,8.65839274373188,7.427526989518318,-1.0,-5.762093535600519,-0.7978277094594225
1669910112711098613,1.7877844872826176,8.65839274373188,7.427526989518318,-1.0,-5.76010365978351,-0.7978277094594225
1669910112733341831,1.7877844872826176,8.65839274373188,7.427526989518318,-1.0,-5.759051538977174,-0.7978277094594225
1669910112774386938,1.7877844872826176,8.65839274373188,7.427526989518318,-1.0,-5.757999224862672,-0.7978277094594225
1669910113040833818,1.7877844872826176,8.65839274373188,7.427526989518318,-1.0,-5.757999224862672,-0.7978277094594225
1669910113040873404,1.9837533834332066,8.604494647647286,7.473367431698952,-1.0,-5.755874848049139,-0.7239738106659636
1669910113040911256,1.9837533834332066,8.604494647647286,7.473367431698952,-1.0,-5.754699339418151,-0.7239738106659636
1669910113040948358,1.9837533834332066,8.604494647647286,7.473367431698952,-1.0,-5.754699339418151,-0.7239738106659636
1669910113040987620,2.03453773901529,8.606831043995086,7.473326284081483,-1.0,-4.856062480191152,-0.7239738106659926
1669910113041035397,2.03453773901529,8.606831043995086,7.473326284081483,-1.0,-4.856062480191152,-0.7239738106659926
1669910113041072342,2.03453773901529,8.606831043995086,7.473326284081483,-1.0,-5.654888571803988,-0.7239738106659926
1669910113041144035,2.03453773901529,8.606831043995086,7.473326284081483,-1.0,-5.654888571803988,-0.7239738106659926
1669910113041187980,2.03453773901529,8.606831043995086,7.473326284081483,-1.0,-5.65171397637258,-0.7239738106659926
1669910113041225351,2.03453773901529,8.606831043995086,7.473326284081483,-1.0,-5.650021287904813,-0.7239738106659926
1669910113041262362,2.03453773901529,8.606831043995086,7.473326284081483,-1.0,-5.650021287904813,-0.7239738106659926
1669910113049060712,2.03453773901529,8.606831043995086,7.473326284081483,-1.0,-5.64656118302014,-0.7239738106659926
1669910113049077617,2.03453773901529,8.606831043995086,7.473326284081483,-1.0,-5.64656118302014,-0.7239738106659926
1669910113049096282,2.168427929318006,8.655284342959769,7.482627522630901,-1.0,-4.351726399437597,-0.7239738106660384
1669910113049212250,2.168427929318006,8.655284342959769,7.482627522630901,-1.0,-5.503219635032833,-0.7239738106660384
1669910113078045010,2.168427929318006,8.655284342959769,7.482627522630901,-1.0,-5.500384079326283,-0.7239738106660384
1669910113092413993,2.168427929318006,8.655284342959769,7.482627522630901,-1.0,-5.500384079326283,-0.7239738106660384
1669910113114167843,2.168427929318006,8.655284342959769,7.482627522630901,-1.0,-5.495716761172129,-0.7239738106660384
1669910113129975822,2.168427929318006,8.655284342959769,7.482627522630901,-1.0,-5.493128871958515,-0.7239738106660384
1669910113152075505,2.3481000132091165,8.495724534862825,7.396685961257479,-1.0,-5.493128871958533,-0.5980459973149225
1669910113168957591,2.3481000132091165,8.495724534862825,7.396685961257479,-1.0,-4.651094355856825,-0.5980459973149225
1669910113217916094,2.3481000132091165,8.495724534862825,7.396685961257479,-1.0,-5.393618032740732,-0.5980459973149225
1669910113234814856,2.3758127674030427,8.49549203684041,7.3959198753077695,-1.0,-5.393618032740759,-0.5980459973149327
1669910113234844655,2.3758127674030427,8.49549203684041,7.3959198753077695,-1.0,-4.88019936353705,-0.5980459973149327
1669910113252210927,2.3758127674030427,8.49549203684041,7.3959198753077695,-1.0,-4.88019936353705,-0.5980459973149327
1669910113283551506,2.3758127674030427,8.49549203684041,7.3959198753077695,-1.0,-5.3291212858659955,-0.5980459973149327
1669910113288654007,2.4429106100963716,8.422239716550799,7.619118855400772,-1.0,-5.3291212858659955,0.28709739447307314
1669910113521897544,2.4429106100963716,8.422239716550799,7.619118855400772,-1.0,-5.322239724803171,0.28709739447307314
1669910113576510204,2.4429106100963716,8.422239716550799,7.619118855400772,-1.0,-5.322239724803171,0.28709739447307314
1669910113576527262,2.4429106100963716,8.422239716550799,7.619118855400772,-1.0,-5.315232895623894,0.28709739447307314
1669910113576543421,2.483817744355849,8.451946237548395,7.6388011020017395,-1.0,-4.958541613957348,0.28709739447306665
1669910113576559069,2.483817744355849,8.451946237548395,7.6388011020017395,-1.0,-4.958541613957348,0.28709739447306665
1669910113576575532,2.483817744355849,8.451946237548395,7.6388011020017395,-1.0,-5.283896322068263,0.28709739447306665
1669910113576591554,2.483817744355849,8.451946237548395,7.6388011020017395,-1.0,-5.283896322068263,0.28709739447306665
1669910113576607590,2.483817744355849,8.451946237548395,7.6388011020017395,-1.0,-5.2769821913890596,0.28709739447306665
1669910113576623471,2.483817744355849,8.451946237548395,7.6388011020017395,-1.0,-5.273269114122362,0.28709739447306665
1669910113576639965,2.483817744355849,8.451946237548395,7.6388011020017395,-1.0,-5.273269114122362,0.28709739447306665
1669910113576655788,2.483817744355849,8.451946237548395,7.6388011020017395,-1.0,-5.26602711821018,0.28709739447306665
1669910113576672086,2.5338612547587336,8.499461909495256,7.668556102716341,-1.0,-5.266027118210225,0.28709739447307103
1669910113604603788,2.5338612547587336,8.499461909495256,7.668556102716341,-1.0,-5.085803682961627,0.28709739447307103
1669910113604622623,2.5338612547587336,8.499461909495256,7.668556102716341,-1.0,-5.235139732429825,0.28709739447307103
1669910113622130483,2.5338612547587336,8.499461909495256,7.668556102716341,-1.0,-5.23066747814419,0.28709739447307103
1669910113622154436,2.5338612547587336,8.499461909495256,7.668556102716341,-1.0,-5.23066747814419,0.28709739447307103
1669910113635589420,2.5338612547587336,8.499461909495256,7.668556102716341,-1.0,-5.225017113991446,0.28709739447307103
1669910113677924622,2.341718082733053,8.317496081553363,7.852610328399553,-1.0,-5.220702992131579,0.45583250933062547
1669910113695536834,2.341718082733053,8.317496081553363,7.852610328399553,-1.0,-5.220702992131579,0.45583250933062547
1669910113695566028,2.341718082733053,8.317496081553363,7.852610328399553,-1.0,-5.2137049244419815,0.45583250933062547
1669910113711434577,2.3804192883400765,8.333216797795272,7.883070224845607,-1.0,-5.566426057747479,0.4558325093306508
1669910113740724981,2.3804192883400765,8.333216797795272,7.883070224845607,-1.0,-5.566426057747479,0.4558325093306508
1669910113759484881,2.3804192883400765,8.333216797795272,7.883070224845607,-1.0,-5.223055170280499,0.4558325093306508
1669910113771135135,2.3804192883400765,8.333216797795272,7.883070224845607,-1.0,-5.223055170280499,0.4558325093306508
1669910113791827153,2.3804192883400765,8.333216797795272,7.883070224845607,-1.0,-5.216296161282277,0.4558325093306508
1669910113813351793,2.3804192883400765,8.333216797795272,7.883070224845607,-1.0,-5.212474051871323,0.4558325093306508
1669910114049869971,2.3804192883400765,8.333216797795272,7.883070224845607,-1.0,-5.212474051871323,0.4558325093306508
1669910114086421433,2.2141417738431683,8.222320351818317,7.8834294436081445,-1.0,-5.999999999973113,1.141351573175984
1669910114086474158,2.2141417738431683,8.222320351818317,7.8834294436081445,-1.0,-5.289939818339986,1.141351573175984
1669910114086570026,2.2141417738431683,8.222320351818317,7.8834294436081445,-1.0,-5.286844413654435,1.141351573175984
1669910114086622760,2.2141417738431683,8.222320351818317,7.8834294436081445,-1.0,-5.286844413654435,1.141351573175984
1669910114086954307,2.2141417738431683,8.222320351818317,7.8834294436081445,-1.0,-5.28076985878983,1.141351573175984
1669910114087004203,2.2141417738431683,8.222320351818317,7.8834294436081445,-1.0,-5.2777015930558555,1.141351573175984
1669910114098194299,2.2141417738431683,8.222320351818317,7.8834294436081445,-1.0,-5.274379649899016,1.141351573175984
1669910114098275142,2.2141417738431683,8.222320351818317,7.8834294436081445,-1.0,-5.274379649899016,1.141351573175984
1669910114098320350,2.2068993069788765,8.20616997619005,7.925308314091702,-0.9937699739414487,-5.999999999973142,1.1413515731760482
1669910114098362434,2.2068993069788765,8.20616997619005,7.925308314091702,-1.0,-5.372507808083013,1.1413515731760482
1669910114098404412,2.2068993069788765,8.20616997619005,7.925308314091702,-1.0,-5.372507808083013,1.1413515731760482
1669910114098443418,2.2068993069788765,8.20616997619005,7.925308314091702,-1.0,-5.367905326135078,1.1413515731760482
1669910114098484089,2.2068993069788765,8.20616997619005,7.925308314091702,-1.0,-5.3655117124420375,1.1413515731760482
1669910114138030883,2.2068993069788765,8.20616997619005,7.925308314091702,-1.0,-5.362994508466076,1.1413515731760482
1669910114152591505,2.2068993069788765,8.20616997619005,7.925308314091702,-1.0,-5.362994508466076,1.1413515731760482
1669910114152635279,2.2068993069788765,8.20616997619005,7.925308314091702,-1.0,-5.358470190836918,1.1413515731760482
1669910114169704557,2.1458677271974103,8.193645027661683,7.94719777500441,-1.0,-5.358470190836938,1.141351573176122
1669910114187036904,1.7872836510312569,7.933073786282899,8.018882344124817,-0.9706438754427837,-5.999999999973162,1.7867126315901043
1669910114215627953,1.7872836510312569,7.933073786282899,8.018882344124817,-0.9706438754427837,-5.999999999973162,1.7867126315901043
1669910114231644017,1.7872836510312569,7.933073786282899,8.018882344124817,-1.0,-5.501727105119319,1.7867126315901043
1669910114250278536,1.7872836510312569,7.933073786282899,8.018882344124817,-1.0,-5.500259431198687,1.7867126315901043
1669910114272185390,1.7872836510312569,7.933073786282899,8.018882344124817,-1.0,-5.500259431198687,1.7867126315901043
1669910114287015563,1.5028745629397313,7.65428918648452,8.079628147933557,-0.9721691398585226,-5.999999999973179,2.67156980932456
1669910114315660642,1.5028745629397313,7.65428918648452,8.079628147933557,-0.9721691398585226,-5.999999999973179,2.67156980932456
1669910114349586537,1.5028745629397313,7.65428918648452,8.079628147933557,-1.0,-5.6810171778703324,2.67156980932456
1669910114604662561,1.5028745629397313,7.65428918648452,8.079628147933557,-1.0,-5.6810171778703324,2.67156980932456
1669910114604693617,1.5028745629397313,7.65428918648452,8.079628147933557,-1.0,-5.680711177246311,2.67156980932456
1669910114604722875,1.340124676426975,7.606127441413109,8.117898651216104,-1.0,-5.680711177246311,2.663984075195608
1669910114604751907,1.2871791023712686,7.564149677340082,8.13789145036784,-1.0,-5.99999999997319,2.663984075195661
1669910114604780446,1.2871791023712686,7.564149677340082,8.13789145036784,-1.0,-5.99999999997319,2.663984075195661
1669910114604809254,1.2871791023712686,7.564149677340082,8.13789145036784,-1.0,-5.817511107453497,2.663984075195661
1669910114604837796,1.2169898484297772,7.562016586436419,8.13723650926457,-1.0,-5.999999999973202,2.663984075195717
1669910114604866354,1.2169898484297772,7.562016586436419,8.13723650926457,-1.0,-5.999999999973202,2.663984075195717
1669910114604894917,1.2169898484297772,7.562016586436419,8.13723650926457,-1.0,-5.95114278302707,2.663984075195717
1669910114604923880,1.2169898484297772,7.562016586436419,8.13723650926457,-1.0,-5.95114278302707,2.663984075195717
1669910114604968494,1.2169898484297772,7.562016586436419,8.13723650926457,-1.0,-5.954300801835351,2.663984075195717
1669910114616802624,1.2169898484297772,7.562016586436419,8.13723650926457,-1.0,-5.955903294861195,2.663984075195717
1669910114616842431,1.2169898484297772,7.562016586436419,8.13723650926457,-1.0,-5.957529082176961,2.663984075195717
1669910114616878778,1.182941350434154,7.524712966408178,8.146687218831877,-1.0,-5.957529082176965,2.6639840751957378
1669910114651150837,1.182941350434154,7.524712966408178,8.146687218831877,-1.0,-5.999999999973205,2.6639840751957378
1669910114661937058,1.182941350434154,7.524712966408178,8.146687218831877,-1.0,-5.999999999973205,2.6639840751957378
1669910114682151559,1.182941350434154,7.524712966408178,8.146687218831877,-1.0,-5.999999999973205,2.6639840751957378
1669910114700987222,1.182941350434154,7.524712966408178,8.146687218831877,-1.0,-5.999999999973205,2.6639840751957378
1669910114718975542,1.182941350434154,7.524712966408178,8.146687218831877,-1.0,-5.999999999973205,2.6639840751957378
1669910114737177805,1.182941350434154,7.524712966408178,8.146687218831877,-1.0,-5.999999999973205,2.6639840751957378
1669910114746375046,1.0079750449398455,7.528419183220312,8.172885844396452,-1.0,-5.999999999973205,2.1711932122778377
1669910114802012611,1.0079750449398455,7.528419183220312,8.172885844396452,-1.0,-5.999999999973205,2.1711932122778377
1669910114822957177,0.9383361969868963,7.501693692899691,8.161511491736187,-1.0,-5.999999999973208,2.171193212277873
1669910114823035439,0.9383361969868963,7.501693692899691,8.161511491736187,-1.0,-5.999999999973208,2.171193212277873
1669910114835201501,0.9383361969868963,7.501693692899691,8.161511491736187,-1.0,-5.999999999973208,2.171193212277873
1669910114858609094,0.9383361969868963,7.501693692899691,8.161511491736187,-1.0,-5.999999999973208,2.171193212277873
1669910114966884872,0.9383361969868963,7.501693692899691,8.161511491736187,-1.0,-5.999999999973208,2.171193212277873
1669910114999975044,0.8753789399545019,7.498644319272982,8.143595676621212,-1.0,-5.999999999973208,1.9298496097397644
1669910115000093577,0.8753789399545019,7.498644319272982,8.143595676621212,-1.0,-5.999999999973208,1.9298496097397644
1669910115000137411,0.8753789399545019,7.498644319272982,8.143595676621212,-1.0,-5.999999999973208,1.9298496097397644
1669910115000177969,0.8753789399545019,7.498644319272982,8.143595676621212,-1.0,-5.999999999973208,1.9298496097397644
1669910115000218450,0.7480199702013428,7.474679803169772,8.120201299953617,-1.0,-5.999999999973195,1.929849609739803
1669910115004140483,0.7480199702013428,7.474679803169772,8.120201299953617,-1.0,-5.999999999973195,1.929849609739803
1669910115013781547,0.7480199702013428,7.474679803169772,8.120201299953617,-1.0,-5.999999999973195,1.929849609739803
1669910115035526347,0.7480199702013428,7.474679803169772,8.120201299953617,-1.0,-5.999999999973195,1.929849609739803
1669910115053197922,0.7480199702013428,7.474679803169772,8.120201299953617,-1.0,-5.999999999973195,1.929849609739803
1669910115076109165,0.7480199702013428,7.474679803169772,8.120201299953617,-1.0,-5.999999999973195,1.929849609739803
1669910115098434881,0.790029621862262,7.6006184571156945,8.663370753693737,-1.0,-5.999999999973195,1.3514778390598523
1669910115114357458,0.790029621862262,7.6006184571156945,8.663370753693737,-1.0,-5.999999999973195,1.3514778390598523
1669910115136406306,0.7136124404810497,7.590820948005721,8.641321252007769,-1.0,-5.99999999997317,1.3514778390598499
1669910115177028114,0.7136124404810497,7.590820948005721,8.641321252007769,-1.0,-5.99999999997317,1.3514778390598499
1669910115200046707,0.7136124404810497,7.590820948005721,8.641321252007769,-1.0,-5.99999999997317,1.3514778390598499
1669910115200117689,0.7351469280861446,7.54214958322148,8.427772040386484,-1.0,-5.99999999997317,1.7382258921933376
1669910115214372891,0.7351469280861446,7.54214958322148,8.427772040386484,-1.0,-5.99999999997317,1.7382258921933376
1669910115236756608,0.7351469280861446,7.54214958322148,8.427772040386484,-1.0,-5.99999999997317,1.7382258921933376
1669910115254899454,0.7351469280861446,7.54214958322148,8.427772040386484,-1.0,-5.99999999997317,1.7382258921933376
1669910115278811243,0.6940766762643353,7.548361908600434,8.396728539997806,-1.0,-5.999999999973143,1.7382258921933236
1669910115293315364,0.6940766762643353,7.548361908600434,8.396728539997806,-1.0,-5.999999999973143,1.7382258921933236
1669910115314706916,0.6940766762643353,7.548361908600434,8.396728539997806,-1.0,-5.999999999973143,1.7382258921933236
1669910115331890229,0.6940766762643353,7.548361908600434,8.396728539997806,-1.0,-5.999999999973143,1.7382258921933236
1669910115354944411,0.9152224253564374,7.807049643204316,8.44703754239725,-1.0,-5.999999999973143,0.28842941858590254
1669910115375676590,0.9152224253564374,7.807049643204316,8.44703754239725,-1.0,-5.999999999973143,0.28842941858590254
1669910115623683679,0.9152224253564374,7.807049643204316,8.44703754239725,-1.0,-5.999999999973143,0.28842941858590254
1669910115650988320,0.9152224253564374,7.807049643204316,8.44703754239725,-1.0,-5.999999999973143,0.28842941858590254
1669910115651053018,0.9152224253564374,7.807049643204316,8.44703754239725,-1.0,-5.999999999973143,0.28842941858590254
1669910115651095491,0.8975908910628319,7.825553941675241,8.426569145194536,-1.0,-5.999999999973096,0.2884294185858685
1669910115651134683,0.8975908910628319,7.825553941675241,8.426569145194536,-1.0,-5.999999999973096,0.2884294185858685
1669910115651174463,0.8975908910628319,7.825553941675241,8.426569145194536,-1.0,-5.999999999973096,0.2884294185858685
1669910115651226970,0.8975908910628319,7.825553941675241,8.426569145194536,-1.0,-5.999999999973096,0.2884294185858685
1669910115651285567,0.8975908910628319,7.825553941675241,8.426569145194536,-1.0,-5.999999999973096,0.2884294185858685
1669910115651331546,0.8975908910628319,7.825553941675241,8.426569145194536,-1.0,-5.999999999973096,0.2884294185858685
1669910115651372153,0.8975908910628319,7.825553941675241,8.426569145194536,-1.0,-5.999999999973096,0.2884294185858685
1669910115651410283,0.9053677365332526,7.841290847844822,8.39709944470912,-1.0,-4.960248904408417,0.28842941858582183
1669910115651447938,0.9053677365332526,7.841290847844822,8.39709944470912,-1.0,-5.999999999973036,0.28842941858582183
1669910115666382399,0.9053677365332526,7.841290847844822,8.39709944470912,-1.0,-5.999999999973036,0.28842941858582183
1669910115666482963,0.9053677365332526,7.841290847844822,8.39709944470912,-1.0,-5.999999999973036,0.28842941858582183
1669910115683729282,0.9053677365332526,7.841290847844822,8.39709944470912,-1.0,-5.999999999973036,0.28842941858582183
1669910115701687259,1.2364684835225028,7.89691032607053,8.266492405972777,-1.0,-5.999999999973036,-0.02534805039633084
1669910115720012229,1.2364684835225028,7.89691032607053,8.266492405972777,-1.0,-5.999999999973036,-0.02534805039633084
1669910115740323848,1.2364684835225028,7.89691032607053,8.266492405972777,-1.0,-5.999999999973036,-0.02534805039633084
1669910115757925487,1.2364684835225028,7.89691032607053,8.266492405972777,-1.0,-5.999999999973036,-0.02534805039633084
1669910115779646139,1.2364684835225028,7.89691032607053,8.266492405972777,-1.0,-5.999999999973036,-0.02534805039633084
1669910115798575078,1.2139344699366792,7.861541619324432,8.266185351217882,-1.0,-4.2627976713788005,0.6810795888374962
1669910115813596269,1.2139344699366792,7.861541619324432,8.266185351217882,-1.0,-5.999999999972982,0.6810795888374962
1669910115855350900,1.2139344699366792,7.861541619324432,8.266185351217882,-1.0,-5.999999999972982,0.6810795888374962
1669910115871390289,1.2139344699366792,7.861541619324432,8.266185351217882,-1.0,-5.999999999972982,0.6810795888374962
1669910115885134880,1.2139344699366792,7.861541619324432,8.266185351217882,-1.0,-5.999999999972982,0.6810795888374962
1669910115897747032,1.2139344699366792,7.861541619324432,8.266185351217882,-1.0,-5.999999999972982,0.6810795888374962
1669910116023980623,1.2139344699366792,7.861541619324432,8.266185351217882,-1.0,-5.999999999972982,0.6810795888374962
1669910116048859482,1.2139344699366792,7.861541619324432,8.266185351217882,-1.0,-5.999999999972982,0.6810795888374962
1669910116049026714,1.2139344699366792,7.861541619324432,8.266185351217882,-1.0,-5.999999999972982,0.6810795888374962
1669910116049133789,1.2786229116699857,7.855873419343268,8.247775549454406,-1.0,-4.802597536461298,0.6810795888374228
1669910116049243977,1.5419250888607663,7.932502938805854,8.310905361933425,-1.0,-5.999999999972916,-0.4050113819470029
1669910116049418133,1.5419250888607663,7.932502938805854,8.310905361933425,-1.0,-5.999999999972916,-0.4050113819470029
1669910116050793887,1.5419250888607663,7.932502938805854,8.310905361933425,-1.0,-5.999999999972916,-0.4050113819470029
1669910116068562746,1.5419250888607663,7.932502938805854,8.310905361933425,-1.0,-5.999999999972916,-0.4050113819470029
1669910116082937220,1.5419250888607663,7.932502938805854,8.310905361933425,-1.0,-5.999999999972916,-0.4050113819470029
1669910116098549620,1.5419250888607663,7.932502938805854,8.310905361933425,-1.0,-5.999999999972916,-0.4050113819470029
1669910116117870008,1.5419250888607663,7.932502938805854,8.310905361933425,-1.0,-5.999999999972916,-0.4050113819470029
1669910116140078543,1.5419250888607663,7.932502938805854,8.310905361933425,-1.0,-5.999999999972916,-0.4050113819470029
1669910116156579001,1.639730807891269,7.959127276689433,8.31242939066985,-1.0,-5.999999999972861,-0.4050113819470843
1669910116179183442,1.639730807891269,7.959127276689433,8.31242939066985,-1.0,-4.254537746898801,-0.4050113819470843
1669910116199648348,1.8014091519025757,8.0078314240283,8.234800003291157,-1.0,-4.254537746898801,-0.3432191535761794
1669910116218546391,1.8014091519025757,8.0078314240283,8.234800003291157,-1.0,-5.970251273022806,-0.3432191535761794
1669910116234004806,1.8014091519025757,8.0078314240283,8.234800003291157,-1.0,-5.970251273022806,-0.3432191535761794
1669910116257021026,1.8014091519025757,8.0078314240283,8.234800003291157,-1.0,-5.970491254022391,-0.3432191535761794
1669910116276272133,1.8014091519025757,8.0078314240283,8.234800003291157,-1.0,-5.970611433077298,-0.3432191535761794
1669910116330848838,2.146012008447991,7.906874165074322,8.262437583451442,-1.0,-5.970611433077242,-0.9562569111517846
1669910116331013696,2.146012008447991,7.906874165074322,8.262437583451442,-1.0,-3.8481699289928777,-0.9562569111517846
1669910116342900027,2.146012008447991,7.906874165074322,8.262437583451442,-1.0,-5.739884003149442,-0.9562569111517846
1669910116355220149,2.146012008447991,7.906874165074322,8.262437583451442,-1.0,-5.739884003149442,-0.9562569111517846
1669910116379688683,2.146012008447991,7.906874165074322,8.262437583451442,-1.0,-5.737212452607902,-0.9562569111517846
1669910116396472352,2.2472199502185446,7.9448029847306945,8.195162416939906,-1.0,-5.737212452607902,-0.6878626719049393
1669910116418305053,2.2472199502185446,7.9448029847306945,8.195162416939906,-1.0,-5.7343992430866955,-0.6878626719049393
1669910116677598517,2.2472199502185446,7.9448029847306945,8.195162416939906,-1.0,-5.732907789872889,-0.6878626719049393
1669910116712614309,2.2828135463543275,7.918274420052821,8.194679887626055,-1.0,-3.9218214865905154,-0.6878626719049866
1669910116712666433,2.2828135463543275,7.918274420052821,8.194679887626055,-1.0,-5.604382995219834,-0.6878626719049866
1669910116712711835,2.2828135463543275,7.918274420052821,8.194679887626055,-1.0,-5.604382995219834,-0.6878626719049866
1669910116712754983,2.2828135463543275,7.918274420052821,8.194679887626055,-1.0,-5.604382995219834,-0.6878626719049866
1669910116712796729,2.2828135463543275,7.918274420052821,8.194679887626055,-1.0,-5.601782109811584,-0.6878626719049866
1669910116712837765,2.2828135463543275,7.918274420052821,8.194679887626055,-1.0,-5.599549595140936,-0.6878626719049866
1669910116712879735,2.3884077710247666,7.894971981699461,8.192834244116778,-0.9670085661737584,-2.307988672134777,-0.6878626719050625
1669910116712920452,2.3884077710247666,7.894971981699461,8.192834244116778,-0.9670085661737584,-2.307988672134777,-0.6878626719050625
1669910116712961591,2.3884077710247666,7.894971981699461,8.192834244116778,-1.0,-5.395228460745544,-0.6878626719050625
1669910116713050166,2.3884077710247666,7.894971981699461,8.192834244116778,-1.0,-5.388911860130877,-0.6878626719050625
1669910116723580328,2.3884077710247666,7.894971981699461,8.192834244116778,-1.0,-5.388911860130877,-0.6878626719050625
1669910116723592018,2.3884077710247666,7.894971981699461,8.192834244116778,-1.0,-5.384772699104263,-0.6878626719050625
1669910116723594964,2.3884077710247666,7.894971981699461,8.192834244116778,-1.0,-5.384772699104263,-0.6878626719050625
1669910116723597333,2.3884077710247666,7.894971981699461,8.192834244116778,-1.0,-5.3768187288163265,-0.6878626719050625
1669910116761197654,2.3884077710247666,7.894971981699461,8.192834244116778,-1.0,-5.3768187288163265,-0.6878626719050625
1669910116781099122,2.6196803492642076,7.967382088358397,8.244429961785311,-1.0,-5.370945567095922,-0.44601827859213145
1669910116781108370,2.68964190475791,8.007977712053327,8.252752162299597,-1.0,-5.370945567095933,-0.44601827859216314
1669910116793742480,2.68964190475791,8.007977712053327,8.252752162299597,-1.0,-4.331318053698954,-0.44601827859216314
1669910116818516882,2.68964190475791,8.007977712053327,8.252752162299597,-1.0,-5.24791770597612,-0.44601827859216314
1669910116840879984,2.68964190475791,8.007977712053327,8.252752162299597,-1.0,-5.24791770597612,-0.44601827859216314
1669910116864526585,2.68964190475791,8.007977712053327,8.252752162299597,-1.0,-5.238678259938259,-0.44601827859216314
1669910116886788933,2.68964190475791,8.007977712053327,8.252752162299597,-1.0,-5.238678259938259,-0.44601827859216314
1669910116901044315,2.7108915566667844,7.847484457391768,8.150666989169562,-1.0,-5.231354800974474,-0.18481720703923088
1669910116917745195,2.7108915566667844,7.847484457391768,8.150666989169562,-1.0,-5.227043073704935,-0.18481720703923088
1669910116946305607,2.7108915566667844,7.847484457391768,8.150666989169562,-1.0,-5.222471631027809,-0.18481720703923088
1669910116964216596,2.7108915566667844,7.847484457391768,8.150666989169562,-1.0,-5.222471631027809,-0.18481720703923088
1669910117069414727,2.7108915566667844,7.847484457391768,8.150666989169562,-1.0,-5.214383576494175,-0.18481720703923088
1669910117107266184,2.660764199422293,7.914041983980208,8.190290070853674,-1.0,-5.214383576494175,-0.2999250870131789
1669910117107268554,2.660764199422293,7.914041983980208,8.190290070853674,-1.0,-5.206061149770014,-0.2999250870131789
1669910117107271116,2.736567795563733,7.932027085923239,8.198219895064703,-1.0,-3.5808152239196946,-0.2999250870131737
1669910117107273170,2.736567795563733,7.932027085923239,8.198219895064703,-1.0,-3.5808152239196946,-0.2999250870131737
1669910117107274970,2.736567795563733,7.932027085923239,8.198219895064703,-1.0,-5.088874087321787,-0.2999250870131737
1669910117120415231,2.736567795563733,7.932027085923239,8.198219895064703,-1.0,-5.088874087321787,-0.2999250870131737
1669910117120580808,2.736567795563733,7.932027085923239,8.198219895064703,-1.0,-5.079108060851,-0.2999250870131737
1669910117140093727,2.736567795563733,7.932027085923239,8.198219895064703,-1.0,-5.073836576028589,-0.2999250870131737
1669910117158936121,2.736567795563733,7.932027085923239,8.198219895064703,-1.0,-5.073836576028589,-0.2999250870131737
1669910117174744498,2.736567795563733,7.932027085923239,8.198219895064703,-1.0,-5.0643821987469,-0.2999250870131737
1669910117196705804,2.8300906124601717,7.878994449280783,8.22980037301766,-1.0,-5.0643821987469,0.2219481021232122
1669910117224228167,2.8300906124601717,7.878994449280783,8.22980037301766,-1.0,-5.0545815018393,0.2219481021232122
1669910117241574755,2.8300906124601717,7.878994449280783,8.22980037301766,-1.0,-5.0545815018393,0.2219481021232122
1669910117259484266,3.0038451217204067,7.969931824595266,8.411776403792107,-1.0,-5.999999999972894,0.2219481021233157
1669910117276701339,3.0038451217204067,7.969931824595266,8.411776403792107,-1.0,-5.999999999972894,0.2219481021233157
1669910117303532349,2.95528015122709,7.992464764506154,8.397522698052132,-1.0,-5.178224565532583,-0.12610775883567774
1669910117320432650,2.95528015122709,7.992464764506154,8.397522698052132,-1.0,-5.178224565532583,-0.12610775883567774
1669910117341339599,2.95528015122709,7.992464764506154,8.397522698052132,-1.0,-5.170744931958786,-0.12610775883567774
1669910117358824916,2.95528015122709,7.992464764506154,8.397522698052132,-1.0,-5.170744931958786,-0.12610775883567774
1669910117374842720,2.95528015122709,7.992464764506154,8.397522698052132,-1.0,-5.162743200031538,-0.12610775883567774
1669910117397998642,2.249453997452516,7.735644227262114,8.375102047685413,-1.0,-5.162743200031584,1.1583283916184328
1669910117429675406,2.249453997452516,7.735644227262114,8.375102047685413,-1.0,-5.99999999997294,1.1583283916184328
1669910117447529684,2.249453997452516,7.735644227262114,8.375102047685413,-1.0,-5.99999999997294,1.1583283916184328
1669910117464184000,2.249453997452516,7.735644227262114,8.375102047685413,-1.0,-5.390383477030982,1.1583283916184328
1669910117483647826,2.249453997452516,7.735644227262114,8.375102047685413,-1.0,-5.390383477030982,1.1583283916184328
1669910117786836567,2.249453997452516,7.735644227262114,8.375102047685413,-1.0,-5.38559296040209,1.1583283916184328
1669910117852273747,2.249453997452516,7.735644227262114,8.375102047685413,-1.0,-5.38559296040209,1.1583283916184328
1669910117852343038,2.249453997452516,7.735644227262114,8.375102047685413,-1.0,-5.380836871074512,1.1583283916184328
1669910117852363639,2.038079502561814,7.679347809734697,8.450812085682639,-1.0,-5.999999999972979,1.3591266051004554
1669910117853428383,2.038079502561814,7.679347809734697,8.450812085682639,-1.0,-5.999999999972979,1.3591266051004554
1669910117853431966,2.038079502561814,7.679347809734697,8.450812085682639,-1.0,-5.621592476960211,1.3591266051004554
1669910117853433719,2.038079502561814,7.679347809734697,8.450812085682639,-1.0,-5.620822191309006,1.3591266051004554
1669910117853454368,2.038079502561814,7.679347809734697,8.450812085682639,-1.0,-5.620822191309006,1.3591266051004554
1669910117853471566,2.038079502561814,7.679347809734697,8.450812085682639,-1.0,-5.619277379363353,1.3591266051004554
1669910117853488862,2.038079502561814,7.679347809734697,8.450812085682639,-1.0,-5.619277379363353,1.3591266051004554
1669910117853508371,2.038079502561814,7.679347809734697,8.450812085682639,-1.0,-5.617730910182143,1.3591266051004554
1669910117853525263,1.9317081252010244,7.705240504148294,8.481269302584032,-1.0,-5.617730910182187,1.3591266051005702
1669910117862294557,1.9317081252010244,7.705240504148294,8.481269302584032,-1.0,-5.999999999973023,1.3591266051005702
1669910117862337820,1.9317081252010244,7.705240504148294,8.481269302584032,-1.0,-5.999999999973023,1.3591266051005702
1669910117862357492,1.9317081252010244,7.705240504148294,8.481269302584032,-1.0,-5.890385800049688,1.3591266051005702
1669910117862396574,1.9317081252010244,7.705240504148294,8.481269302584032,-1.0,-5.890385800049688,1.3591266051005702
1669910117862406341,1.9317081252010244,7.705240504148294,8.481269302584032,-1.0,-5.892413083018372,1.3591266051005702
1669910117862410896,1.8622059244208005,7.687114395515801,8.480519795853661,-0.9788558663140645,-5.999999999973046,1.359126605100641
1669910117862538355,1.8622059244208005,7.687114395515801,8.480519795853661,-0.9788558663140645,-5.999999999973046,1.359126605100641
1669910117874244532,1.8622059244208005,7.687114395515801,8.480519795853661,-1.0,-5.999999999973046,1.359126605100641
1669910117899549919,1.8622059244208005,7.687114395515801,8.480519795853661,-1.0,-5.999999999973046,1.359126605100641
1669910117923214428,1.8622059244208005,7.687114395515801,8.480519795853661,-1.0,-5.999999999973046,1.359126605100641
1669910117957448225,1.8622059244208005,7.687114395515801,8.480519795853661,-1.0,-5.999999999973046,1.359126605100641
1669910117977630893,1.2915652859501505,7.226696528808953,8.47609653516488,-1.0,-5.999999999973046,2.2131668776345346
1669910117992805227,1.2915652859501505,7.226696528808953,8.47609653516488,-1.0,-5.999999999973046,2.2131668776345346
1669910118010649562,1.152296691618661,7.188891298553858,8.453847949181945,-0.9825445972638164,-5.999999999973067,2.213166877634625
1669910118313391622,1.152296691618661,7.188891298553858,8.453847949181945,-1.0,-5.999999999973067,2.213166877634625
1669910118357520229,1.152296691618661,7.188891298553858,8.453847949181945,-1.0,-5.999999999973067,2.213166877634625
1669910118357555229,1.0884567193016543,7.175378109849618,8.451990617854584,-0.9885421309559375,-5.999999999973078,2.2131668776346705
1669910118357562685,1.0884567193016543,7.175378109849618,8.451990617854584,-0.9885421309559375,-5.999999999973078,2.2131668776346705
1669910118357573827,1.0884567193016543,7.175378109849618,8.451990617854584,-1.0,-5.999999999973078,2.2131668776346705
1669910118357589210,1.0884567193016543,7.175378109849618,8.451990617854584,-1.0,-5.999999999973078,2.2131668776346705
1669910118357603742,1.0884567193016543,7.175378109849618,8.451990617854584,-1.0,-5.999999999973078,2.2131668776346705
1669910118357618110,1.0884567193016543,7.175378109849618,8.451990617854584,-1.0,-5.999999999973078,2.2131668776346705
1669910118357776851,1.0884567193016543,7.175378109849618,8.451990617854584,-1.0,-5.999999999973078,2.2131668776346705
1669910118357783856,1.0401412791131748,7.141986170352666,8.440981604028677,-1.0,-5.9999999999730855,2.2131668776346833
1669910118357787951,1.0401412791131748,7.141986170352666,8.440981604028677,-1.0,-5.9999999999730855,2.2131668776346833
1669910118357813326,1.0401412791131748,7.141986170352666,8.440981604028677,-1.0,-5.9999999999730855,2.2131668776346833
1669910118357829245,1.0401412791131748,7.141986170352666,8.440981604028677,-1.0,-5.9999999999730855,2.2131668776346833
1669910118357865744,1.0401412791131748,7.141986170352666,8.440981604028677,-1.0,-5.9999999999730855,2.2131668776346833
1669910118357872283,1.0401412791131748,7.141986170352666,8.440981604028677,-1.0,-5.9999999999730855,2.2131668776346833
1669910118374468692,1.0401412791131748,7.141986170352666,8.440981604028677,-1.0,-5.9999999999730855,2.2131668776346833
1669910118374517729,1.0401412791131748,7.141986170352666,8.440981604028677,-1.0,-5.9999999999730855,2.2131668776346833
1669910118374544760,0.9613466949420997,7.095480926111361,8.408882146296328,-1.0,-5.999999999973098,2.213166877634699
1669910118390405835,0.9613466949420997,7.095480926111361,8.408882146296328,-1.0,-5.999999999973098,2.213166877634699
1669910118407213143,0.7324344606357642,6.984169848039767,8.63781256001932,-1.0,-5.999999999973098,2.1951574087216206
1669910118427464627,0.7324344606357642,6.984169848039767,8.63781256001932,-1.0,-5.999999999973098,2.1951574087216206
1669910118448052744,0.7324344606357642,6.984169848039767,8.63781256001932,-1.0,-5.999999999973098,2.1951574087216206
1669910118463893604,0.7324344606357642,6.984169848039767,8.63781256001932,-1.0,-5.999999999973098,2.1951574087216206
1669910118482223738,0.7324344606357642,6.984169848039767,8.63781256001932,-1.0,-5.999999999973098,2.1951574087216206
1669910118499171959,0.5691183929092204,6.933135019752421,8.48898511816633,-1.0,-5.999999999973097,2.2807641327454324
1669910118521691002,0.5691183929092204,6.933135019752421,8.48898511816633,-1.0,-5.999999999973097,2.2807641327454324
1669910118841310918,0.5691183929092204,6.933135019752421,8.48898511816633,-1.0,-5.999999999973097,2.2807641327454324
1669910118879420814,0.5691183929092204,6.933135019752421,8.48898511816633,-1.0,-5.999999999973097,2.2807641327454324
1669910118879442879,0.5691183929092204,6.933135019752421,8.48898511816633,-1.0,-5.999999999973097,2.2807641327454324
1669910118879460171,0.6284236733562266,6.9465424885481974,8.606689911977174,-1.0,-5.999999999973097,1.9920605421139475
1669910118879476526,0.6284236733562266,6.9465424885481974,8.606689911977174,-1.0,-5.999999999973097,1.9920605421139475
1669910118879515874,0.5805225767848614,6.915888767453007,8.576843689399986,-1.0,-5.999999999973082,1.99206054211392
