%time,field.force.x,field.force.y,field.force.z,field.torque.x,field.torque.y,field.torque.z
1669909388913578669,0.060877452494612225,-0.10804595904443208,10.379572608359183,-1.0,-5.667661442363003,3.1753120329710025e-12
1669909389158184575,0.0303262189906618,-0.1137500891014013,10.389574093673744,-1.0,-5.667661442362999,3.1793516571147795e-12
1669909389158204794,0.0303262189906618,-0.1137500891014013,10.389574093673744,-1.0,-5.852541032335529,3.1793516571147795e-12
1669909389172593102,0.0303262189906618,-0.1137500891014013,10.389574093673744,-1.0,-5.852541032335529,3.1793516571147795e-12
1669909389172611084,0.008602483277441663,-0.10296713387673732,10.389516463552932,-1.0,-5.999999999990796,3.187355584495364e-12
1669909389172628028,0.008602483277441663,-0.10296713387673732,10.389516463552932,-1.0,-5.725846187776971,3.187355584495364e-12
1669909389172644800,0.0015931003374552832,-0.09914348486884207,10.389481538579618,-1.0,-5.949285910884181,3.189034362282669e-12
1669909389172662094,0.0015931003374552832,-0.09914348486884207,10.389481538579618,-1.0,-5.949285910884181,3.189034362282669e-12
1669909389172679918,0.0015931003374552832,-0.09914348486884207,10.389481538579618,-1.0,-5.738649112757382,3.189034362282669e-12
1669909389172696814,0.0015931003374552832,-0.09914348486884207,10.389481538579618,-1.0,-5.738628473107796,3.189034362282669e-12
1669909389172713641,0.0015931003374552832,-0.09914348486884207,10.389481538579618,-1.0,-5.738605174370948,3.189034362282669e-12
1669909389172729867,0.0015931003374552832,-0.09914348486884207,10.389481538579618,-1.0,-5.738605174370948,3.189034362282669e-12
1669909389172746153,-0.02313392087831414,-0.10606623573469696,10.389449067957393,-1.0,-5.82441625535454,3.1886629334008026e-12
1669909389172761885,-0.02313392087831414,-0.10606623573469696,10.389449067957393,-1.0,-5.82441625535454,3.1886629334008026e-12
1669909389172778405,-0.02313392087831414,-0.10606623573469696,10.389449067957393,-1.0,-5.747422394235868,3.1886629334008026e-12
1669909389184332330,-0.02313392087831414,-0.10606623573469696,10.389449067957393,-1.0,-5.74746086121421,3.1886629334008026e-12
1669909389206107413,-0.027815139194351246,-0.10088153570164515,10.389390152187284,-1.0,-5.863027257518819,3.187468963946619e-12
1669909389248827755,-0.027815139194351246,-0.10088153570164515,10.389390152187284,-1.0,-5.863027257518819,3.187468963946619e-12
1669909389261475912,-0.027815139194351246,-0.10088153570164515,10.389390152187284,-1.0,-5.7563376518706715,3.187468963946619e-12
1669909389278915798,-0.027815139194351246,-0.10088153570164515,10.389390152187284,-1.0,-5.7563376518706715,3.187468963946619e-12
1669909389290023039,-0.027815139194351246,-0.10088153570164515,10.389390152187284,-1.0,-5.7565333989806415,3.187468963946619e-12
1669909389318283133,-0.027815139194351246,-0.10088153570164515,10.389390152187284,-1.0,-5.7565333989806415,3.187468963946619e-12
1669909389335133085,-0.027815139194351246,-0.10088153570164515,10.389390152187284,-1.0,-5.756718386776064,3.187468963946619e-12
1669909389344348014,-0.027815139194351246,-0.10088153570164515,10.389390152187284,-1.0,-5.756718386776064,3.187468963946619e-12
1669909389363880316,-0.06588318724772949,-0.08994769824554387,10.389381065315872,-1.0,-5.724330539637765,3.1840505921400796e-12
1669909389380369888,-0.06588318724772949,-0.08994769824554387,10.389381065315872,-1.0,-5.724330539637765,3.1840505921400796e-12
1669909389401382826,-0.06588318724772949,-0.08994769824554387,10.389381065315872,-1.0,-5.753463889243481,3.1840505921400796e-12
1669909389429429548,-0.06588318724772949,-0.08994769824554387,10.389381065315872,-1.0,-5.753536547887603,3.1840505921400796e-12
1669909389674302468,-0.06588318724772949,-0.08994769824554387,10.389381065315872,-1.0,-5.753619064057941,3.1840505921400796e-12
1669909389744062089,-0.06588318724772949,-0.08994769824554387,10.389381065315872,-1.0,-5.753619064057941,3.1840505921400796e-12
1669909389744103449,-0.0872351097531372,-0.06939681891856267,10.379368317346895,-1.0,-5.416370689646232,3.1712860933791297e-12
1669909389744106732,-0.0872351097531372,-0.06939681891856267,10.379368317346895,-1.0,-5.718927695684654,3.1712860933791297e-12
1669909389744183270,-0.0872351097531372,-0.06939681891856267,10.379368317346895,-1.0,-5.718927695684654,3.1712860933791297e-12
1669909389744186740,-0.06712433233615288,-0.06805276082439969,10.379306286167116,-1.0,-5.344689983028992,3.1601208478822074e-12
1669909389744188815,-0.053176667753714886,-0.06629877819523089,10.379229451479679,-1.0,-5.24998704189461,3.1528800725419296e-12
1669909389744190665,-0.053176667753714886,-0.06629877819523089,10.379229451479679,-1.0,-5.24998704189461,3.1528800725419296e-12
1669909389744192495,-0.053176667753714886,-0.06629877819523089,10.379229451479679,-1.0,-5.65398739735766,3.1528800725419296e-12
1669909389744209606,-0.053176667753714886,-0.06629877819523089,10.379229451479679,-1.0,-5.653413169098771,3.1528800725419296e-12
1669909389744360277,-0.053176667753714886,-0.06629877819523089,10.379229451479679,-1.0,-5.652665283871563,3.1528800725419296e-12
1669909389748786496,-0.053176667753714886,-0.06629877819523089,10.379229451479679,-1.0,-5.652665283871563,3.1528800725419296e-12
1669909389748813731,-0.07052897633005482,-0.0846598664550911,10.3691418352261,-1.0,-5.405601491901157,3.1459531729499756e-12
1669909389748816761,-0.07052897633005482,-0.0846598664550911,10.3691418352261,-1.0,-5.405601491901157,3.1459531729499756e-12
1669909389748819110,-0.07052897633005482,-0.0846598664550911,10.3691418352261,-1.0,-5.626766812374413,3.1459531729499756e-12
1669909389748821661,-0.07052897633005482,-0.0846598664550911,10.3691418352261,-1.0,-5.625904857361502,3.1459531729499756e-12
1669909389763012844,-0.03846206130283751,-0.08085719806841078,10.36884955154681,-1.0,-5.625904857361481,3.1311200801301085e-12
1669909389781804280,-0.025655280043947404,-0.07922786842410505,10.368701749566643,-1.0,-4.79154310916965,3.1259928891708153e-12
1669909389802941035,-0.025655280043947404,-0.07922786842410505,10.368701749566643,-1.0,-4.79154310916965,3.1259928891708153e-12
1669909389818925504,-0.025655280043947404,-0.07922786842410505,10.368701749566643,-1.0,-5.5386898572784755,3.1259928891708153e-12
1669909389848701602,-0.025655280043947404,-0.07922786842410505,10.368701749566643,-1.0,-5.537408228442492,3.1259928891708153e-12
1669909389864311903,-0.025655280043947404,-0.07922786842410505,10.368701749566643,-1.0,-5.536115748816038,3.1259928891708153e-12
1669909389899002806,-0.025655280043947404,-0.07922786842410505,10.368701749566643,-1.0,-5.534697205151271,3.1259928891708153e-12
1669909389910321012,-0.025655280043947404,-0.07922786842410505,10.368701749566643,-1.0,-5.534697205151271,3.1259928891708153e-12
1669909389920911571,-0.025655280043947404,-0.07922786842410505,10.368701749566643,-1.0,-5.532146082908481,3.1259928891708153e-12
1669909389942956152,-0.03482621934571663,-0.07893674248877941,10.368576992552516,-1.0,-5.532146082908475,3.124019133324259e-12
1669909389965838619,-0.03482621934571663,-0.07893674248877941,10.368576992552516,-1.0,-5.34562467476261,3.124019133324259e-12
1669909390199971608,-0.03482621934571663,-0.07893674248877941,10.368576992552516,-1.0,-5.34562467476261,3.124019133324259e-12
1669909390232696151,-0.00719681927029639,-0.08210230622401272,10.368252206028673,-1.0,-5.008343973472861,3.1167042739262173e-12
1669909390232730778,-0.00719681927029639,-0.08210230622401272,10.368252206028673,-1.0,-5.008343973472861,3.1167042739262173e-12
1669909390232736032,-0.00719681927029639,-0.08210230622401272,10.368252206028673,-1.0,-5.4520138316038596,3.1167042739262173e-12
1669909390232737908,-0.00719681927029639,-0.08210230622401272,10.368252206028673,-1.0,-5.4520138316038596,3.1167042739262173e-12
1669909390232740256,-0.00719681927029639,-0.08210230622401272,10.368252206028673,-1.0,-5.448517946926756,3.1167042739262173e-12
1669909390232742382,-0.00719681927029639,-0.08210230622401272,10.368252206028673,-1.0,-5.448517946926756,3.1167042739262173e-12
1669909390232744335,-0.00719681927029639,-0.08210230622401272,10.368252206028673,-1.0,-5.444931724444464,3.1167042739262173e-12
1669909390232746387,-0.00719681927029639,-0.08210230622401272,10.368252206028673,-1.0,-5.442976699775958,3.1167042739262173e-12
1669909390232748493,-0.0021544918674596403,-0.0854699593134048,10.39806156937983,-1.0,-5.442976699775935,3.1142230449426894e-12
1669909390233699571,-0.0021544918674596403,-0.0854699593134048,10.39806156937983,-1.0,-5.160036462157147,3.1142230449426894e-12
1669909390233706058,-0.0021544918674596403,-0.0854699593134048,10.39806156937983,-1.0,-5.409903895148199,3.1142230449426894e-12
1669909390240464549,-0.0021544918674596403,-0.0854699593134048,10.39806156937983,-1.0,-5.409903895148199,3.1142230449426894e-12
1669909390240482878,-0.0021544918674596403,-0.0854699593134048,10.39806156937983,-1.0,-5.405786791468987,3.1142230449426894e-12
1669909390265456971,-0.0021544918674596403,-0.0854699593134048,10.39806156937983,-1.0,-5.405786791468987,3.1142230449426894e-12
1669909390282207025,0.009089449168056402,-0.07683626809677353,10.427890014650808,-1.0,-5.196979075688273,3.1130914456165167e-12
1669909390305031982,0.009089449168056402,-0.07683626809677353,10.427890014650808,-1.0,-5.196979075688273,3.1130914456165167e-12
1669909390327004215,0.01119606371017623,-0.07201478339061045,10.427796654663593,-1.0,-5.34161857216043,3.114319923819972e-12
1669909390369567120,0.01119606371017623,-0.07201478339061045,10.427796654663593,-1.0,-5.34161857216043,3.114319923819972e-12
1669909390380647944,0.01119606371017623,-0.07201478339061045,10.427796654663593,-1.0,-5.369044133688264,3.114319923819972e-12
1669909390395037271,0.01119606371017623,-0.07201478339061045,10.427796654663593,-1.0,-5.365875245553612,3.114319923819972e-12
1669909390409521817,0.01119606371017623,-0.07201478339061045,10.427796654663593,-1.0,-5.365875245553612,3.114319923819972e-12
1669909390426583725,0.01119606371017623,-0.07201478339061045,10.427796654663593,-1.0,-5.362763014293839,3.114319923819972e-12
1669909390437719112,0.01119606371017623,-0.07201478339061045,10.427796654663593,-1.0,-5.360480334162222,3.114319923819972e-12
1669909390481679367,0.02088161398308802,-0.09925181455078333,10.43776855619711,-1.0,-5.360480334162214,3.115838022728064e-12
1669909390729291132,0.02088161398308802,-0.09925181455078333,10.43776855619711,-1.0,-5.362073220486399,3.115838022728064e-12
1669909390758170848,0.02088161398308802,-0.09925181455078333,10.43776855619711,-1.0,-5.362073220486399,3.115838022728064e-12
1669909390758245857,0.02088161398308802,-0.09925181455078333,10.43776855619711,-1.0,-5.352875634129578,3.115838022728064e-12
1669909390758251573,0.02088161398308802,-0.09925181455078333,10.43776855619711,-1.0,-5.352875634129578,3.115838022728064e-12
1669909390760012339,0.02088161398308802,-0.09925181455078333,10.43776855619711,-1.0,-5.348714675573284,3.115838022728064e-12
1669909390760026503,0.013847324510604747,-0.09043671580787765,10.437776104899537,-1.0,-5.572424740732623,3.1226310269357567e-12
1669909390760705458,0.013847324510604747,-0.09043671580787765,10.437776104899537,-1.0,-5.572424740732623,3.1226310269357567e-12
1669909390760755261,0.013847324510604747,-0.09043671580787765,10.437776104899537,-1.0,-5.355522002333677,3.1226310269357567e-12
1669909390760798415,0.013847324510604747,-0.09043671580787765,10.437776104899537,-1.0,-5.355522002333677,3.1226310269357567e-12
1669909390760841004,0.013847324510604747,-0.09043671580787765,10.437776104899537,-1.0,-5.351602919394666,3.1226310269357567e-12
1669909390760883349,0.013847324510604747,-0.09043671580787765,10.437776104899537,-1.0,-5.349574822613423,3.1226310269357567e-12
1669909390760925696,0.013847324510604747,-0.09043671580787765,10.437776104899537,-1.0,-5.347561696308215,3.1226310269357567e-12
1669909390769279250,-0.0017405389018410045,-0.060573886791651266,10.467888846456173,-1.0,-5.347561696308195,3.132360751825713e-12
1669909390769296134,-0.0017405389018410045,-0.060573886791651266,10.467888846456173,-1.0,-5.603894132385437,3.132360751825713e-12
1669909390777978830,-0.0017405389018410045,-0.060573886791651266,10.467888846456173,-1.0,-5.603894132385437,3.132360751825713e-12
1669909390815539448,-0.0017405389018410045,-0.060573886791651266,10.467888846456173,-1.0,-5.3685630005730856,3.132360751825713e-12
1669909390830477138,-0.0017405389018410045,-0.060573886791651266,10.467888846456173,-1.0,-5.3685630005730856,3.132360751825713e-12
1669909390830506934,-0.0017405389018410045,-0.060573886791651266,10.467888846456173,-1.0,-5.365315144184294,3.132360751825713e-12
1669909390845690250,-0.0017405389018410045,-0.060573886791651266,10.467888846456173,-1.0,-5.3634964892801404,3.132360751825713e-12
1669909390866290245,-0.029045861221051156,-0.05332889855452125,10.48802950776565,-1.0,-5.363496489280119,3.143323359344282e-12
1669909390888527517,-0.029045861221051156,-0.05332889855452125,10.48802950776565,-1.0,-5.6275950083789645,3.143323359344282e-12
1669909390906121847,-0.052248714726431694,-0.05228736033902728,10.48829622540655,-1.0,-5.627595008378936,3.158031760716826e-12
1669909390924297860,-0.052248714726431694,-0.05228736033902728,10.48829622540655,-1.0,-5.825513945716447,3.158031760716826e-12
1669909390947924858,-0.052248714726431694,-0.05228736033902728,10.48829622540655,-1.0,-5.430426794627993,3.158031760716826e-12
1669909390979294710,-0.052248714726431694,-0.05228736033902728,10.48829622540655,-1.0,-5.430426794627993,3.158031760716826e-12
1669909390995613944,-0.052248714726431694,-0.05228736033902728,10.48829622540655,-1.0,-5.427918214286354,3.158031760716826e-12
1669909391010015193,-0.052248714726431694,-0.05228736033902728,10.48829622540655,-1.0,-5.427918214286354,3.158031760716826e-12
1669909391251210420,-0.052248714726431694,-0.05228736033902728,10.48829622540655,-1.0,-5.4253274992303755,3.158031760716826e-12
1669909391300102135,-0.04625604474985716,-0.04317947155792423,10.498352351565858,-1.0,-5.550773458817532,3.15984936609098e-12
1669909391300146902,-0.04625604474985716,-0.04317947155792423,10.498352351565858,-1.0,-5.550773458817532,3.15984936609098e-12
1669909391300202573,-0.04625604474985716,-0.04317947155792423,10.498352351565858,-1.0,-5.42887818788437,3.15984936609098e-12
1669909391300245457,-0.08504703522497566,-0.053885776270355984,10.498840346698017,-1.0,-5.428878187884334,3.180781330511899e-12
1669909391300287024,-0.08504703522497566,-0.053885776270355984,10.498840346698017,-1.0,-5.99999999999044,3.180781330511899e-12
1669909391300329507,-0.08504703522497566,-0.053885776270355984,10.498840346698017,-1.0,-5.99999999999044,3.180781330511899e-12
1669909391300371410,-0.08504703522497566,-0.053885776270355984,10.498840346698017,-1.0,-5.496680665274708,3.180781330511899e-12
1669909391300412426,-0.08504703522497566,-0.053885776270355984,10.498840346698017,-1.0,-5.496680665274708,3.180781330511899e-12
1669909391300453570,-0.08504703522497566,-0.053885776270355984,10.498840346698017,-1.0,-5.495288118670436,3.180781330511899e-12
1669909391300533398,-0.08504703522497566,-0.053885776270355984,10.498840346698017,-1.0,-5.494435918609085,3.180781330511899e-12
1669909391300578299,-0.08504703522497566,-0.053885776270355984,10.498840346698017,-1.0,-5.493532682281671,3.180781330511899e-12
1669909391313481041,-0.10875348583894356,-0.0379600482549412,10.51897689082806,-1.0,-5.493532682281653,3.189924728150255e-12
1669909391313528421,-0.10875348583894356,-0.0379600482549412,10.51897689082806,-1.0,-5.747344649255742,3.189924728150255e-12
1669909391313572248,-0.10875348583894356,-0.0379600482549412,10.51897689082806,-1.0,-5.747344649255742,3.189924728150255e-12
1669909391323588091,-0.10875348583894356,-0.0379600482549412,10.51897689082806,-1.0,-5.516295179218339,3.189924728150255e-12
1669909391347611608,-0.10875348583894356,-0.0379600482549412,10.51897689082806,-1.0,-5.516295179218339,3.189924728150255e-12
1669909391376969146,-0.10875348583894356,-0.0379600482549412,10.51897689082806,-1.0,-5.515054915939974,3.189924728150255e-12
1669909391389847564,-0.14903942821454935,-0.045028346818764886,10.519181714250385,-1.0,-5.999999999990392,3.204260083973378e-12
1669909391404039352,-0.14903942821454935,-0.045028346818764886,10.519181714250385,-1.0,-5.999999999990392,3.204260083973378e-12
1669909391426506825,-0.16599537139589776,-0.04786955674910129,10.519239076510692,-1.0,-5.861036755919875,3.2113916781061378e-12
1669909391449785801,-0.16599537139589776,-0.04786955674910129,10.519239076510692,-1.0,-5.601331507430703,3.2113916781061378e-12
1669909391467155043,-0.16599537139589776,-0.04786955674910129,10.519239076510692,-1.0,-5.6012824710553915,3.2113916781061378e-12
1669909391480948905,-0.16599537139589776,-0.04786955674910129,10.519239076510692,-1.0,-5.6012824710553915,3.2113916781061378e-12
1669909391509407212,-0.16599537139589776,-0.04786955674910129,10.519239076510692,-1.0,-5.6011708165197485,3.2113916781061378e-12
1669909391530954604,-0.18046738301980683,-0.03825159878231105,10.529244620342102,-1.0,-5.601170816519744,3.212315540512545e-12
1669909391780739867,-0.18046738301980683,-0.03825159878231105,10.529244620342102,-1.0,-5.682212022980485,3.212315540512545e-12
1669909391812662437,-0.18046738301980683,-0.03825159878231105,10.529244620342102,-1.0,-5.682212022980485,3.212315540512545e-12
1669909391813370544,-0.19096728655918452,-0.038475407818195057,10.529241275256812,-1.0,-5.804546502190456,3.2159463697813706e-12
1669909391813391479,-0.19096728655918452,-0.038475407818195057,10.529241275256812,-1.0,-5.629036415600505,3.2159463697813706e-12
1669909391813394532,-0.19096728655918452,-0.038475407818195057,10.529241275256812,-1.0,-5.629036415600505,3.2159463697813706e-12
1669909391813396989,-0.19677925065655208,-0.039119610609621075,10.52924101474815,-1.0,-5.7279842166829855,3.2163164025099238e-12
1669909391813697199,-0.19703387386250215,-0.03925795402274282,10.529242279719265,-1.0,-5.646064967198127,3.2163768312954946e-12
1669909391813774985,-0.19703387386250215,-0.03925795402274282,10.529242279719265,-1.0,-5.646064967198127,3.2163768312954946e-12
1669909391813780803,-0.19703387386250215,-0.03925795402274282,10.529242279719265,-1.0,-5.64119951514529,3.2163768312954946e-12
1669909391813842237,-0.19703387386250215,-0.03925795402274282,10.529242279719265,-1.0,-5.64119951514529,3.2163768312954946e-12
1669909391813941906,-0.19703387386250215,-0.03925795402274282,10.529242279719265,-1.0,-5.641613945654689,3.2163768312954946e-12
1669909391814036470,-0.19703387386250215,-0.03925795402274282,10.529242279719265,-1.0,-5.641823604283386,3.2163768312954946e-12
1669909391825205211,-0.21693754393790093,-0.039444391285817226,10.52924474690793,-1.0,-5.639038350365946,3.2156283761409906e-12
1669909391825608401,-0.21693754393790093,-0.039444391285817226,10.52924474690793,-1.0,-5.642070553098516,3.2156283761409906e-12
1669909391825631385,-0.21693754393790093,-0.039444391285817226,10.52924474690793,-1.0,-5.642070553098516,-0.36762918345308604
1669909391849636345,-0.21460300517487352,-0.04125685452145812,10.529270607951288,-1.0,-5.602030967365439,-0.36762918345308704
1669909391872568683,-0.21460300517487352,-0.04125685452145812,10.529270607951288,-1.0,-5.6383194380893356,-0.36762918345308704
1669909391881563541,-0.21460300517487352,-0.04125685452145812,10.529270607951288,-1.0,-5.638523797542221,-4.761138260361318
1669909391905805116,-0.21460300517487352,-0.04125685452145812,10.529270607951288,-1.0,-5.638523797542221,-4.761138260361318
1669909391949583434,-0.21460300517487352,-0.04125685452145812,10.529270607951288,-1.0,-5.638851464689043,-6.358637809750204
1669909391963224090,-0.21460300517487352,-0.04125685452145812,10.529270607951288,-1.0,-5.639030204573007,-6.358637809750204
1669909391963318983,-0.21460300517487352,-0.04125685452145812,10.529270607951288,-1.0,-5.639030204573007,-6.358637809750204
1669909391982201088,-0.2213983996491599,-0.032799286902989486,10.519293394899353,-1.0,-5.584436665346301,-7.357074916359549
1669909392006918165,-0.2213983996491599,-0.032799286902989486,10.519293394899353,-1.0,-5.6335688009657,-7.357074916359549
1669909392026820468,-0.2213983996491599,-0.032799286902989486,10.519293394899353,-1.0,-5.6335688009657,-11.251364350315695
1669909392064216614,-0.2213983996491599,-0.032799286902989486,10.519293394899353,-1.0,-5.633845726418691,-11.251364350315695
1669909392295274412,-0.2213983996491599,-0.032799286902989486,10.519293394899353,-1.0,-5.633985304225788,-11.251364350315695
1669909392332024927,-0.2213983996491599,-0.032799286902989486,10.519293394899353,-1.0,-5.634129543359332,-11.95027112960494
1669909392332069921,-0.2213983996491599,-0.032799286902989486,10.519293394899353,-1.0,-5.634129543359332,-11.95027112960494
1669909392332112716,-0.228589044455581,-0.017754304876342997,10.529357843966945,-1.0,-5.440727711400441,-12.000000178810726
1669909392332153876,-0.228589044455581,-0.017754304876342997,10.529357843966945,-1.0,-5.440727711400441,-12.000000178810726
1669909392332195115,-0.21815697304465084,-0.022003632053476052,10.529398499601978,-1.0,-5.40002132414906,-12.00000017881073
1669909392332236618,-0.21254201294798902,-0.024235880544127467,10.52941443542893,-1.0,-5.4000213241490505,-12.000000178810732
1669909392332342490,-0.21254201294798902,-0.024235880544127467,10.52941443542893,-1.0,-5.494280795955984,-12.000000178810732
1669909392332412096,-0.21187821796386702,-0.02447844219175417,10.529415843875755,-1.0,-5.494280795955984,-12.000000178810732
1669909392332417454,-0.20954753246298038,-0.025257586645642996,10.529419611767064,-1.0,-5.528710386657286,-12.000000178810733
1669909392332478026,-0.20954753246298038,-0.025257586645642996,10.529419611767064,-1.0,-5.574228889835305,-12.000000178810733
1669909392332615038,-0.20954753246298038,-0.025257586645642996,10.529419611767064,-1.0,-5.574228889835305,-12.000000178810733
1669909392332760838,-0.20954753246298038,-0.025257586645642996,10.529419611767064,-1.0,-5.5737295162122535,-12.000000178810733
1669909392332857617,-0.20954753246298038,-0.025257586645642996,10.529419611767064,-1.0,-5.573470292109923,3.201361387516648e-12
1669909392341697880,-0.20954753246298038,-0.025257586645642996,10.529419611767064,-1.0,-5.573470292109923,3.201361387516648e-12
1669909392393159777,-0.20954753246298038,-0.025257586645642996,10.529419611767064,-1.0,-5.572978057380919,3.201361387516648e-12
1669909392408364533,-0.20608937692941726,-0.026348179142256664,10.529423376792401,-1.0,-5.572978057380918,3.20028405209319e-12
1669909392408422187,-0.20608937692941726,-0.026348179142256664,10.529423376792401,-1.0,-5.512947131845753,3.20028405209319e-12
1669909392422992906,-0.20608937692941726,-0.026348179142256664,10.529423376792401,-1.0,-5.565757410627526,3.20028405209319e-12
1669909392449345121,-0.20608937692941726,-0.026348179142256664,10.529423376792401,-1.0,-5.565447362588606,3.20028405209319e-12
1669909392464070091,-0.20608937692941726,-0.026348179142256664,10.529423376792401,-1.0,-5.565447362588606,3.20028405209319e-12
1669909392496205569,-0.19334569084316972,0.053191600035032885,10.539388763616397,-1.0,-5.345417941581105,3.1946569162769784e-12
1669909392514101045,-0.19334569084316972,0.053191600035032885,10.539388763616397,-1.0,-5.345417941581105,3.1946569162769784e-12
1669909392530488473,-0.19334569084316972,0.053191600035032885,10.539388763616397,-1.0,-5.540255347633681,3.1946569162769784e-12
1669909392547905413,-0.19334569084316972,0.053191600035032885,10.539388763616397,-1.0,-5.540255347633681,3.1946569162769784e-12
1669909392566342702,-0.18250735078854985,0.07024649129670146,10.53914803794563,-1.0,-5.351991917534092,3.1891441912465816e-12
1669909392581399960,-0.18250735078854985,0.07024649129670146,10.53914803794563,-1.0,-5.351991917534092,3.1891441912465816e-12
1669909392858127518,-0.18250735078854985,0.07024649129670146,10.53914803794563,-1.0,-5.5180330250717535,3.1891441912465816e-12
1669909392923767597,-0.18250735078854985,0.07024649129670146,10.53914803794563,-1.0,-5.517387664283496,3.1891441912465816e-12
1669909392923772036,-0.18250735078854985,0.07024649129670146,10.53914803794563,-1.0,-5.517387664283496,3.1891441912465816e-12
1669909392923779489,-0.18250735078854985,0.07024649129670146,10.53914803794563,-1.0,-5.5163532980091246,3.1891441912465816e-12
1669909392923783792,-0.18250735078854985,0.07024649129670146,10.53914803794563,-1.0,-5.515757896691533,3.1891441912465816e-12
1669909392923789598,-0.14944909085408933,0.34743905692387117,10.549041509293234,-1.0,-5.5157578966915795,3.1880030865084995e-12
1669909392923793223,-0.14944909085408933,0.34743905692387117,10.549041509293234,-1.0,-5.461927452259533,3.1880030865084995e-12
1669909392923797324,-0.14944909085408933,0.34743905692387117,10.549041509293234,-1.0,-5.461927452259533,3.1880030865084995e-12
1669909392923799898,-0.14944909085408933,0.34743905692387117,10.549041509293234,-1.0,-5.507687555243035,3.1880030865084995e-12
1669909392923802670,-0.14944909085408933,0.34743905692387117,10.549041509293234,-1.0,-5.507687555243035,3.1880030865084995e-12
1669909392923805309,-0.16980257594702183,0.3995995573039779,10.539015930278945,-1.0,-5.512225029254035,3.1927528862375594e-12
1669909392923809869,-0.16980257594702183,0.3995995573039779,10.539015930278945,-1.0,-5.512225029254035,3.1927528862375594e-12
1669909392930330023,-0.16980257594702183,0.3995995573039779,10.539015930278945,-1.0,-5.505882785612299,3.1927528862375594e-12
1669909392930373820,-0.1754044347290557,0.39227960292913705,10.539136981350754,-1.0,-5.684676980819297,3.1993140419121854e-12
1669909392930455061,-0.1754044347290557,0.39227960292913705,10.539136981350754,-1.0,-5.515007329811355,3.1993140419121854e-12
1669909392930597810,-0.17747288495663818,0.3888982245774063,10.539187737048058,-1.0,-5.515007329811362,3.201391581214201e-12
1669909392930645470,-0.17747288495663818,0.3888982245774063,10.539187737048058,-1.0,-5.54988430473177,3.201391581214201e-12
1669909392942590919,-0.17747288495663818,0.3888982245774063,10.539187737048058,-1.0,-5.54988430473177,3.201391581214201e-12
1669909392970530266,-0.17747288495663818,0.3888982245774063,10.539187737048058,-1.0,-5.5167732359222255,3.201391581214201e-12
1669909392991919029,-0.17747288495663818,2.9972028443665297,10.539187737048058,-1.0,-5.516064920407841,3.201391581214201e-12
1669909393011037841,-0.17747288495663818,2.9972028443665297,10.539187737048058,-1.0,-5.516064920407841,3.201391581214201e-12
1669909393026702294,-0.17747288495663818,6.492375106558303,10.539187737048058,-1.0,-5.515223611881678,3.201391581214201e-12
1669909393043691109,-0.17747288495663818,6.492375106558303,10.539187737048058,-1.0,-5.5147005838938385,3.201391581214201e-12
1669909393060647451,-0.17747288495663818,6.492375106558303,10.539187737048058,-1.0,-5.5147005838938385,3.201391581214201e-12
1669909393083082506,-0.17020239456453207,7.445971299581052,10.549255253395552,-1.0,-5.560570657601623,3.2038150815085535e-12
1669909393104920706,-0.17020239456453207,7.445971299581052,10.549255253395552,-1.0,-5.518246672949469,3.2038150815085535e-12
1669909393348284353,-0.17020239456453207,7.6123773350043304,10.549255253395552,-1.0,-5.517757159341499,3.2038150815085535e-12
1669909393405360038,-0.17020239456453207,7.6123773350043304,10.549255253395552,-1.0,-5.517757159341499,3.2038150815085535e-12
1669909393405362679,-0.17020239456453207,7.6123773350043304,10.549255253395552,-1.0,-5.516786762916214,3.2038150815085535e-12
1669909393405365185,-0.17020239456453207,7.6123773350043304,10.549255253395552,-1.0,-5.5162995036054285,3.2038150815085535e-12
1669909393405367847,-0.17020239456453207,7.6123773350043304,10.549255253395552,-1.0,-5.515812177282305,3.2038150815085535e-12
1669909393405369744,-0.18564581240742595,7.554095734207543,10.53959435853043,-1.0,-5.515812177282342,3.2169014455795773e-12
1669909393405888625,-0.18564581240742595,7.554095734207543,10.53959435853043,-0.9540519513145057,-5.7799485759331075,3.2169014455795773e-12
1669909393405895103,-0.18564581240742595,7.554095734207543,10.53959435853043,-1.0,-5.543256156133376,3.2169014455795773e-12
1669909393405897707,-0.18564581240742595,7.554095734207543,10.53959435853043,-1.0,-5.542933716482312,3.2169014455795773e-12
1669909393406002853,-0.18564581240742595,7.554095734207543,10.53959435853043,-1.0,-5.542933716482312,3.2169014455795773e-12
1669909393406045946,-0.18564581240742595,7.554095734207543,10.53959435853043,-1.0,-5.542322624945688,3.2169014455795773e-12
1669909393406088111,-0.20444553909845564,7.5144723995189215,10.549764250876958,-1.0,-5.5423226249457045,3.22356130040404e-12
1669909393419644128,-0.20444553909845564,7.5144723995189215,10.549764250876958,-0.967056519586162,-5.701174556188709,3.22356130040404e-12
1669909393419693985,-0.20444553909845564,7.5144723995189215,10.549764250876958,-1.0,-5.557902624666643,3.22356130040404e-12
1669909393421989341,-0.20444553909845564,7.5144723995189215,10.549764250876958,-1.0,-5.557902624666643,3.22356130040404e-12
1669909393433002807,-0.20444553909845564,7.5144723995189215,10.549764250876958,-1.0,-5.557541138462083,3.22356130040404e-12
1669909393449563745,-0.20444553909845564,7.5144723995189215,10.549764250876958,-1.0,-5.557321527341903,3.22356130040404e-12
1669909393466618314,-0.20444553909845564,7.5144723995189215,10.549764250876958,-1.0,-5.557321527341903,3.22356130040404e-12
1669909393483084027,-0.20444553909845564,6.182580385969117,10.549764250876958,-1.0,-5.5569624240073825,3.22356130040404e-12
1669909393516175995,-0.20373546441772136,6.137712559124852,10.54986361810162,-0.9400308319045954,-5.857715247294513,3.2285941349363706e-12
1669909393528554829,-0.20373546441772136,6.137712559124852,10.54986361810162,-0.9400308319045954,-5.857715247294513,3.2285941349363706e-12
1669909393543917872,-0.20373546441772136,6.137712559124852,10.54986361810162,-1.0,-5.573782351301714,3.2285941349363706e-12
1669909393561868436,-0.20373546441772136,6.137712559124852,10.54986361810162,-1.0,-5.573705709501493,3.2285941349363706e-12
1669909393585070635,-0.23925929987742622,6.104328531603155,10.549882759973261,-0.9974513348131058,-5.752263506542543,3.23129677207025e-12
1669909393628017126,-0.23925929987742622,6.104328531603155,10.549882759973261,-1.0,-5.583822295090253,3.23129677207025e-12
1669909393743072034,-0.23925929987742622,6.104328531603155,10.549882759973261,-1.0,-5.583822295090253,3.23129677207025e-12
1669909393743212686,-0.24324927450459016,6.102560765470443,10.54989072212733,-1.0,-5.650589777008283,3.2337235205969213e-12
1669909393767539725,-0.24324927450459016,6.102560765470443,10.54989072212733,-1.0,-5.650589777008283,3.2337235205969213e-12
1669909393767571900,-0.24550784995444772,6.101092841492165,10.549896507173852,-1.0,-5.632754567857987,3.2351779448126603e-12
1669909393767601500,-0.24550784995444772,6.101092841492165,10.549896507173852,-1.0,-5.632754567857987,3.2351779448126603e-12
1669909393767615173,-0.24550784995444772,6.101092841492165,10.549896507173852,-1.0,-5.595629740608771,3.2351779448126603e-12
1669909393767681705,-0.24550784995444772,6.101092841492165,10.549896507173852,-1.0,-5.595629740608771,3.2351779448126603e-12
1669909393772702006,-0.24550784995444772,6.101092841492165,10.549896507173852,-1.0,-5.595762739515808,3.2351779448126603e-12
1669909393785870859,-0.24550784995444772,5.934686806068886,10.549896507173852,-1.0,-5.595833560108076,3.2351779448126603e-12
1669909393806966767,-0.23887490501381475,5.941479847370662,10.549908096823563,-0.9973731364803327,-5.698546067440205,3.2362728265445784e-12
1669909393822963357,-0.23887490501381475,5.442261145054378,10.549908096823563,-0.9973731364803327,-5.698546067440205,3.2362728265445784e-12
1669909393843978406,-0.23887490501381475,5.442261145054378,10.549908096823563,-1.0,-5.602345830856016,3.2362728265445784e-12
1669909393861837062,-0.23887490501381475,5.442261145054378,10.549908096823563,-1.0,-5.602345830856016,3.2362728265445784e-12
1669909393884162451,-0.23887490501381475,4.443824038445033,10.549908096823563,-1.0,-5.602561861344055,3.2362728265445784e-12
1669909393906946275,-0.23887490501381475,4.443824038445033,10.549908096823563,-1.0,-5.602561861344055,3.2362728265445784e-12
1669909393940715246,-0.24802896656610696,2.4569001509390427,10.559908552733173,-1.0,-5.589465209587856,3.2340414706293803e-12
1669909393957255365,-0.24802896656610696,2.4569001509390427,10.559908552733173,-1.0,-5.589465209587856,3.2340414706293803e-12
1669909393973672465,-0.2434892110701443,2.460650827847664,10.559894669491177,-1.0,-5.512346004408551,3.2305373518567234e-12
1669909394013648829,-0.239336891937372,0.18767148275074655,10.559883378156144,-1.0,-5.520792270164106,3.2274280664661547e-12
1669909394030928231,-0.239336891937372,0.18767148275074655,10.559883378156144,-1.0,-5.520792270164106,3.2274280664661547e-12
1669909394030932739,-0.2376807419146015,0.18849831834645345,10.559879073619097,-1.0,-5.520792270164108,3.2265041965392084e-12
1669909394046864648,-0.2376807419146015,0.18849831834645345,10.559879073619097,-1.0,-5.5581665704505365,3.2265041965392084e-12
1669909394068432755,-0.2376807419146015,0.18849831834645345,10.559879073619097,-1.0,-5.5581665704505365,3.2265041965392084e-12
1669909394086684128,-0.2376807419146015,0.18849831834645345,10.559879073619097,-1.0,-5.582181871496363,3.2265041965392084e-12
1669909394103650325,-0.2376807419146015,0.18849831834645345,10.559879073619097,-1.0,-5.582181871496363,3.2265041965392084e-12
1669909394124178994,-0.2376807419146015,0.18849831834645345,10.559879073619097,-1.0,-5.582126248271679,3.2265041965392084e-12
1669909394147797431,-0.25450376722295437,0.1599623377336014,10.549871628173433,-1.0,-5.483557397188211,3.2243547262914147e-12
1669909394164846517,-0.25450376722295437,0.1599623377336014,10.549871628173433,-1.0,-5.483557397188211,3.2243547262914147e-12
1669909394411872882,-0.25450376722295437,0.1599623377336014,10.549871628173433,-1.0,-5.576088793963575,3.2243547262914147e-12
1669909394452084912,-0.25450376722295437,0.1599623377336014,10.549871628173433,-1.0,-5.576088793963575,3.2243547262914147e-12
1669909394452136417,-0.25450376722295437,0.1599623377336014,10.549871628173433,-1.0,-5.575962535993861,3.2243547262914147e-12
1669909394452181649,-0.25450376722295437,0.1599623377336014,10.549871628173433,-1.0,-5.575962535993861,3.2243547262914147e-12
1669909394452226216,-0.25450376722295437,0.1599623377336014,10.549871628173433,-1.0,-5.575828033641171,3.2243547262914147e-12
1669909394452269594,-0.2707562132067137,0.1666188357692716,10.54981750833759,-1.0,-5.169991603043533,3.215742425531309e-12
1669909394452312324,-0.2707562132067137,0.1666188357692716,10.54981750833759,-1.0,-5.169991603043533,3.215742425531309e-12
1669909394452354876,-0.2707562132067137,0.1666188357692716,10.54981750833759,-1.0,-5.549890840622362,3.215742425531309e-12
1669909394452397056,-0.2707562132067137,0.1666188357692716,10.54981750833759,-1.0,-5.549890840622362,3.215742425531309e-12
1669909394452439859,-0.2707562132067137,0.1666188357692716,10.54981750833759,-1.0,-5.54942443101465,3.215742425531309e-12
1669909394452483568,-0.2746046629055457,0.17622345375860154,10.549712408605815,-1.0,-5.027881236778486,3.206931929341228e-12
1669909394452528110,-0.2746046629055457,0.17622345375860154,10.549712408605815,-1.0,-5.518924005069679,3.206931929341228e-12
1669909394459271916,-0.2589328916664294,0.18594854015850842,10.549572873970057,-1.0,-5.032316700279499,3.199394401892705e-12
1669909394459707346,-0.2589328916664294,0.18594854015850842,10.549572873970057,-1.0,-5.032316700279499,3.199394401892705e-12
1669909394473580931,-0.24765043411319343,0.19303693597889954,10.549450211916804,-1.0,-5.290048178933523,3.1940550594872844e-12
1669909394493015771,-0.24765043411319343,0.19303693597889954,10.549450211916804,-1.0,-5.466561340209605,3.1940550594872844e-12
1669909394513386332,-0.24765043411319343,0.19303693597889954,10.549450211916804,-1.0,-5.466561340209605,3.1940550594872844e-12
1669909394529609642,-0.24765043411319343,0.19303693597889954,10.549450211916804,-1.0,-5.465037568099268,3.1940550594872844e-12
1669909394546294134,-0.24765043411319343,0.19303693597889954,10.549450211916804,-1.0,-5.464257685085817,3.1940550594872844e-12
1669909394564005735,-0.24765043411319343,0.19303693597889954,10.549450211916804,-1.0,-5.463461935708389,3.1940550594872844e-12
1669909394581507639,-0.24765043411319343,0.19303693597889954,10.549450211916804,-1.0,-5.463461935708389,3.1940550594872844e-12
1669909394608128686,-0.2271637192307998,0.18968073430676588,10.549319460930832,-1.0,-5.28440599869896,3.1873194044190596e-12
1669909394626270776,-0.2271637192307998,0.18968073430676588,10.549319460930832,-1.0,-5.28440599869896,3.1873194044190596e-12
1669909394642858244,-0.2271637192307998,0.18968073430676588,10.549319460930832,-1.0,-5.440704324888274,3.1873194044190596e-12
1669909394673982415,-0.2271637192307998,0.18968073430676588,10.549319460930832,-1.0,-5.439641491350947,3.1873194044190596e-12
1669909394780847316,-0.2271637192307998,0.18968073430676588,10.549319460930832,-1.0,-5.439641491350947,3.1873194044190596e-12
1669909394855516086,-0.2000675539573442,0.20160985078202126,10.549061291565557,-1.0,-5.12395558342088,3.181963094146623e-12
1669909394855518736,-0.2000675539573442,0.20160985078202126,10.549061291565557,-1.0,-5.12395558342088,3.181963094146623e-12
1669909394855520712,-0.2000675539573442,0.20160985078202126,10.549061291565557,-1.0,-5.404020751702536,3.181963094146623e-12
1669909394855639400,-0.18990689961917406,0.2132160061078321,10.548835779265714,-1.0,-5.094058855623346,3.1783949686748372e-12
1669909394855685218,-0.18990689961917406,0.2132160061078321,10.548835779265714,-1.0,-5.094058855623346,3.1783949686748372e-12
1669909394872432625,-0.18990689961917406,0.2132160061078321,10.548835779265714,-1.0,-5.381709285428755,3.1783949686748372e-12
1669909394872500836,-0.18990689961917406,0.658240116484667,10.548835779265714,-1.0,-5.381709285428755,3.1783949686748372e-12
1669909394872543738,-0.18990689961917406,0.658240116484667,10.548835779265714,-1.0,-5.379327484058371,3.1783949686748372e-12
1669909394872652964,-0.17538573465961949,0.6626520959044274,10.568735416419383,-1.0,-5.232763405105784,3.1776867973179433e-12
1669909394882357453,-0.17538573465961949,2.992338640739995,10.568735416419383,-1.0,-5.232763405105784,3.1776867973179433e-12
1669909394901429204,-0.17538573465961949,2.992338640739995,10.568735416419383,-1.0,-5.367194186671191,3.1776867973179433e-12
1669909394923856364,-0.17538573465961949,3.8243697119260607,10.568735416419383,-1.0,-5.367194186671191,3.1776867973179433e-12
1669909394936490267,-0.17538573465961949,3.8243697119260607,10.568735416419383,-1.0,-5.364637012245088,3.1776867973179433e-12
1669909394964638197,-0.17538573465961949,3.8243697119260607,10.568735416419383,-1.0,-5.363299820208343,3.1776867973179433e-12
1669909394980896522,-0.1597357392003368,4.00580301542658,10.578612529450428,-1.0,-5.363299820208351,3.1761829382805406e-12
1669909395003461038,-0.1597357392003368,4.00580301542658,10.578612529450428,-1.0,-5.262052727701039,3.1761829382805406e-12
1669909395025248730,-0.15603151591870235,4.010232325112811,10.578513800220207,-1.0,-5.235530089145159,3.17724783468161e-12
1669909395037857457,-0.15603155261976093,4.010232191801277,10.578513802373905,-1.0,-5.235530089145159,3.17724783468161e-12
1669909395065558889,-0.15614494033335646,4.010673478556775,10.578509391769852,-1.0,-5.3413290881622855,3.178278954125308e-12
1669909395080894703,-0.15614494033335646,4.010673478556775,10.578509391769852,-1.0,-5.3413290881622855,3.178278954125308e-12
1669909395103566243,-0.15614494033335646,4.010673478556775,10.578509391769852,-1.0,-5.336746360014417,3.178278954125308e-12
1669909395122535115,-0.15614494033335646,4.010673478556775,10.578509391769852,-1.0,-5.335350841062811,3.178278954125308e-12
1669909395140384146,-0.1561100154791436,4.020825656947266,10.578507649940324,-1.0,-5.332828848551683,3.178586803186595e-12
1669909395168182528,-0.1561100154791436,4.020825656947266,10.578507649940324,-1.0,-5.332828848551683,3.178586803186595e-12
1669909395188003684,-0.15771211844365582,4.018831681211675,10.578551874594972,-1.0,-5.358594541954527,3.181614631052318e-12
1669909395204516087,-0.15771211844365582,4.018831681211675,10.578551874594972,-1.0,-5.358594541954527,3.181614631052318e-12
1669909395454355620,-0.15771211844365582,4.018831681211675,10.578551874594972,-1.0,-5.331089678880362,3.181614631052318e-12
1669909395465774259,-0.15771211844365582,4.018831681211675,10.578551874594972,-1.0,-5.331089678880362,3.181614631052318e-12
1669909395465817046,-0.15771211844365582,4.018831681211675,10.578551874594972,-1.0,-5.328345267056317,3.181614631052318e-12
1669909395465858890,-0.15772127360818838,4.028823673790399,10.588551278258185,-1.0,-5.328345267056317,3.1816571578131377e-12
1669909395465896673,-0.15772127360818838,4.028823673790399,10.588551278258185,-1.0,-5.32600275268095,3.1816571578131377e-12
1669909395465934553,-0.1614182822992914,4.023555138038569,10.588658990777846,-1.0,-5.431325285340755,3.1851201457047364e-12
1669909395465973887,-0.1614182822992914,4.023555138038569,10.588658990777846,-1.0,-5.431325285340755,3.1851201457047364e-12
1669909395466012070,-0.1640731332919243,4.019453414800201,10.588737513824311,-1.0,-5.37428796337844,3.187803763240823e-12
1669909395466050210,-0.1640731332919243,4.019453414800201,10.588737513824311,-1.0,-5.37428796337844,3.187803763240823e-12
1669909395466090982,-0.1640731332919243,4.019453414800201,10.588737513824311,-1.0,-5.330998791334026,3.187803763240823e-12
1669909395466128686,-0.1640731332919243,4.019453414800201,10.588737513824311,-1.0,-5.329701054113131,3.187803763240823e-12
1669909395466167536,-0.1640731332919243,4.019453414800201,10.588737513824311,-1.0,-5.328378385560062,3.187803763240823e-12
1669909395480597516,-0.15441748185220774,4.018891623307007,10.588748666890762,-1.0,-5.328378385560064,3.189364160670905e-12
1669909395480641329,-0.15441748185220774,4.018891623307007,10.588748666890762,-1.0,-5.331776262109315,3.189364160670905e-12
1669909395502045826,-0.1586015801616284,4.012087807342003,10.588870736853842,-0.998741556079213,-5.460465810202829,3.1934327042520424e-12
1669909395532354380,-0.1586015801616284,4.012087807342003,10.588870736853842,-1.0,-5.33137094291033,3.1934327042520424e-12
1669909395547289071,-0.1586015801616284,4.012087807342003,10.588870736853842,-1.0,-5.33137094291033,3.1934327042520424e-12
1669909395564988006,-0.1644080962579656,4.001449242798505,10.58904142560699,-0.9996385141048781,-5.439579442986641,3.1983678181599225e-12
1669909395582463630,-0.1644080962579656,4.001449242798505,10.58904142560699,-1.0,-5.338714041059359,3.1983678181599225e-12
1669909395605302195,-0.1644080962579656,4.001449242798505,10.58904142560699,-1.0,-5.338714041059359,3.1983678181599225e-12
1669909395626332038,-0.1644080962579656,4.001449242798505,10.58904142560699,-1.0,-5.33644648309789,3.1983678181599225e-12
1669909395638357620,-0.1644080962579656,4.001449242798505,10.58904142560699,-1.0,-5.335243956009804,3.1983678181599225e-12
1669909395664780436,-0.1644080962579656,4.001449242798505,10.58904142560699,-1.0,-5.335243956009804,3.1983678181599225e-12
1669909395682813727,-0.1675867889241754,3.994621549937532,10.589137934038577,-1.0,-5.388243149001489,3.201106748578159e-12
1669909395698937666,-0.1675867889241754,3.994621549937532,10.589137934038577,-1.0,-5.337666111750702,3.201106748578159e-12
1669909395727146976,-0.1675867889241754,3.994621549937532,10.589137934038577,-1.0,-5.337666111750702,3.201106748578159e-12
1669909395830676529,-0.1675867889241754,3.994621549937532,10.589137934038577,-1.0,-5.335459529904385,3.201106748578159e-12
1669909395853689832,-0.1675867889241754,3.994621549937532,10.589137934038577,-1.0,-5.334326074801242,3.201106748578159e-12
1669909395853733196,-0.1675867889241754,3.994621549937532,10.589137934038577,-1.0,-5.334326074801242,3.201106748578159e-12
1669909395853773445,-0.1675867889241754,3.994621549937532,10.589137934038577,-1.0,-5.332050914656555,3.201106748578159e-12
1669909395853813039,-0.18673699103036367,3.9657858602565303,10.599377452836569,-0.9263897492912507,-5.6271035536558935,3.210010576364482e-12
1669909395853899780,-0.18673699103036367,3.9657858602565303,10.599377452836569,-0.9263897492912507,-5.346781207111498,3.210010576364482e-12
1669909395867494033,-0.19588433434815716,3.9468502795565437,10.599572768533285,-0.9678149371578758,-5.346781207111501,3.2174706482903263e-12
1669909395883651966,-0.19588433434815716,2.449194768654139,10.599572768533285,-1.0,-5.502531195213149,3.2174706482903263e-12
1669909395905765733,-0.19588433434815716,2.449194768654139,10.599572768533285,-1.0,-5.360789957669243,3.2174706482903263e-12
1669909395943477296,-0.19588433434815716,2.449194768654139,10.599572768533285,-1.0,-5.360789957669243,3.2174706482903263e-12
1669909395962493593,-0.19588433434815716,0.2859142592418498,10.599572768533285,-1.0,-5.359053542737754,3.2174706482903263e-12
1669909395962575747,-0.19588433434815716,0.2859142592418498,10.599572768533285,-1.0,-5.359053542737754,3.2174706482903263e-12
1669909395986371922,-0.19588433434815716,0.17370251773479645,10.599572768533285,-1.0,-5.357237666000681,3.2174706482903263e-12
1669909396005242044,-0.1885589976017909,0.17904422013851098,10.609616987714118,-0.992281331989703,-5.439757199038092,3.2194138065431534e-12
1669909396020526238,-0.1885589976017909,0.17904422013851098,10.609616987714118,-0.992281331989703,-5.439757199038092,3.2194138065431534e-12
1669909396043231512,-0.1885589976017909,0.17904422013851098,10.609616987714118,-1.0,-5.35952649510741,3.2194138065431534e-12
1669909396071763631,-0.1885589976017909,0.17904422013851098,10.609616987714118,-1.0,-5.358555641657564,3.2194138065431534e-12
1669909396090249791,-0.1885589976017909,0.17904422013851098,10.609616987714118,-1.0,-5.358555641657564,3.2194138065431534e-12
1669909396104121810,-0.1885589976017909,0.17904422013851098,10.609616987714118,-1.0,-5.356901320041206,3.2194138065431534e-12
1669909396138983616,-0.20817077157041952,0.15759274681109725,10.599733813714852,-0.9540876588060597,-5.662864890938587,3.2261013619317586e-12
1669909396156035248,-0.20817077157041952,0.15759274681109725,10.599733813714852,-1.0,-5.372975287393405,3.2261013619317586e-12
1669909396172364874,-0.21442215040814913,0.15362813813697643,10.59978561382042,-1.0,-5.3729752873934125,3.228956857555006e-12
1669909396188117030,-0.21442215040814913,0.15362813813697643,10.59978561382042,-1.0,-5.477365023587286,3.228956857555006e-12
1669909396205641700,-0.21442215040814913,0.15362813813697643,10.59978561382042,-1.0,-5.477365023587286,3.228956857555006e-12
1669909396228056510,-0.21442215040814913,0.15362813813697643,10.59978561382042,-1.0,-5.38161014788767,3.228956857555006e-12
1669909396256259962,-0.21442215040814913,0.15362813813697643,10.59978561382042,-1.0,-5.380888267766459,3.228956857555006e-12
1669909396495068159,-0.21561818329447663,0.15349859885684733,10.599791816929754,-1.0,-5.380888267766461,3.2293377073664407e-12
1669909396519810874,-0.21561818329447663,0.15349859885684733,10.599791816929754,-1.0,-5.403513189992847,3.2293377073664407e-12
1669909396520124301,-0.21561818329447663,0.15349859885684733,10.599791816929754,-1.0,-5.381256720387178,3.2293377073664407e-12
1669909396520131122,-0.22295374029002932,0.15771500982213088,10.599814436041338,-1.0,-5.381256720387192,3.2318023531376853e-12
1669909396520254643,-0.22295374029002932,0.15771500982213088,10.599814436041338,-1.0,-5.509256471027463,3.2318023531376853e-12
1669909396520303956,-0.22295374029002932,0.15771500982213088,10.599814436041338,-1.0,-5.393024183738598,3.2318023531376853e-12
1669909396520346095,-0.22295374029002932,0.15771500982213088,10.599814436041338,-1.0,-5.392303676305445,3.2318023531376853e-12
1669909396520388092,-0.22295374029002932,0.15771500982213088,10.599814436041338,-1.0,-5.392303676305445,3.2318023531376853e-12
1669909396520430477,-0.22295374029002932,0.15771500982213088,10.599814436041338,-1.0,-5.391023640409398,3.2318023531376853e-12
1669909396520471274,-0.22496714521556951,0.1409865226591102,10.599810804503331,-1.0,-5.391023640409403,3.232279057506062e-12
1669909396520512894,-0.22496714521556951,0.1409865226591102,10.599810804503331,-1.0,-5.433915761837156,3.232279057506062e-12
1669909396520554780,-0.22496714521556951,0.1409865226591102,10.599810804503331,-1.0,-5.393314923447624,3.232279057506062e-12
1669909396532267274,-0.22496714521556951,0.1409865226591102,10.599810804503331,-1.0,-5.393314923447624,3.232279057506062e-12
1669909396532277831,-0.22496714521556951,0.41960444860105434,10.599810804503331,-1.0,-5.392218516588575,3.232279057506062e-12
1669909396544720965,-0.22496714521556951,0.41960444860105434,10.599810804503331,-1.0,-5.392218516588575,3.232279057506062e-12
1669909396560686213,-0.23813647511951655,0.4280083215916724,10.599786126142197,-1.0,-5.4409679164438485,3.2324815647441673e-12
1669909396582790396,-0.23813647511951655,3.7561321220481965,10.599786126142197,-1.0,-5.4409679164438485,3.2324815647441673e-12
1669909396607850992,-0.23813647511951655,3.7561321220481965,10.599786126142197,-1.0,-5.395991467568481,3.2324815647441673e-12
1669909396623884712,-0.2399227748931834,5.428919634101195,10.599745774758254,-1.0,-5.395991467568492,3.232932622005537e-12
1669909396644609529,-0.2399227748931834,5.428919634101195,10.599745774758254,-1.0,-5.425657098552035,3.232932622005537e-12
1669909396662295340,-0.2399227748931834,5.428919634101195,10.599745774758254,-1.0,-5.397798108102879,3.232932622005537e-12
1669909396690617931,-0.2399227748931834,6.261592945334716,10.599745774758254,-1.0,-5.397798108102879,3.232932622005537e-12
1669909396707032908,-0.2399227748931834,6.261592945334716,10.599745774758254,-1.0,-5.396818140505042,3.232932622005537e-12
1669909396724188790,-0.2399227748931834,7.260030349967284,10.599745774758254,-1.0,-5.3963259042770115,3.232932622005537e-12
1669909396746309131,-0.24043494189423745,7.263698483822416,10.59972543706656,-1.0,-5.396325904277017,3.232817243319133e-12
1669909396764764216,-0.24043494189423745,7.263698483822416,10.59972543706656,-1.0,-5.404149849497037,3.232817243319133e-12
1669909396786696215,-0.24043494189423745,7.263698483822416,10.59972543706656,-1.0,-5.395792462546944,3.232817243319133e-12
1669909396918482883,-0.24043494189423745,7.263698483822416,10.59972543706656,-1.0,-5.395792462546944,3.232817243319133e-12
1669909396919003974,-0.24043494189423745,7.4301045192456945,10.59972543706656,-1.0,-5.39482866358084,3.232817243319133e-12
1669909396919011829,-0.24084208648763314,7.444516099282373,10.599698277142744,-1.0,-5.3948286635808484,3.2335384909628518e-12
1669909396919014543,-0.24084208648763314,7.444516099282373,10.599698277142744,-1.0,-5.4010016921071795,3.2335384909628518e-12
1669909396919017767,-0.24047926457002378,7.4462841826280535,10.599684731937037,-1.0,-5.382573159820108,3.233453764969949e-12
1669909396929140427,-0.24047926457002378,7.4462841826280535,10.599684731937037,-1.0,-5.382573159820108,3.233453764969949e-12
1669909396929142563,-0.23969606763753443,8.611830509224616,10.599676650471205,-1.0,-5.379011767697408,3.233194825158643e-12
1669909396946946526,-0.23969606763753443,8.611830509224616,10.599676650471205,-1.0,-5.390569692967241,3.233194825158643e-12
1669909396974134928,-0.23969606763753443,8.611830509224616,10.599676650471205,-1.0,-5.390028205594979,3.233194825158643e-12
1669909396990532262,-0.23969606763753443,8.778236544647894,10.599676650471205,-1.0,-5.390028205594979,3.233194825158643e-12
1669909397008197072,-0.23969606763753443,8.778236544647894,10.599676650471205,-1.0,-5.389084784758502,3.233194825158643e-12
1669909397023915921,-0.23953149286277958,8.798336760504492,10.599675203276242,-1.0,-5.389084784758503,3.2331452969645536e-12
1669909397040998166,-0.23953149286277958,8.798336760504492,10.599675203276242,-1.0,-5.38526661030231,3.2331452969645536e-12
1669909397063409237,-0.23953149286277958,8.798336760504492,10.599675203276242,-1.0,-5.38526661030231,3.2331452969645536e-12
1669909397088618125,-0.23634180755764916,8.800910271895306,10.599643146729548,-1.0,-5.333969011090961,3.2307533295586776e-12
1669909397107629999,-0.23634180755764916,8.800910271895306,10.599643146729548,-1.0,-5.333969011090961,3.2307533295586776e-12
1669909397135023724,-0.23634180755764916,8.800910271895306,10.599643146729548,-1.0,-5.379789464369944,3.2307533295586776e-12
1669909397151571230,-0.23634180755764916,8.800910271895306,10.599643146729548,-1.0,-5.379789464369944,3.2307533295586776e-12
1669909397171192463,-0.23634180755764916,8.800910271895306,10.599643146729548,-1.0,-5.378741607931456,3.2307533295586776e-12
1669909397185839942,-0.23634180755764916,8.800910271895306,10.599643146729548,-1.0,-5.378741607931456,3.2307533295586776e-12
1669909397202155867,-0.23634180755764916,8.800910271895306,10.599643146729548,-1.0,-5.37767535231993,3.2307533295586776e-12
1669909397224569998,-0.23400753068863603,8.783167455194286,10.599615872744893,-1.0,-5.377675352319936,3.2294230147291882e-12
1669909397242302573,-0.23400753068863603,8.783167455194286,10.599615872744893,-1.0,-5.336604999422181,3.2294230147291882e-12
1669909397292634035,-0.22755109338041277,8.790974806140783,10.599521794939296,-1.0,-5.16324379804874,3.2260967874372e-12
1669909397308240412,-0.22755109338041277,8.790974806140783,10.599521794939296,-1.0,-5.359109633619373,3.2260967874372e-12
1669909397308375674,-0.22755109338041277,8.790974806140783,10.599521794939296,-1.0,-5.359109633619373,3.2260967874372e-12
1669909397586600773,-0.22755109338041277,8.790974806140783,10.599521794939296,-1.0,-5.3578556282752885,3.2260967874372e-12
1669909397586651713,-0.22755109338041277,8.790974806140783,10.599521794939296,-1.0,-5.357212542488682,3.2260967874372e-12
1669909397586742488,-0.22755109338041277,8.790974806140783,10.599521794939296,-1.0,-5.356569523426338,3.2260967874372e-12
1669909397586794112,-0.21664255340032607,8.821882252911509,10.599509001482751,-1.0,-5.3275156275933755,3.225836201829429e-12
1669909397586835959,-0.21664255340032607,8.821882252911509,10.599509001482751,-1.0,-5.3275156275933755,3.225836201829429e-12
1669909397586876597,-0.21664255340032607,8.821882252911509,10.599509001482751,-1.0,-5.352780599741154,3.225836201829429e-12
1669909397586918263,-0.21664255340032607,8.821882252911509,10.599509001482751,-1.0,-5.352780599741154,3.225836201829429e-12
1669909397586959667,-0.21664255340032607,8.821882252911509,10.599509001482751,-1.0,-5.351594354155181,3.225836201829429e-12
1669909397587003662,-0.21172261017425248,8.86427315944413,10.599460857835387,-1.0,-5.225666170022839,3.224558850224814e-12
1669909397587042975,-0.21172261017425248,8.86427315944413,10.599460857835387,-1.0,-5.255713834391834,3.224558850224814e-12
1669909397587086158,-0.2075083431064842,8.86362382107296,10.599440501101173,-1.0,-5.255713834391838,3.2242937995888355e-12
1669909397595824019,-0.2075083431064842,8.86362382107296,10.599440501101173,-1.0,-5.255713834391838,3.2242937995888355e-12
1669909397595870389,-0.2075083431064842,8.86362382107296,10.599440501101173,-1.0,-5.331095230841729,3.2242937995888355e-12
1669909397595915538,-0.2075083431064842,8.86362382107296,10.599440501101173,-1.0,-5.331095230841729,3.2242937995888355e-12
1669909397606291288,-0.2075083431064842,8.86362382107296,10.599440501101173,-1.0,-5.329597107903935,3.2242937995888355e-12
1669909397623719987,-0.2075083431064842,3.038764678769493,10.599440501101173,-1.0,-5.329597107903935,3.2242937995888355e-12
1669909397656600709,-0.19500013333124513,3.0574585972960837,10.58943712238465,-1.0,-5.285089211380386,3.223771269539423e-12
1669909397674676226,-0.19500013333124513,3.0574585972960837,10.58943712238465,-1.0,-5.3224660368224335,3.223771269539423e-12
1669909397698130923,-0.19500013333124513,0.28274794208368115,10.58943712238465,-1.0,-5.3224660368224335,3.223771269539423e-12
1669909397713997651,-0.19081630404887662,0.2775494490446266,10.589450982046833,-1.0,-5.24302864270312,3.224226575538012e-12
1669909397730748218,-0.19081630404887662,0.2775494490446266,10.589450982046833,-1.0,-5.24302864270312,3.224226575538012e-12
1669909397746585895,-0.19081630404887662,0.2775494490446266,10.589450982046833,-1.0,-5.311557776464408,3.224226575538012e-12
1669909397774232417,-0.19081630404887662,0.2775494490446266,10.589450982046833,-1.0,-5.310455979820243,3.224226575538012e-12
1669909397790566938,-0.19081630404887662,-0.002353478532869005,8.813177284432163,-1.0,-5.310455979820243,3.224226575538012e-12
1669909397808815259,-0.19000761083845835,0.005024591569214837,8.8131900539207,-1.0,-5.293232447183162,3.2247024930134977e-12
1669909397824498391,-0.19000761083845835,-4.4879424254257385,4.319580834131194,-1.0,-5.293232447183162,3.2247024930134977e-12
1669909397938240240,-0.18835751456736746,-4.498056717454028,4.319640961677968,-0.9935962617304412,-5.277106472861287,3.2274126213579764e-12
1669909397984432864,-0.18835751456736746,-4.498056717454028,4.319640961677968,-1.0,-5.301852188060498,3.2274126213579764e-12
1669909397984515706,-0.18835751456736746,-7.993228979645802,-1.1717635717082615,-1.0,-5.300658110729932,3.2274126213579764e-12
1669909397984583964,-0.18835751456736746,-7.993228979645802,-1.1717635717082615,-1.0,-5.300658110729932,3.2274126213579764e-12
1669909397984625168,-0.18835751456736746,-7.993228979645802,-1.1717635717082615,-1.0,-5.299158858669106,3.2274126213579764e-12
1669909397984664778,-0.18835751456736746,-7.993228979645802,-1.1717635717082615,-1.0,-5.299158858669106,3.2274126213579764e-12
1669909397984703638,-0.17829987284109214,-7.980590669961163,-1.1717181527184817,-0.9981498381813202,-5.296445558982519,3.230655731195315e-12
1669909397997322059,-0.17829987284109214,-9.14543411001701,-5.6653278195428225,-0.9981498381813202,-5.296445558982519,3.230655731195315e-12
1669909397997409259,-0.17829987284109214,-9.14543411001701,-5.6653278195428225,-1.0,-5.295620914758319,3.230655731195315e-12
1669909398024297526,-0.18024640332212402,-9.15968790275285,-7.662114280205039,-0.9498292529743689,-5.350149962734642,3.2358946959605824e-12
1669909398041272222,-0.18024640332212402,-9.15968790275285,-7.662114280205039,-0.9498292529743689,-5.350149962734642,3.2358946959605824e-12
1669909398064047143,-0.18024640332212402,-9.15968790275285,-7.662114280205039,-1.0,-5.296625093864135,3.2358946959605824e-12
1669909398081049673,-0.18024640332212402,-7.662032391850447,-9.410343545418051,-1.0,-5.296625093864135,3.2358946959605824e-12
1669909398103570519,-0.18024640332212402,-7.662032391850447,-9.410343545418051,-1.0,-5.294917402049022,3.2358946959605824e-12
1669909398139450055,-0.18024640332212402,-7.662032391850447,-9.410343545418051,-1.0,-5.293756259659695,3.2358946959605824e-12
1669909398154570857,-0.1831324607515614,-7.682185261886327,-9.400283977959578,-1.0,-5.293756259659693,3.241981518792768e-12
1669909398259693522,-0.1831324607515614,-7.682185261886327,-9.400283977959578,-0.9786164516186491,-5.351432304376096,3.241981518792768e-12
1669909398303679264,-0.1831324607515614,-7.682185261886327,-9.400283977959578,-1.0,-5.296866575516348,3.241981518792768e-12
1669909398303719986,-0.1831324607515614,-7.682185261886327,-9.400283977959578,-1.0,-5.296866575516348,3.241981518792768e-12
1669909398303723073,-0.1831324607515614,-7.682185261886327,-9.400283977959578,-1.0,-5.295265264109717,3.241981518792768e-12
1669909398303725441,-0.1831324607515614,-7.682185261886327,-9.400283977959578,-1.0,-5.2944331532664455,3.241981518792768e-12
1669909398303728037,-0.1831324607515614,-7.682185261886327,-9.400283977959578,-1.0,-5.293465147991501,3.241981518792768e-12
1669909398340062455,-0.1831324607515614,-7.682185261886327,-9.400283977959578,-1.0,-5.293465147991501,3.241981518792768e-12
1669909398340232156,-0.11327961758896529,-7.712114838632557,-9.44016493686468,-0.9184600321317358,-5.475607659622653,3.257363596274131e-12
1669909398360647357,-0.11327961758896529,-7.712114838632557,-9.44016493686468,-1.0,-5.310057432669359,3.257363596274131e-12
