%time,field.force.x,field.force.y,field.force.z,field.torque.x,field.torque.y,field.torque.z
1669910048887858434,1.7443602105133598,-4.684345887444741,7.58048610193573,-1.0,-5.51977215850717,-2.015934213989746
1669910048906291837,1.760907625530413,-4.676565165758943,7.580512686811869,-1.0,-5.5197721585071395,-2.0159342139897607
1669910048923173558,1.760907625530413,-4.676565165758943,7.580512686811869,-1.0,-5.806436259559126,-2.0159342139897607
1669910048940679285,1.760907625530413,-4.676565165758943,7.580512686811869,-1.0,-5.806436259559126,-2.0159342139897607
1669910048955962788,1.760907625530413,-4.676565165758943,7.580512686811869,-1.0,-5.999999999974897,-2.0159342139897607
1669910048995884666,1.7474527710420402,-4.353991980791902,7.2292404614319254,-1.0,-5.999999999974897,-1.5654477104482913
1669910049014504825,1.7474527710420402,-4.353991980791902,7.2292404614319254,-1.0,-5.999999999974897,-1.5654477104482913
1669910049034943009,1.7560081247552182,-4.369613911124469,7.239238440721437,-1.0,-5.900881698454016,-1.5654477104482964
1669910049048565538,1.7560081247552182,-4.369613911124469,7.239238440721437,-1.0,-5.900881698454016,-1.5654477104482964
1669910049068710683,1.7560081247552182,-4.369613911124469,7.239238440721437,-1.0,-5.999999999974886,-1.5654477104482964
1669910049084943366,1.7054875835786052,-4.654762835155838,7.44544533632887,-1.0,-4.664137777144613,-0.0789248454323183
1669910049104141941,1.7054875835786052,-4.654762835155838,7.44544533632887,-1.0,-5.969722421646546,-0.0789248454323183
1669910049123992565,1.7054875835786052,-4.654762835155838,7.44544533632887,-1.0,-5.969722421646546,-0.0789248454323183
1669910049147001532,1.7054875835786052,-4.654762835155838,7.44544533632887,-1.0,-5.969324792663541,-0.0789248454323183
1669910049181741864,1.7054875835786052,-4.654762835155838,7.44544533632887,-1.0,-5.9691085484513176,-0.0789248454323183
1669910049428973813,1.823201541603584,-3.799662680279128,7.438244350181943,-1.0,-5.9691085484513176,-1.9037092477021884
1669910049429018329,1.8515970472865304,-3.7988760699603144,7.4380899795473,-1.0,-5.592827170849532,-1.903709247702205
1669910049463449654,1.8515970472865304,-3.7988760699603144,7.4380899795473,-1.0,-5.934217958278572,-1.903709247702205
1669910049463561901,1.8515970472865304,-3.7988760699603144,7.4380899795473,-1.0,-5.9337855380772195,-1.903709247702205
1669910049463607283,1.8515970472865304,-3.7988760699603144,7.4380899795473,-1.0,-5.9337855380772195,-1.903709247702205
1669910049463919767,1.8515970472865304,-3.7988760699603144,7.4380899795473,-1.0,-5.9329589435019,-1.903709247702205
1669910049463977500,1.8515970472865304,-3.7988760699603144,7.4380899795473,-1.0,-5.9325347863333375,-1.903709247702205
1669910049464023326,1.8515970472865304,-3.7988760699603144,7.4380899795473,-1.0,-5.9325347863333375,-1.903709247702205
1669910049464110324,1.9298156312089227,-3.752319757935337,7.447015252027448,-1.0,-4.777828712525294,-1.9037092477022572
1669910049464161975,1.9298156312089227,-3.752319757935337,7.447015252027448,-1.0,-4.777828712525294,-1.9037092477022572
1669910049466795354,1.9298156312089227,-3.752319757935337,7.447015252027448,-1.0,-5.802266372682301,-1.9037092477022572
1669910049466909723,1.9298156312089227,-3.752319757935337,7.447015252027448,-1.0,-5.802266372682301,-1.9037092477022572
1669910049467056627,1.9298156312089227,-3.752319757935337,7.447015252027448,-1.0,-5.79974243998048,-1.9037092477022572
1669910049469833357,1.9298156312089227,-3.752319757935337,7.447015252027448,-1.0,-5.79974243998048,-1.9037092477022572
1669910049469874082,1.9444783473625937,-3.6173569765097353,7.465503410758026,-1.0,-4.8337105755616605,-1.9037092477023072
1669910049483700457,1.9444783473625937,-3.6173569765097353,7.465503410758026,-1.0,-5.693758845492862,-1.9037092477023072
1669910049499700322,1.9444783473625937,-3.6173569765097353,7.465503410758026,-1.0,-5.693758845492862,-1.9037092477023072
1669910049517777801,1.9444783473625937,-3.6173569765097353,7.465503410758026,-1.0,-5.689860229984255,-1.9037092477023072
1669910049540821246,1.9444783473625937,-3.6173569765097353,7.465503410758026,-1.0,-5.689860229984255,-1.9037092477023072
1669910049556716006,1.9444783473625937,-3.6173569765097353,7.465503410758026,-1.0,-5.686058431286507,-1.9037092477023072
1669910049578583537,2.119953874271227,-2.3560069556771195,7.413088422267927,-1.0,-3.846225314683734,-3.4590165316998878
1669910049597663920,2.119953874271227,-2.3560069556771195,7.413088422267927,-1.0,-3.846225314683734,-3.4590165316998878
1669910049618385017,2.119953874271227,-2.3560069556771195,7.413088422267927,-1.0,-5.572957585677093,-3.4590165316998878
1669910049643953466,2.119953874271227,-2.3560069556771195,7.413088422267927,-1.0,-5.570326855683229,-3.4590165316998878
1669910049663938239,2.154205548459499,-2.329181033205679,7.411575656129853,-1.0,-4.521541074181294,-3.4590165316999055
1669910049679871648,2.255107569390743,-2.0626490293261317,7.410982142879502,-1.0,-4.521541074181294,-3.8818202912747957
1669910049695989340,2.255107569390743,-2.0626490293261317,7.410982142879502,-1.0,-5.4981302501694636,-3.8818202912747957
1669910049718672710,2.255107569390743,-2.0626490293261317,7.410982142879502,-1.0,-5.4981302501694636,-3.8818202912747957
1669910049857409609,2.255107569390743,-2.0626490293261317,7.410982142879502,-1.0,-5.492134120665927,-3.8818202912747957
1669910049857459846,2.255107569390743,-2.0626490293261317,7.410982142879502,-1.0,-5.492134120665927,-3.8818202912747957
1669910049857503368,2.3740717348398857,-1.450201171469381,7.386629920198456,-1.0,-5.48610053449461,-3.7098468840062715
1669910049857545556,2.3877349425957646,-1.3597178562759384,7.385978541610141,-1.0,-5.486100534494588,-3.7098468840062733
1669910049857673876,2.4002885006587875,-1.3483215770662302,7.385301164997002,-1.0,-5.042397151542132,-3.709846884006269
1669910049874459052,2.4002885006587875,-1.3483215770662302,7.385301164997002,-1.0,-5.042397151542132,-3.709846884006269
1669910049874574480,2.4002885006587875,-1.3483215770662302,7.385301164997002,-1.0,-5.424376075417103,-3.709846884006269
1669910049886885205,2.4002885006587875,-1.3483215770662302,7.385301164997002,-1.0,-5.420705566989599,-3.709846884006269
1669910049908339663,2.4002885006587875,-1.3483215770662302,7.385301164997002,-1.0,-5.420705566989599,-3.709846884006269
1669910049927259184,2.546386339537419,-0.9469612590015406,6.747662894142052,-1.0,-5.414448101323161,-3.791836649173505
1669910049948917193,2.546386339537419,-0.9469612590015406,6.747662894142052,-1.0,-5.411060274943479,-3.791836649173505
1669910049965462959,2.586215985758669,-0.872371821955968,6.787529704781669,-1.0,-5.413194511367772,-3.7918366491734923
1669910049982602174,2.586215985758669,-0.872371821955968,6.787529704781669,-1.0,-5.413194511367772,-3.7918366491734923
1669910049999821125,2.586215985758669,-0.872371821955968,6.787529704781669,-1.0,-5.4011837044383535,-3.7918366491734923
1669910050016528420,2.586215985758669,-0.872371821955968,6.787529704781669,-1.0,-5.4011837044383535,-3.7918366491734923
1669910050038718795,2.586215985758669,-0.872371821955968,6.787529704781669,-1.0,-5.394544646607386,-3.7918366491734923
1669910050062169095,2.586215985758669,-0.872371821955968,6.787529704781669,-1.0,-5.391144263112776,-3.7918366491734923
1669910050078649844,2.6060548233957253,-0.8344964058761006,6.818138871364582,-1.0,-5.999999999974394,-3.7918366491734585
1669910050100685669,2.6060548233957253,-0.8344964058761006,6.818138871364582,-1.0,-5.421851155651351,-3.7918366491734585
1669910050123301532,2.5432440447778664,-0.5908998036448365,7.044281575851429,-1.0,-5.4185462762928385,-4.225380420678815
1669910050138855715,2.5432440447778664,-0.5908998036448365,7.044281575851429,-1.0,-5.4185462762928385,-4.225380420678815
1669910050172696236,2.5014705722210793,-0.6042125247384342,7.045670009839412,-1.0,-5.999999999974352,-4.225380420678771
1669910050188370249,2.5014705722210793,-0.6042125247384342,7.045670009839412,-1.0,-5.999999999974352,-4.225380420678771
1669910050229953511,2.5014705722210793,-0.6042125247384342,7.045670009839412,-1.0,-5.485000453802893,-4.225380420678771
1669910050470487920,2.5014705722210793,-0.6042125247384342,7.045670009839412,-1.0,-5.482268249614664,-4.225380420678771
1669910050470584735,2.5014705722210793,-0.6042125247384342,7.045670009839412,-1.0,-5.482268249614664,-4.225380420678771
1669910050512291046,2.5014705722210793,-0.6042125247384342,7.045670009839412,-1.0,-5.477161860144771,-4.225380420678771
1669910050512337278,2.690791315305033,0.03459278643476649,6.976174868333217,-1.0,-5.477161860144771,-4.537885487073577
1669910050512377757,2.686812763732478,0.10631894217692578,6.99690057683371,-1.0,-5.866266832470968,-4.537885487073548
1669910050512416171,2.686812763732478,0.10631894217692578,6.99690057683371,-1.0,-5.866266832470968,-4.537885487073548
1669910050512453518,2.686812763732478,0.10631894217692578,6.99690057683371,-1.0,-5.511934166984305,-4.537885487073548
1669910050512522919,2.686812763732478,0.10631894217692578,6.99690057683371,-1.0,-5.50960547842387,-4.537885487073548
1669910050512563963,2.686812763732478,0.10631894217692578,6.99690057683371,-1.0,-5.5069257059255765,-4.537885487073548
1669910050512601636,2.686812763732478,0.10631894217692578,6.99690057683371,-1.0,-5.5069257059255765,-4.537885487073548
1669910050512640869,2.686812763732478,0.10631894217692578,6.99690057683371,-1.0,-5.502658521109091,-4.537885487073548
1669910050512677058,2.686812763732478,0.10631894217692578,6.99690057683371,-1.0,-5.500328458117748,-4.537885487073548
1669910050512711959,2.6498611270760963,0.152215593704083,6.998604985974503,-1.0,-5.500328458117707,-4.537885487073487
1669910050512747394,2.6498611270760963,0.152215593704083,6.998604985974503,-1.0,-5.999999999974285,-4.537885487073487
1669910050528213089,2.6498611270760963,0.152215593704083,6.998604985974503,-1.0,-5.618416208247778,-4.537885487073487
1669910050528257600,2.6498611270760963,0.152215593704083,6.998604985974503,-1.0,-5.618416208247778,-4.537885487073487
1669910050560881671,2.6498611270760963,0.152215593704083,6.998604985974503,-1.0,-5.615363704388387,-4.537885487073487
1669910050578532727,2.6498611270760963,0.152215593704083,6.998604985974503,-1.0,-5.613457440493706,-4.537885487073487
1669910050595544824,2.6498611270760963,0.152215593704083,6.998604985974503,-1.0,-5.613457440493706,-4.537885487073487
1669910050611121150,2.611662935916278,0.18360075007164361,6.979612519869601,-1.0,-5.999999999974257,-4.537885487073434
1669910050628667543,2.611662935916278,0.18360075007164361,6.979612519869601,-1.0,-5.718299166441601,-4.537885487073434
1669910050645752440,2.611662935916278,0.18360075007164361,6.979612519869601,-1.0,-5.718299166441601,-4.537885487073434
1669910050693138228,2.611662935916278,0.18360075007164361,6.979612519869601,-1.0,-5.71672677667519,-4.537885487073434
1669910050710418187,2.6772632119096254,0.5788784141370047,7.0677734519336575,-1.0,-5.71672677667519,-4.259752929204477
1669910050710461624,2.6772632119096254,0.5788784141370047,7.0677734519336575,-1.0,-5.715119929421585,-4.259752929204477
1669910050728399852,2.6772632119096254,0.5788784141370047,7.0677734519336575,-1.0,-5.715119929421585,-4.259752929204477
1669910050745696877,2.6772632119096254,0.5788784141370047,7.0677734519336575,-1.0,-5.7135934093347815,-4.259752929204477
1669910050761888145,2.620363632499883,0.6200021717313695,7.058407116185455,-0.9739591558002336,-5.999999999974248,-4.259752929204425
1669910050779052575,2.620363632499883,0.6200021717313695,7.058407116185455,-0.9739591558002336,-5.999999999974248,-4.259752929204425
1669910050795007696,2.620363632499883,0.6200021717313695,7.058407116185455,-1.0,-5.836449428493775,-4.259752929204425
1669910050818389024,2.692770162880132,0.8906430963043142,7.040961432706146,-1.0,-5.836449428493775,-4.120229333632907
1669910050922128732,2.692770162880132,0.8906430963043142,7.040961432706146,-1.0,-5.8365198895748875,-4.120229333632907
1669910050956816811,2.692770162880132,0.8906430963043142,7.040961432706146,-1.0,-5.8365198895748875,-4.120229333632907
1669910050956861766,2.692770162880132,0.8906430963043142,7.040961432706146,-1.0,-5.836588759546402,-4.120229333632907
1669910050956902171,2.662758982721191,0.9337250605189389,7.0310412032114264,-1.0,-5.83658875954641,-4.120229333632852
1669910050956942617,2.662758982721191,0.9337250605189389,7.0310412032114264,-1.0,-5.999999999974256,-4.120229333632852
1669910050957017503,2.662758982721191,0.9337250605189389,7.0310412032114264,-1.0,-5.967735617929637,-4.120229333632852
1669910050975239817,2.662758982721191,0.9337250605189389,7.0310412032114264,-1.0,-5.967735617929637,-4.120229333632852
1669910050992308374,2.662758982721191,0.9337250605189389,7.0310412032114264,-1.0,-5.969385187190318,-4.120229333632852
1669910051010180328,2.662758982721191,0.9337250605189389,7.0310412032114264,-1.0,-5.970276773401504,-4.120229333632852
1669910051029751702,2.6271834719529434,0.9868594408219437,7.000604650048294,-1.0,-5.999999999974282,-4.120229333632818
1669910051049640581,2.6271834719529434,0.9868594408219437,7.000604650048294,-1.0,-5.999999999974282,-4.120229333632818
1669910051068545285,2.6271834719529434,0.9868594408219437,7.000604650048294,-1.0,-5.999999999974282,-4.120229333632818
1669910051088167901,2.5695093995307916,1.1265626221423504,7.034024150164536,-1.0,-5.999999999974299,-3.860705941909169
1669910051134711805,2.5695093995307916,1.1265626221423504,7.034024150164536,-1.0,-5.999999999974299,-3.860705941909169
1669910051151530755,2.5695093995307916,1.1265626221423504,7.034024150164536,-1.0,-5.999999999974299,-3.860705941909169
1669910051160169140,2.5695093995307916,1.1265626221423504,7.034024150164536,-1.0,-5.999999999974299,-3.860705941909169
1669910051160438882,2.5695093995307916,1.1265626221423504,7.034024150164536,-1.0,-5.999999999974299,-3.860705941909169
1669910051177872540,2.5695093995307916,1.1265626221423504,7.034024150164536,-1.0,-5.999999999974299,-3.860705941909169
1669910051200163018,2.5624583870895385,1.1675647888326808,7.023723811134617,-1.0,-5.999999999974313,-3.86070594190916
1669910051216802745,2.599611452294159,1.6833555195474788,7.033472448810856,-1.0,-5.999999999974313,-3.242387473576869
1669910051239952079,2.599611452294159,1.6833555195474788,7.033472448810856,-1.0,-5.999999999974313,-3.242387473576869
1669910051255894392,2.599611452294159,1.6833555195474788,7.033472448810856,-1.0,-5.999999999974313,-3.242387473576869
1669910051278175700,2.599611452294159,1.6833555195474788,7.033472448810856,-1.0,-5.999999999974313,-3.242387473576869
1669910051301066722,2.599611452294159,1.6833555195474788,7.033472448810856,-1.0,-5.999999999974313,-3.242387473576869
1669910051317939918,2.575073114109802,1.4986974988126918,7.0611206593363685,-1.0,-5.999999999974313,-3.42036075889429
1669910051643528987,2.5668932334280044,1.5348242660317903,7.030471575216438,-1.0,-5.999999999974345,-3.420360758894278
1669910051711907136,2.5668932334280044,1.5348242660317903,7.030471575216438,-1.0,-5.999999999974345,-3.420360758894278
1669910051711963088,2.5668932334280044,1.5348242660317903,7.030471575216438,-1.0,-5.999999999974345,-3.420360758894278
1669910051712008794,2.5668932334280044,1.5348242660317903,7.030471575216438,-1.0,-5.999999999974345,-3.420360758894278
1669910051712052631,2.5668932334280044,1.5348242660317903,7.030471575216438,-1.0,-5.999999999974345,-3.420360758894278
1669910051712094069,2.5668932334280044,1.5348242660317903,7.030471575216438,-1.0,-5.999999999974345,-3.420360758894278
1669910051712135603,2.5668932334280044,1.5348242660317903,7.030471575216438,-1.0,-5.999999999974345,-3.420360758894278
1669910051712175975,2.546464500207682,1.5701293788496211,7.00972174124075,-1.0,-5.99999999997439,-3.4203607588942755
1669910051712215354,2.546464500207682,1.5701293788496211,7.00972174124075,-1.0,-5.99999999997439,-3.4203607588942755
1669910051712255255,2.542282382545667,1.5869091668067092,7.009254416027272,-1.0,-5.999999999974433,-3.4203607588942817
1669910051712295756,2.542282382545667,1.5869091668067092,7.009254416027272,-1.0,-5.999999999974433,-3.4203607588942817
1669910051712335626,2.542282382545667,1.5869091668067092,7.009254416027272,-1.0,-5.999999999974433,-3.4203607588942817
1669910051744608585,2.542282382545667,1.5869091668067092,7.009254416027272,-1.0,-5.999999999974433,-3.4203607588942817
1669910051744651939,2.542282382545667,1.5869091668067092,7.009254416027272,-1.0,-5.999999999974433,-3.4203607588942817
1669910051744692479,2.542282382545667,1.5869091668067092,7.009254416027272,-1.0,-5.999999999974433,-3.4203607588942817
1669910051744733451,2.543146061857104,1.6327558529990494,6.98913715656535,-1.0,-5.999999999974445,-3.420360758894286
1669910051744773689,2.543146061857104,1.6327558529990494,6.98913715656535,-1.0,-5.999999999974445,-3.420360758894286
1669910051745426263,2.543146061857104,1.6327558529990494,6.98913715656535,-1.0,-5.999999999974445,-3.420360758894286
1669910051745520259,2.550687860664718,1.648595041300739,6.9889170831605805,-1.0,-5.999999999974479,-3.4203607588943004
1669910051745573459,2.514967691120498,2.2101041736859925,7.007639796154202,-1.0,-5.999999999974479,-2.6159461587604045
1669910051761402996,2.514967691120498,2.2101041736859925,7.007639796154202,-1.0,-5.999999999974479,-2.6159461587604045
1669910051778511584,2.514967691120498,2.2101041736859925,7.007639796154202,-1.0,-5.999999999974479,-2.6159461587604045
1669910051778662231,2.514967691120498,2.2101041736859925,7.007639796154202,-1.0,-5.999999999974479,-2.6159461587604045
1669910051814145878,2.514967691120498,2.2101041736859925,7.007639796154202,-1.0,-5.999999999974479,-2.6159461587604045
1669910051830000447,2.5169079787946873,2.3955487172609358,6.951043805454047,-1.0,-5.9999999999745,-2.5025834888156524
1669910051847015321,2.5169079787946873,2.3955487172609358,6.951043805454047,-1.0,-5.9999999999745,-2.5025834888156524
1669910051863730666,2.5169079787946873,2.3955487172609358,6.951043805454047,-1.0,-5.9999999999745,-2.5025834888156524
1669910052168366338,2.5169079787946873,2.3955487172609358,6.951043805454047,-1.0,-5.9999999999745,-2.5025834888156524
1669910052217416184,2.5169079787946873,2.3955487172609358,6.951043805454047,-1.0,-5.9999999999745,-2.5025834888156524
1669910052217501696,2.508954633019083,2.3114516298776655,6.968034109447272,-1.0,-5.9999999999745,-2.5853271782334915
1669910052217598574,2.5327043059875907,2.352489169615055,6.957930270329323,-1.0,-5.729510568433663,-2.5853271782335194
1669910052217715120,2.5327043059875907,2.352489169615055,6.957930270329323,-1.0,-5.729510568433663,-2.5853271782335194
1669910052218169424,2.5717048869585737,2.37411830600207,6.9579416257532705,-1.0,-5.542500536590451,-2.5853271782335603
1669910052218254462,2.5717048869585737,2.37411830600207,6.9579416257532705,-1.0,-5.542500536590451,-2.5853271782335603
1669910052218300999,2.5717048869585737,2.37411830600207,6.9579416257532705,-1.0,-5.999999999974597,-2.5853271782335603
1669910052218381421,2.5717048869585737,2.37411830600207,6.9579416257532705,-1.0,-5.999999999974597,-2.5853271782335603
1669910052218422273,2.5717048869585737,2.37411830600207,6.9579416257532705,-1.0,-5.999999999974597,-2.5853271782335603
1669910052218714321,2.5717048869585737,2.37411830600207,6.9579416257532705,-1.0,-5.999999999974597,-2.5853271782335603
1669910052218870394,2.571694498971605,2.404099462395356,6.937941970036215,-1.0,-5.999999999974596,-2.58532717823356
1669910052218928153,2.571694498971605,2.404099462395356,6.937941970036215,-1.0,-5.999999999974596,-2.58532717823356
1669910052222081412,2.571694498971605,2.404099462395356,6.937941970036215,-1.0,-5.999999999974596,-2.58532717823356
1669910052254372416,2.6113969261659373,2.414679138485728,6.938114914360756,-1.0,-5.571784008660413,-2.585327178233594
1669910052254414631,2.6113969261659373,2.414679138485728,6.938114914360756,-1.0,-5.571784008660413,-2.585327178233594
1669910052254453813,2.6113969261659373,2.414679138485728,6.938114914360756,-1.0,-5.999999999974628,-2.585327178233594
1669910052254492975,2.6113969261659373,2.414679138485728,6.938114914360756,-1.0,-5.999999999974628,-2.585327178233594
1669910052254533210,2.6113969261659373,2.414679138485728,6.938114914360756,-1.0,-5.999999999974628,-2.585327178233594
1669910052259526681,2.6113969261659373,2.414679138485728,6.938114914360756,-1.0,-5.999999999974628,-2.585327178233594
1669910052282337451,2.6113969261659373,2.414679138485728,6.938114914360756,-1.0,-5.999999999974628,-2.585327178233594
1669910052301536597,2.6113969261659373,2.414679138485728,6.938114914360756,-1.0,-5.999999999974628,-2.585327178233594
1669910052323101542,2.5403296463139777,2.8481524161350915,6.851610974770575,-1.0,-5.999999999974641,-1.6615539416608656
1669910052341154903,2.5403296463139777,2.8481524161350915,6.851610974770575,-1.0,-5.8904111045079866,-1.6615539416608656
1669910052360718009,2.5403296463139777,2.8481524161350915,6.851610974770575,-1.0,-5.8904111045079866,-1.6615539416608656
1669910052380534463,2.5403296463139777,2.8481524161350915,6.851610974770575,-1.0,-5.999999999974641,-1.6615539416608656
1669910052692231870,2.5403296463139777,2.8481524161350915,6.851610974770575,-1.0,-5.999999999974641,-1.6615539416608656
1669910052739636652,2.5975248925692602,2.780864078429588,6.80522026403313,-1.0,-5.167368650329841,-1.992780268186112
1669910052739638571,2.5975248925692602,2.780864078429588,6.80522026403313,-1.0,-5.999999999974668,-1.992780268186112
1669910052739640457,2.5975248925692602,2.780864078429588,6.80522026403313,-1.0,-5.999999999974668,-1.992780268186112
1669910052739642187,2.5975248925692602,2.780864078429588,6.80522026403313,-1.0,-5.999999999974668,-1.992780268186112
1669910052739643857,2.5975248925692602,2.780864078429588,6.80522026403313,-1.0,-5.999999999974668,-1.992780268186112
1669910052739645519,2.5975248925692602,2.780864078429588,6.80522026403313,-1.0,-5.999999999974668,-1.992780268186112
1669910052739647235,2.652782903789229,2.7869524814056232,6.795383385489497,-1.0,-5.9999999999747,-1.9927802681861524
1669910052739648800,2.652782903789229,2.7869524814056232,6.795383385489497,-1.0,-5.269914170825245,-1.9927802681861524
1669910052739650698,2.6959937366592768,2.7798641152944232,6.7954465022215835,-1.0,-5.269914170825267,-1.992780268186186
1669910052739652390,2.6959937366592768,2.7798641152944232,6.7954465022215835,-1.0,-5.145714289643966,-1.992780268186186
1669910052739654016,2.6959937366592768,2.7798641152944232,6.7954465022215835,-1.0,-5.874697812386596,-1.992780268186186
1669910052739655692,2.6959937366592768,2.7798641152944232,6.7954465022215835,-1.0,-5.874697812386596,-1.992780268186186
1669910052757736785,2.6959937366592768,2.7798641152944232,6.7954465022215835,-1.0,-5.873309206336664,-1.992780268186186
1669910052757764179,2.6959937366592768,2.7798641152944232,6.7954465022215835,-1.0,-5.872605847397792,-1.992780268186186
1669910052757767350,2.6959937366592768,2.7798641152944232,6.7954465022215835,-1.0,-5.8718874104030165,-1.992780268186186
1669910052757769302,2.7184243754038198,2.8055709070287684,6.785420712480277,-1.0,-5.8718874104030245,-1.9927802681862012
1669910052757771227,2.7184243754038198,2.8055709070287684,6.785420712480277,-1.0,-5.482694910003376,-1.9927802681862012
1669910052797417392,2.7184243754038198,2.8055709070287684,6.785420712480277,-1.0,-5.482694910003376,-1.9927802681862012
1669910052797419785,2.7184243754038198,2.8055709070287684,6.785420712480277,-1.0,-5.826848826814624,-1.9927802681862012
1669910052833360604,2.7184243754038198,2.8055709070287684,6.785420712480277,-1.0,-5.825871523768468,-1.9927802681862012
1669910052833371341,2.7717701498047536,2.793897018718088,6.78518862464025,-1.0,-5.825871523768491,-1.9927802681862383
1669910052846222865,2.7717701498047536,2.793897018718088,6.78518862464025,-1.0,-4.906402135997025,-1.9927802681862383
1669910052861012091,2.7717701498047536,2.793897018718088,6.78518862464025,-1.0,-5.723088927189972,-1.9927802681862383
1669910052904912450,2.6869917813317006,3.135403321074808,7.281112084170127,-1.0,-5.723088927189972,-0.5204141512452632
1669910053218859911,2.6869917813317006,3.135403321074808,7.281112084170127,-1.0,-5.7198466768826695,-0.5204141512452632
1669910053218863023,2.6869917813317006,3.135403321074808,7.281112084170127,-1.0,-5.7198466768826695,-0.5204141512452632
1669910053268204923,2.6869917813317006,3.135403321074808,7.281112084170127,-1.0,-5.716577002605983,-0.5204141512452632
1669910053268206488,2.7146877096785653,3.132362063361178,7.270719763929813,-1.0,-4.37315511795022,-0.5204141512452924
1669910053268208057,2.7146877096785653,3.132362063361178,7.270719763929813,-1.0,-4.37315511795022,-0.5204141512452924
1669910053268209642,2.7146877096785653,3.132362063361178,7.270719763929813,-1.0,-5.62243402765679,-0.5204141512452924
1669910053268211225,2.7146877096785653,3.132362063361178,7.270719763929813,-1.0,-5.62021329550293,-0.5204141512452924
1669910053268212759,2.7146877096785653,3.132362063361178,7.270719763929813,-1.0,-5.62021329550293,-0.5204141512452924
1669910053268214331,2.762249281201142,3.123248866162837,7.270240051393186,-1.0,-4.805457963956984,-0.5204141512453183
1669910053268215949,2.762249281201142,3.123248866162837,7.270240051393186,-1.0,-4.805457963956984,-0.5204141512453183
1669910053268217643,2.762249281201142,3.123248866162837,7.270240051393186,-1.0,-5.521541676065883,-0.5204141512453183
1669910053268219179,2.762249281201142,3.123248866162837,7.270240051393186,-1.0,-5.517974387829754,-0.5204141512453183
1669910053268220716,2.762249281201142,3.123248866162837,7.270240051393186,-1.0,-5.517974387829754,-0.5204141512453183
1669910053268222273,2.762249281201142,3.123248866162837,7.270240051393186,-1.0,-5.513384912505548,-0.5204141512453183
1669910053268223801,2.8296804180296795,3.136942112633938,7.289970676320227,-0.9895790276883869,-4.621629671569123,-0.5204141512453296
1669910053268225422,2.8296804180296795,3.136942112633938,7.289970676320227,-1.0,-5.456533899586482,-0.5204141512453296
1669910053288807034,2.8296804180296795,3.136942112633938,7.289970676320227,-1.0,-5.456533899586482,-0.5204141512453296
1669910053288809484,2.8447220087060123,3.1212631844398406,7.289933465159826,-1.0,-5.214467275232232,-0.5204141512453274
1669910053288811181,2.8447220087060123,3.1212631844398406,7.289933465159826,-1.0,-5.214467275232232,-0.5204141512453274
1669910053288813558,2.8447220087060123,3.1212631844398406,7.289933465159826,-1.0,-5.415910022248091,-0.5204141512453274
1669910053307026679,2.8447220087060123,3.1212631844398406,7.289933465159826,-1.0,-5.412430912835529,-0.5204141512453274
1669910053319157624,2.8447220087060123,3.1212631844398406,7.289933465159826,-1.0,-5.412430912835529,-0.5204141512453274
1669910053343259994,2.8447220087060123,3.1212631844398406,7.289933465159826,-1.0,-5.405970197115839,-0.5204141512453274
1669910053353938331,2.8447220087060123,3.1212631844398406,7.289933465159826,-1.0,-5.40265452027831,-0.5204141512453274
1669910053376001191,2.7443541205985715,3.2308460795634275,7.154914673416399,-1.0,-5.304451821282411,0.17832390033308265
1669910053391950082,2.7443541205985715,3.2308460795634275,7.154914673416399,-1.0,-5.304451821282411,0.17832390033308265
1669910053410558636,2.7443541205985715,3.2308460795634275,7.154914673416399,-1.0,-5.387172082520579,0.17832390033308265
1669910053432645331,2.7327335070051726,3.2038746839010765,7.155777686234403,-1.0,-5.387172082520592,0.17832390033311368
1669910053749147250,2.7327335070051726,3.2038746839010765,7.155777686234403,-0.9878830413405838,-5.579625480307792,0.17832390033311368
1669910053750745023,2.69650580391069,3.29176709704042,7.170705371495176,-0.9878830413405838,-5.579625480307792,0.6755721196592521
1669910053750747484,2.69650580391069,3.29176709704042,7.170705371495176,-1.0,-5.395392999139828,0.6755721196592521
1669910053750749491,2.69650580391069,3.29176709704042,7.170705371495176,-1.0,-5.395392999139828,0.6755721196592521
1669910053750751464,2.69650580391069,3.29176709704042,7.170705371495176,-1.0,-5.389222033280246,0.6755721196592521
1669910053750753410,2.699282234638921,3.2855069787959903,7.211011840740529,-1.0,-5.389222033280248,0.6755721196592626
1669910053750755216,2.699282234638921,3.2855069787959903,7.211011840740529,-1.0,-5.500505165169583,0.6755721196592626
1669910053750756899,2.699282234638921,3.2855069787959903,7.211011840740529,-1.0,-5.500505165169583,0.6755721196592626
1669910053750758581,2.699282234638921,3.2855069787959903,7.211011840740529,-1.0,-5.389060705142232,0.6755721196592626
1669910053750760474,2.699282234638921,3.2855069787959903,7.211011840740529,-1.0,-5.389060705142232,0.6755721196592626
1669910053750762213,2.699282234638921,3.2855069787959903,7.211011840740529,-1.0,-5.383800447198918,0.6755721196592626
1669910053750764018,2.7042080691664774,3.2579813500458776,7.262542658746553,-0.9124736626803369,-5.99999999997486,0.6755721196593171
1669910053750765784,2.7042080691664774,3.2579813500458776,7.262542658746553,-0.9124736626803369,-5.99999999997486,0.6755721196593171
1669910053767665526,2.7042080691664774,3.2579813500458776,7.262542658746553,-1.0,-5.4588275819606995,0.6755721196593171
1669910053767678031,2.6514653901086604,3.235262179820154,7.2638530577370535,-1.0,-5.458827581960709,0.6755721196593701
1669910053767680405,2.6514653901086604,3.235262179820154,7.2638530577370535,-0.9812257324747525,-5.99999999997487,0.6755721196593701
1669910053782442418,2.6514653901086604,3.235262179820154,7.2638530577370535,-1.0,-5.549846585878577,0.6755721196593701
1669910053798084510,2.6514653901086604,3.235262179820154,7.2638530577370535,-1.0,-5.547775283543305,0.6755721196593701
1669910053817218748,2.6514653901086604,3.235262179820154,7.2638530577370535,-1.0,-5.547775283543305,0.6755721196593701
1669910053837279399,2.6514653901086604,3.235262179820154,7.2638530577370535,-1.0,-5.544085332532492,0.6755721196593701
1669910053858127382,2.6591409464284657,3.230813690275396,7.274099941577017,-1.0,-5.9054896979977345,0.6755721196593809
1669910053874592985,2.4820503313943623,3.3307530961935172,7.727093751753866,-1.0,-5.9054896979977345,0.6212562136413622
1669910053893889042,2.4820503313943623,3.3307530961935172,7.727093751753866,-1.0,-5.561386624701223,0.6212562136413622
1669910053921084324,2.4820503313943623,3.3307530961935172,7.727093751753866,-1.0,-5.559449317686806,0.6212562136413622
1669910053935546460,2.4820503313943623,3.3307530961935172,7.727093751753866,-1.0,-5.559449317686806,0.6212562136413622
1669910053953956146,2.4820503313943623,3.3307530961935172,7.727093751753866,-1.0,-5.556071533286643,0.6212562136413622
1669910054257333378,2.4300367851659535,3.3345329247419486,7.64608329090029,-1.0,-5.55425139073999,0.3242879826637078
1669910054279990194,2.4300367851659535,3.3345329247419486,7.64608329090029,-1.0,-5.552192417814412,0.3242879826637078
1669910054279995286,2.4300367851659535,3.3345329247419486,7.64608329090029,-1.0,-5.552192417814412,0.3242879826637078
1669910054279997353,2.3578787601298763,3.294784728869477,7.647112744854816,-0.9768181888580795,-5.999999999974887,0.324287982663767
1669910054279999307,2.3578787601298763,3.294784728869477,7.647112744854816,-0.9768181888580795,-5.999999999974887,0.324287982663767
1669910054280001949,2.3578787601298763,3.294784728869477,7.647112744854816,-1.0,-5.68119912921458,0.324287982663767
1669910054280003676,2.3578787601298763,3.294784728869477,7.647112744854816,-1.0,-5.68119912921458,0.324287982663767
1669910054280005381,2.3578787601298763,3.294784728869477,7.647112744854816,-1.0,-5.679436355313908,0.324287982663767
1669910054280007218,2.3578787601298763,3.294784728869477,7.647112744854816,-1.0,-5.67854616465908,0.324287982663767
1669910054280009264,2.3578787601298763,3.294784728869477,7.647112744854816,-1.0,-5.677657150249444,0.324287982663767
1669910054280011108,2.2945226482841323,3.285727700104361,7.657371411199239,-1.0,-5.999999999974916,0.3242879826638169
1669910054280012846,2.2945226482841323,3.285727700104361,7.657371411199239,-1.0,-5.999999999974916,0.3242879826638169
1669910054280014606,2.2945226482841323,3.285727700104361,7.657371411199239,-1.0,-5.812281082501517,0.3242879826638169
1669910054287955014,2.2945226482841323,3.285727700104361,7.657371411199239,-1.0,-5.8122897729340774,0.3242879826638169
1669910054287974240,2.2945226482841323,3.285727700104361,7.657371411199239,-1.0,-5.8122897729340774,0.3242879826638169
1669910054288102655,2.2945226482841323,3.285727700104361,7.657371411199239,-1.0,-5.812306289092491,0.3242879826638169
1669910054288106099,2.2945226482841323,3.285727700104361,7.657371411199239,-1.0,-5.812306289092491,0.3242879826638169
1669910054318337044,2.2161627028816513,3.2655823961614954,7.64713894732438,-1.0,-5.999999999974937,0.3242879826638492
1669910054359913567,2.2161627028816513,3.2655823961614954,7.64713894732438,-1.0,-5.903055472160387,0.3242879826638492
1669910054378719366,2.2161627028816513,3.2655823961614954,7.64713894732438,-1.0,-5.903055472160387,0.3242879826638492
1669910054396429157,2.0998808954590134,3.5652721659063684,7.799868398980721,-1.0,-5.90404251749601,1.0363458842102082
1669910054396731294,2.0998808954590134,3.5652721659063684,7.799868398980721,-1.0,-5.90478766177565,1.0363458842102082
1669910054426795912,2.0998808954590134,3.5652721659063684,7.799868398980721,-1.0,-5.90478766177565,1.0363458842102082
1669910054443169100,2.0613077908394724,3.5662618802783412,7.799464878373726,-1.0,-5.999999999974951,1.0363458842102264
1669910054495798487,2.0613077908394724,3.5662618802783412,7.799464878373726,-1.0,-5.9786305381253575,1.0363458842102264
1669910054495845420,2.0613077908394724,3.5662618802783412,7.799464878373726,-1.0,-5.9786305381253575,1.0363458842102264
1669910054608925616,2.0613077908394724,3.5662618802783412,7.799464878373726,-1.0,-5.980656970519513,1.0363458842102264
1669910054609002505,2.0613077908394724,3.5662618802783412,7.799464878373726,-1.0,-5.981735663261718,1.0363458842102264
1669910054609006582,2.0613077908394724,3.5662618802783412,7.799464878373726,-1.0,-5.981735663261718,1.0363458842102264
1669910054609009273,2.0613077908394724,3.5662618802783412,7.799464878373726,-1.0,-5.9838747585545,1.0363458842102264
1669910054609020306,1.9870621614164425,3.6516364109795294,7.779748261404164,-1.0,-5.999999999974979,0.845940392470739
1669910054609023947,1.9870621614164425,3.6516364109795294,7.779748261404164,-1.0,-5.999999999974979,0.845940392470739
1669910054623647822,1.9870621614164425,3.6516364109795294,7.779748261404164,-1.0,-5.999999999974979,0.845940392470739
1669910054738631679,1.9870621614164425,3.6516364109795294,7.779748261404164,-1.0,-5.999999999974979,0.845940392470739
1669910054738634158,1.9870621614164425,3.6516364109795294,7.779748261404164,-1.0,-5.999999999974979,0.845940392470739
1669910054738712512,1.9870621614164425,3.6516364109795294,7.779748261404164,-1.0,-5.999999999974979,0.845940392470739
1669910054738725014,1.9870621614164425,3.6516364109795294,7.779748261404164,-1.0,-5.999999999974979,0.845940392470739
1669910054738730941,1.9870621614164425,3.6516364109795294,7.779748261404164,-1.0,-5.999999999974979,0.845940392470739
1669910054752974765,1.9394163187734332,3.673052807065812,7.778965671817206,-1.0,-5.999999999975011,0.8459403924707566
1669910054752977131,1.9394163187734332,3.673052807065812,7.778965671817206,-1.0,-5.999999999975011,0.8459403924707566
1669910054772836784,1.9394163187734332,3.673052807065812,7.778965671817206,-1.0,-5.999999999975011,0.8459403924707566
1669910054813283796,1.9394163187734332,3.673052807065812,7.778965671817206,-1.0,-5.999999999975011,0.8459403924707566
1669910054829345459,1.9394163187734332,3.673052807065812,7.778965671817206,-1.0,-5.999999999975011,0.8459403924707566
1669910054844769836,1.9174157973520007,3.806853611680833,7.77787982420101,-1.0,-5.999999999975011,1.193533837801615
1669910054862251174,1.9174157973520007,3.806853611680833,7.77787982420101,-1.0,-5.999999999975011,1.193533837801615
1669910054877539071,1.8898020783662974,3.815478011008546,7.7574070055628646,-1.0,-5.999999999975029,1.1935338378016083
1669910054897617430,1.8898020783662974,3.815478011008546,7.7574070055628646,-1.0,-5.999999999975029,1.1935338378016083
1669910054923504215,1.9117958942651927,3.967943116065309,7.753717478051268,-1.0,-5.999999999975029,1.2742132321063606
1669910054953777837,1.9117958942651927,3.967943116065309,7.753717478051268,-1.0,-5.999999999975029,1.2742132321063606
1669910054977952014,1.9117958942651927,3.967943116065309,7.753717478051268,-1.0,-5.999999999975029,1.2742132321063606
1669910054978063533,1.9117958942651927,3.967943116065309,7.753717478051268,-1.0,-5.999999999975029,1.2742132321063606
1669910054995810482,1.9117958942651927,3.967943116065309,7.753717478051268,-1.0,-5.999999999975029,1.2742132321063606
1669910055011704481,1.9117958942651927,3.967943116065309,7.753717478051268,-1.0,-5.999999999975029,1.2742132321063606
1669910055250881919,1.9117958942651927,3.967943116065309,7.753717478051268,-1.0,-5.999999999975029,1.2742132321063606
1669910055272327062,1.9065431883165007,3.971897981553144,7.733694470778217,-1.0,-5.999999999975045,1.2742132321063364
1669910055272381523,1.8958098819085722,3.8740492085505194,7.7330105074794195,-1.0,-5.94487055423268,0.9724596887890186
1669910055272417758,1.8958098819085722,3.8740492085505194,7.7330105074794195,-1.0,-5.94487055423268,0.9724596887890186
1669910055272452967,1.8958098819085722,3.8740492085505194,7.7330105074794195,-1.0,-5.999999999975045,0.9724596887890186
1669910055272488482,1.8958098819085722,3.8740492085505194,7.7330105074794195,-1.0,-5.999999999975045,0.9724596887890186
1669910055272587746,1.8958098819085722,3.8740492085505194,7.7330105074794195,-1.0,-5.999999999975045,0.9724596887890186
1669910055272605005,1.8958098819085722,3.8740492085505194,7.7330105074794195,-1.0,-5.999999999975045,0.9724596887890186
1669910055272607559,1.8958098819085722,3.8740492085505194,7.7330105074794195,-1.0,-5.999999999975045,0.9724596887890186
1669910055272609846,1.907872237096309,3.896320065408236,7.713439361708412,-1.0,-5.628329995076343,0.9724596887889885
1669910055272611819,1.907872237096309,3.896320065408236,7.713439361708412,-1.0,-5.628329995076343,0.9724596887889885
1669910055272616004,1.907872237096309,3.896320065408236,7.713439361708412,-1.0,-5.9999999999750475,0.9724596887889885
1669910055284881932,1.907872237096309,3.896320065408236,7.713439361708412,-1.0,-5.9999999999750475,0.9724596887889885
1669910055295676472,1.907872237096309,3.896320065408236,7.713439361708412,-1.0,-5.9999999999750475,0.9724596887889885
1669910055317377296,1.907872237096309,3.896320065408236,7.713439361708412,-1.0,-5.9999999999750475,0.9724596887889885
1669910055335955006,1.907872237096309,3.896320065408236,7.713439361708412,-1.0,-5.9999999999750475,0.9724596887889885
1669910055354689987,1.907872237096309,3.896320065408236,7.713439361708412,-1.0,-5.9999999999750475,0.9724596887889885
1669910055398894492,1.9664859546523088,4.099870225339418,7.709468649285087,-1.0,-5.9999999999750475,1.3488189876142525
1669910055424168032,1.9664859546523088,4.099870225339418,7.709468649285087,-1.0,-5.9999999999750475,1.3488189876142525
1669910055435579518,1.9664859546523088,4.099870225339418,7.709468649285087,-1.0,-5.9999999999750475,1.3488189876142525
1669910055451822726,2.011846619627852,4.09596027192304,7.700194604334978,-1.0,-5.99999999997505,1.3488189876141936
1669910055460784690,2.011846619627852,4.09596027192304,7.700194604334978,-1.0,-5.146825038439438,1.3488189876141936
1669910055472655038,2.011846619627852,4.09596027192304,7.700194604334978,-1.0,-5.146825038439438,1.3488189876141936
1669910055493243184,2.011846619627852,4.09596027192304,7.700194604334978,-1.0,-5.99999999997505,1.3488189876141936
1669910055518492917,2.011846619627852,4.09596027192304,7.700194604334978,-1.0,-5.99999999997505,1.3488189876141936
1669910055534395346,2.011846619627852,4.09596027192304,7.700194604334978,-1.0,-5.99999999997505,1.3488189876141936
1669910055784761463,2.011846619627852,4.09596027192304,7.700194604334978,-1.0,-5.99999999997505,1.3488189876141936
1669910055811367451,2.0567672131279893,4.1845554238242855,7.703889049229769,-1.0,-5.99999999997505,1.4012872427764327
1669910055811371456,2.0567672131279893,4.1845554238242855,7.703889049229769,-1.0,-5.99999999997505,1.4012872427764327
1669910055811377704,2.0567672131279893,4.1845554238242855,7.703889049229769,-1.0,-5.99999999997505,1.4012872427764327
1669910055811439183,2.0978035611595023,4.19812959011659,7.674225452907306,-1.0,-5.999999999975048,1.4012872427763732
1669910055811442567,2.0978035611595023,4.19812959011659,7.674225452907306,-1.0,-4.811866168020342,1.4012872427763732
1669910055811491777,2.0978035611595023,4.19812959011659,7.674225452907306,-1.0,-4.811866168020342,1.4012872427763732
1669910055811527320,2.0978035611595023,4.19812959011659,7.674225452907306,-1.0,-5.898573943587342,1.4012872427763732
1669910055811530793,2.0978035611595023,4.19812959011659,7.674225452907306,-1.0,-5.898573943587342,1.4012872427763732
1669910055811557053,2.0978035611595023,4.19812959011659,7.674225452907306,-1.0,-5.8984130469982725,1.4012872427763732
1669910055811685050,2.0978035611595023,4.19812959011659,7.674225452907306,-1.0,-5.8984130469982725,1.4012872427763732
1669910055811687495,2.0978035611595023,4.19812959011659,7.674225452907306,-1.0,-5.898248497074965,1.4012872427763732
1669910055813616206,2.0978035611595023,4.19812959011659,7.674225452907306,-1.0,-5.898160468504573,1.4012872427763732
1669910055813664036,2.213786840229454,4.187724953369864,7.663658298072422,-1.0,-2.3183907362042016,1.4012872427762808
1669910055829041913,2.213786840229454,4.187724953369864,7.663658298072422,-1.0,-2.3183907362042016,1.4012872427762808
1669910055858468383,2.213786840229454,4.187724953369864,7.663658298072422,-1.0,-5.680920396765914,1.4012872427762808
1669910055877996257,2.3216696081451795,4.326517050938376,7.585074193296039,-1.0,-5.679247994930187,1.5337583050192656
1669910055896913206,2.3216696081451795,4.326517050938376,7.585074193296039,-1.0,-5.679247994930187,1.5337583050192656
1669910055932631810,2.3216696081451795,4.326517050938376,7.585074193296039,-1.0,-5.6760079116918325,1.5337583050192656
1669910055943718061,2.3216696081451795,4.326517050938376,7.585074193296039,-1.0,-5.6760079116918325,1.5337583050192656
1669910055962439089,2.3216696081451795,4.326517050938376,7.585074193296039,-1.0,-5.673322956820382,1.5337583050192656
1669910055973730763,2.3216696081451795,4.326517050938376,7.585074193296039,-1.0,-5.673322956820382,1.5337583050192656
1669910055993785021,2.4008233147860274,4.322896643407493,7.573397733983586,-1.0,-3.9287368580179294,1.5337583050191914
1669910056014862226,2.3551043170691237,4.282951100595145,7.582310565528462,-1.0,-5.482932809731215,1.3622250035465275
1669910056032902063,2.3551043170691237,4.282951100595145,7.582310565528462,-1.0,-5.482932809731215,1.3622250035465275
1669910056071526924,2.3551043170691237,4.282951100595145,7.582310565528462,-1.0,-5.47793385434858,1.3622250035465275
1669910056313248723,2.3551043170691237,4.282951100595145,7.582310565528462,-1.0,-5.47793385434858,1.3622250035465275
1669910056368633927,2.3551043170691237,4.282951100595145,7.582310565528462,-1.0,-5.472502342573786,1.3622250035465275
1669910056368635946,2.3551043170691237,4.282951100595145,7.582310565528462,-1.0,-5.469771874100535,1.3622250035465275
1669910056368637938,2.463512801542092,4.28008565192642,7.5787809118658425,-1.0,-5.469771874100537,1.3622250035464676
1669910056368640234,2.463512801542092,4.28008565192642,7.5787809118658425,-1.0,-3.472982893207546,1.3622250035464676
1669910056368641935,2.463512801542092,4.28008565192642,7.5787809118658425,-1.0,-3.472982893207546,1.3622250035464676
1669910056368643731,2.463512801542092,4.28008565192642,7.5787809118658425,-1.0,-5.235595612478462,1.3622250035464676
1669910056368773314,2.463512801542092,4.28008565192642,7.5787809118658425,-1.0,-5.235595612478462,1.3622250035464676
1669910056368811486,2.463512801542092,4.28008565192642,7.5787809118658425,-1.0,-5.222564992219749,1.3622250035464676
1669910056368872254,2.463512801542092,4.28008565192642,7.5787809118658425,-1.0,-5.222564992219749,1.3622250035464676
1669910056368876975,2.463512801542092,4.28008565192642,7.5787809118658425,-1.0,-5.222564992219749,1.3622250035464676
1669910056369273674,2.463512801542092,4.28008565192642,7.5787809118658425,-1.0,-5.214773864851334,1.3622250035464676
1669910056408001851,2.4892165128659123,4.283165535929584,7.577217947319366,-1.0,-4.329437910036882,1.3622250035464438
1669910056408004481,2.4892165128659123,4.283165535929584,7.577217947319366,-1.0,-4.329437910036882,1.3622250035464438
1669910056408006492,2.4892165128659123,4.283165535929584,7.577217947319366,-1.0,-5.135159285243068,1.3622250035464438
1669910056408008452,2.745581603474509,4.601650736334705,7.467081378773071,-1.0,-5.129657776981105,1.5092833712756308
1669910056425429550,2.745581603474509,4.601650736334705,7.467081378773071,-1.0,-5.129657776981105,1.5092833712756308
1669910056425431627,2.745581603474509,4.601650736334705,7.467081378773071,-1.0,-5.121813138210012,1.5092833712756308
1669910056439127589,2.745581603474509,4.601650736334705,7.467081378773071,-1.0,-5.121813138210012,1.5092833712756308
1669910056454125551,2.745581603474509,4.601650736334705,7.467081378773071,-1.0,-5.11259121541166,1.5092833712756308
1669910056474150751,2.814649946976938,4.605753759971869,7.505622980572658,-1.0,-5.112591215411659,1.509283371275626
1669910056519056795,2.814649946976938,4.605753759971869,7.505622980572658,-1.0,-4.603362961392895,1.509283371275626
1669910056545001348,2.7263024523747346,4.695822636715186,7.587586072661358,-1.0,-5.044221460098945,1.3621686771571262
1669910056545103196,2.7263024523747346,4.695822636715186,7.587586072661358,-1.0,-5.039233216247649,1.3621686771571262
1669910056556867130,2.7263024523747346,4.695822636715186,7.587586072661358,-1.0,-5.039233216247649,1.3621686771571262
1669910056579871539,2.7263024523747346,4.695822636715186,7.587586072661358,-1.0,-5.0291581058999215,1.3621686771571262
1669910056591829266,2.7263024523747346,4.695822636715186,7.587586072661358,-1.0,-5.0291581058999215,1.3621686771571262
1669910056871925002,2.7263024523747346,4.695822636715186,7.587586072661358,-1.0,-5.019561370165929,1.3621686771571262
1669910056885204749,2.734460753571262,4.728154089292661,7.637386234514096,-1.0,-5.073117946417688,1.3621686771571526
1669910056885209465,2.734460753571262,4.728154089292661,7.637386234514096,-1.0,-5.012737225265398,1.3621686771571526
1669910056885211696,2.734460753571262,4.728154089292661,7.637386234514096,-1.0,-5.007543287932387,1.3621686771571526
1669910056885214324,2.734460753571262,4.728154089292661,7.637386234514096,-1.0,-5.007543287932387,1.3621686771571526
1669910056885216287,2.734460753571262,4.728154089292661,7.637386234514096,-1.0,-4.998208089951178,1.3621686771571526
1669910056885218008,2.734460753571262,4.728154089292661,7.637386234514096,-1.0,-4.998208089951178,1.3621686771571526
1669910056885220105,2.734460753571262,4.728154089292661,7.637386234514096,-1.0,-4.988371835253204,1.3621686771571526
1669910056888193286,2.7187871194174162,4.74483854810641,7.669362046528198,-1.0,-4.988371835253206,1.3621686771572246
1669910056888214618,2.7187871194174162,4.74483854810641,7.669362046528198,-1.0,-5.933311991269093,1.3621686771572246
1669910056888216959,2.7187871194174162,4.74483854810641,7.669362046528198,-1.0,-5.077470119810458,1.3621686771572246
1669910056888219394,2.7187871194174162,4.74483854810641,7.669362046528198,-1.0,-5.077470119810458,1.3621686771572246
1669910056888221438,2.7187871194174162,4.74483854810641,7.669362046528198,-1.0,-5.069303406301318,1.3621686771572246
1669910056896690094,2.7039737810362205,4.732616921991154,7.721781852951655,-1.0,-5.999999999975059,1.3621686771572936
1669910056896729431,2.7039737810362205,4.732616921991154,7.721781852951655,-1.0,-5.999999999975059,1.3621686771572936
1669910056908922054,2.596056608623431,4.904102321838209,8.14863758227715,-1.0,-5.999999999975057,1.4687966555418468
1669910056936105324,2.596056608623431,4.904102321838209,8.14863758227715,-1.0,-5.999999999975057,1.4687966555418468
1669910056957486276,2.5512030120817193,4.900264013131626,8.14959158785342,-1.0,-5.9999999999750555,1.4687966555418863
1669910056974663598,2.5512030120817193,4.900264013131626,8.14959158785342,-1.0,-5.9999999999750555,1.4687966555418863
1669910056994687470,2.5512030120817193,4.900264013131626,8.14959158785342,-1.0,-5.3840099697032135,1.4687966555418863
1669910057012706362,2.5350377853837975,4.985340404828556,8.104926251244533,-1.0,-5.3840099697032135,1.6009374707999124
1669910057031924593,2.5350377853837975,4.985340404828556,8.104926251244533,-1.0,-5.380318129558063,1.6009374707999124
1669910057058850739,2.5350377853837975,4.985340404828556,8.104926251244533,-1.0,-5.378267453099633,1.6009374707999124
1669910057075896723,2.5736682651617824,4.985358447045084,8.13495076365372,-1.0,-5.420164328389632,1.600937470799922
1669910057090317021,2.5736682651617824,4.985358447045084,8.13495076365372,-1.0,-5.420164328389632,1.600937470799922
1669910057112694388,2.5736682651617824,4.985358447045084,8.13495076365372,-1.0,-5.374720179303252,1.600937470799922
1669910057347876981,2.5736682651617824,4.985358447045084,8.13495076365372,-1.0,-5.3726893968136835,1.600937470799922
1669910057370507965,2.5736682651617824,4.985358447045084,8.13495076365372,-1.0,-5.370619285488587,1.600937470799922
1669910057375434704,2.474125975189477,4.951151639431711,8.167996174763644,-1.0,-5.370619285488587,1.4738635718884459
1669910057375437759,2.3618110059554587,4.95781256637121,8.199660111091099,-1.0,-5.999999999975055,1.4738635718885382
1669910057375440314,2.3618110059554587,4.95781256637121,8.199660111091099,-1.0,-5.999999999975055,1.4738635718885382
1669910057375443610,2.3618110059554587,4.95781256637121,8.199660111091099,-1.0,-5.630635094911173,1.4738635718885382
1669910057375445739,2.2567077712958685,4.952413465873907,8.199459457128258,-1.0,-5.999999999975062,1.4738635718886066
1669910057375447625,2.2567077712958685,4.952413465873907,8.199459457128258,-1.0,-5.82555103257977,1.4738635718886066
1669910057375450288,2.2567077712958685,4.952413465873907,8.199459457128258,-1.0,-5.82555103257977,1.4738635718886066
1669910057375452321,2.2567077712958685,4.952413465873907,8.199459457128258,-1.0,-5.827494399646977,1.4738635718886066
1669910057383267424,2.2567077712958685,4.952413465873907,8.199459457128258,-1.0,-5.8285015782770975,1.4738635718886066
1669910057390219336,2.2567077712958685,4.952413465873907,8.199459457128258,-1.0,-5.8285015782770975,1.4738635718886066
1669910057390221578,2.2567077712958685,4.952413465873907,8.199459457128258,-1.0,-5.830547684032464,1.4738635718886066
1669910057390782478,2.2567077712958685,4.952413465873907,8.199459457128258,-1.0,-5.830547684032464,1.4738635718886066
1669910057411637715,2.2567077712958685,4.952413465873907,8.199459457128258,-1.0,-5.832513654801388,1.4738635718886066
1669910057431754927,2.2125676633754554,4.921328933000007,8.198880445599487,-1.0,-5.999999999975065,1.4738635718886801
1669910057453449220,2.2125676633754554,4.921328933000007,8.198880445599487,-1.0,-5.999999999975065,1.4738635718886801
1669910057470064471,1.9379593093654874,5.114067978058498,8.241271698764717,-1.0,-5.999999999975078,1.728257685906251
1669910057494365022,1.9379593093654874,5.114067978058498,8.241271698764717,-1.0,-5.999999999975078,1.728257685906251
1669910057516352164,1.9379593093654874,5.114067978058498,8.241271698764717,-1.0,-5.999999999975078,1.728257685906251
1669910057541424763,1.9379593093654874,5.114067978058498,8.241271698764717,-1.0,-5.999999999975078,1.728257685906251
1669910057560250327,1.9379593093654874,5.114067978058498,8.241271698764717,-1.0,-5.999999999975078,1.728257685906251
1669910057576666801,1.8423245508930444,5.235287732277553,8.145870739511405,-1.0,-5.999999999975078,1.8699145317142802
1669910057593207427,1.8423245508930444,5.235287732277553,8.145870739511405,-1.0,-5.999999999975078,1.8699145317142802
1669910057619283540,1.7893581623346488,5.2288001978358185,8.134867510563792,-1.0,-5.999999999975084,1.8699145317143029
1669910057874739979,1.7893581623346488,5.2288001978358185,8.134867510563792,-1.0,-5.999999999975084,1.8699145317143029
1669910057922979517,1.7893581623346488,5.2288001978358185,8.134867510563792,-1.0,-5.999999999975084,1.8699145317143029
1669910057922984607,1.7893581623346488,5.2288001978358185,8.134867510563792,-1.0,-5.999999999975084,1.8699145317143029
1669910057922987253,1.7893581623346488,5.2288001978358185,8.134867510563792,-1.0,-5.999999999975084,1.8699145317143029
1669910057922989922,1.8836001092703025,5.232563635106937,8.161295912033976,-1.0,-5.999999999975084,1.7119286209410256
1669910057923073563,1.8836001092703025,5.232563635106937,8.161295912033976,-1.0,-5.999999999975084,1.7119286209410256
1669910057923078388,1.777024794875266,5.241313111867415,8.128290097814311,-1.0,-5.999999999975105,1.7119286209410671
1669910057923081374,1.777024794875266,5.241313111867415,8.128290097814311,-1.0,-5.999999999975105,1.7119286209410671
1669910057923083876,1.777024794875266,5.241313111867415,8.128290097814311,-1.0,-5.999999999975105,1.7119286209410671
1669910057923133391,1.777024794875266,5.241313111867415,8.128290097814311,-1.0,-5.999999999975105,1.7119286209410671
1669910057923136154,1.777024794875266,5.241313111867415,8.128290097814311,-1.0,-5.999999999975105,1.7119286209410671
1669910057923137823,1.777024794875266,5.241313111867415,8.128290097814311,-1.0,-5.999999999975105,1.7119286209410671
1669910057923304538,1.777024794875266,5.241313111867415,8.128290097814311,-1.0,-5.999999999975105,1.7119286209410671
1669910057938608180,1.714785947494715,5.254121663743126,8.116047213437685,-1.0,-5.999999999975126,1.7119286209410798
1669910057938612412,1.714785947494715,5.254121663743126,8.116047213437685,-1.0,-5.999999999975126,1.7119286209410798
1669910057938614866,1.714785947494715,5.254121663743126,8.116047213437685,-1.0,-5.999999999975126,1.7119286209410798
1669910057973781879,1.714785947494715,5.254121663743126,8.116047213437685,-1.0,-5.999999999975126,1.7119286209410798
1669910057985902424,1.714785947494715,5.254121663743126,8.116047213437685,-1.0,-5.999999999975126,1.7119286209410798
1669910057986025104,1.714785947494715,5.254121663743126,8.116047213437685,-1.0,-5.999999999975126,1.7119286209410798
1669910058014075453,1.714785947494715,5.254121663743126,8.116047213437685,-1.0,-5.999999999975126,1.7119286209410798
1669910058042109655,1.6675523785743387,5.2679612829295746,8.084665570989833,-1.0,-5.999999999975144,1.7119286209410742
1669910058059738821,1.6675523785743387,5.2679612829295746,8.084665570989833,-1.0,-5.999999999975144,1.7119286209410742
1669910058095288996,1.6527883080634744,5.465460081299936,8.191933069959864,-1.0,-5.999999999975144,1.8236763775414542
1669910058095291289,1.6527883080634744,5.465460081299936,8.191933069959864,-1.0,-5.999999999975144,1.8236763775414542
1669910058107084177,1.6527883080634744,5.465460081299936,8.191933069959864,-1.0,-5.999999999975144,1.8236763775414542
1669910058127840644,1.6527883080634744,5.465460081299936,8.191933069959864,-1.0,-5.999999999975144,1.8236763775414542
1669910058148497745,1.639777536492668,5.4927332277145355,8.16142968004842,-1.0,-5.99999999997517,1.8236763775414275
1669910058404713042,1.639777536492668,5.4927332277145355,8.16142968004842,-1.0,-5.99999999997517,1.8236763775414275
1669910058437382528,1.6624238313301993,5.507022548600573,8.161925220120693,-1.0,-5.917238712251467,1.8236763775413976
1669910058437421999,1.725729179488082,5.773572731896777,8.06891172491386,-1.0,-5.917238712251467,2.1264760941332326
1669910058437459402,1.725729179488082,5.773572731896777,8.06891172491386,-1.0,-5.999999999975185,2.1264760941332326
1669910058437495738,1.725729179488082,5.773572731896777,8.06891172491386,-1.0,-5.999999999975185,2.1264760941332326
1669910058437531664,1.725729179488082,5.773572731896777,8.06891172491386,-1.0,-5.999999999975185,2.1264760941332326
1669910058437567203,1.725729179488082,5.773572731896777,8.06891172491386,-1.0,-5.999999999975185,2.1264760941332326
1669910058437602946,1.725729179488082,5.773572731896777,8.06891172491386,-1.0,-5.999999999975185,2.1264760941332326
1669910058437638190,1.7013667676882225,5.77877267036132,8.049366110667425,-1.0,-5.99999999997519,2.1264760941332166
1669910058437675222,1.7013667676882225,5.77877267036132,8.049366110667425,-1.0,-5.99999999997519,2.1264760941332166
1669910058437710355,1.7013667676882225,5.77877267036132,8.049366110667425,-1.0,-5.99999999997519,2.1264760941332166
1669910058437747222,1.7013667676882225,5.77877267036132,8.049366110667425,-1.0,-5.99999999997519,2.1264760941332166
1669910058437783197,1.7013667676882225,5.77877267036132,8.049366110667425,-1.0,-5.99999999997519,2.1264760941332166
1669910058449377012,1.7013667676882225,5.77877267036132,8.049366110667425,-1.0,-5.99999999997519,2.1264760941332166
1669910058449424997,1.7013667676882225,5.77877267036132,8.049366110667425,-1.0,-5.99999999997519,2.1264760941332166
1669910058465560778,1.7013667676882225,5.77877267036132,8.049366110667425,-1.0,-5.99999999997519,2.1264760941332166
1669910058494818003,1.7013667676882225,5.77877267036132,8.049366110667425,-1.0,-5.99999999997519,2.1264760941332166
1669910058506712254,1.724717189088523,5.806675959784485,8.030702652660825,-1.0,-5.3150645083801376,2.126476094133172
1669910058528936052,1.724717189088523,5.806675959784485,8.030702652660825,-1.0,-5.3150645083801376,2.126476094133172
1669910058547664467,1.724717189088523,5.806675959784485,8.030702652660825,-1.0,-5.9999999999751985,2.126476094133172
1669910058571103236,1.724717189088523,5.806675959784485,8.030702652660825,-1.0,-5.9999999999751985,2.126476094133172
1669910058591896924,1.724717189088523,5.806675959784485,8.030702652660825,-1.0,-5.9999999999751985,2.126476094133172
1669910058612457477,1.724717189088523,5.806675959784485,8.030702652660825,-1.0,-5.9999999999751985,2.126476094133172
1669910058642380373,1.774662640460312,5.816311281933008,8.003162543756654,-1.0,-4.203994152121641,2.126476094133114
1669910058656590063,1.774662640460312,5.816311281933008,8.003162543756654,-1.0,-4.203994152121641,2.126476094133114
1669910058671774324,1.854969915517151,5.888872784389673,8.011834125501801,-1.0,-5.999999999975199,2.1057573705975763
1669910058686463793,1.9244001064410103,5.882628459938809,8.01363880534979,-1.0,-5.999999999975196,2.10575737059752
1669910058936791174,1.9244001064410103,5.882628459938809,8.01363880534979,-1.0,-5.239972795827612,2.10575737059752
1669910058948174270,1.9244001064410103,5.882628459938809,8.01363880534979,-1.0,-5.999999999975196,2.10575737059752
1669910058948179655,1.9244001064410103,5.882628459938809,8.01363880534979,-1.0,-5.999999999975196,2.10575737059752
1669910058948183450,2.0859221372713934,6.107450623520657,8.091089080770933,-1.0,-5.999999999975196,2.5834064930740976
1669910058948187843,2.0859221372713934,6.107450623520657,8.091089080770933,-1.0,-5.999999999975196,2.5834064930740976
1669910058948190840,2.1359552023267065,6.118234854446998,8.082372972662222,-1.0,-5.2828769224141,2.5834064930740372
1669910058948195133,2.1359552023267065,6.118234854446998,8.082372972662222,-1.0,-5.9999999999751905,2.5834064930740372
1669910058948197493,2.1359552023267065,6.118234854446998,8.082372972662222,-1.0,-5.9999999999751905,2.5834064930740372
1669910058948258119,2.1359552023267065,6.118234854446998,8.082372972662222,-1.0,-5.9999999999751905,2.5834064930740372
1669910058948292168,2.1359552023267065,6.118234854446998,8.082372972662222,-1.0,-5.9999999999751905,2.5834064930740372
1669910058948383511,2.223958826401798,6.091774238937283,8.083964480848412,-1.0,-4.5608247431894915,2.5834064930739773
1669910058948391638,2.223958826401798,6.091774238937283,8.083964480848412,-1.0,-5.999999999975167,2.5834064930739773
1669910058957344429,2.223958826401798,6.091774238937283,8.083964480848412,-1.0,-5.999999999975167,2.5834064930739773
