%time,field.force.x,field.force.y,field.force.z,field.torque.x,field.torque.y,field.torque.z
1669909328880677597,-0.1564580832303881,-0.015763231634853395,10.489847932609344,-1.0,-5.458268056911091,2.729940880382026e-12
1669909328897095547,-0.1545674401327459,-0.011431031564967796,10.489824087051112,-1.0,-5.473293640882965,2.729081119842795e-12
1669909328919154973,-0.1545674401327459,-0.011431031564967796,10.489824087051112,-1.0,-5.473293640882965,2.729081119842795e-12
1669909328944038565,-0.1545674401327459,-0.011431031564967796,10.489824087051112,-1.0,-5.502483346367411,2.729081119842795e-12
1669909328965134270,-0.1545674401327459,-0.011431031564967796,10.489824087051112,-1.0,-5.502483346367411,2.729081119842795e-12
1669909328981176523,-0.1545674401327459,-0.011431031564967796,10.489824087051112,-1.0,-5.502600930953785,2.729081119842795e-12
1669909329007265874,-0.14335750318622228,-0.017419552741056804,10.49979890217206,-1.0,-5.502600930953782,2.728753341721879e-12
1669909329031785674,-0.14335750318622228,-0.017419552741056804,10.49979890217206,-1.0,-5.480987840419657,2.728753341721879e-12
1669909329047922447,-0.14190085584960188,-0.008819000576578334,10.499740657646793,-1.0,-5.48098784041965,2.7279423236938248e-12
1669909329065516450,-0.14190085584960188,-0.008819000576578334,10.499740657646793,-1.0,-5.475447754495949,2.7279423236938248e-12
1669909329082100280,-0.14142405649612086,-0.0022468170677232002,10.49969084926482,-1.0,-5.482424051367379,2.7276542993510147e-12
1669909329098738246,-0.14142405649612086,-0.0022468170677232002,10.49969084926482,-1.0,-5.4969908530681595,2.7276542993510147e-12
1669909329121266017,-0.14142405649612086,-0.0022468170677232002,10.49969084926482,-1.0,-5.4969908530681595,2.7276542993510147e-12
1669909329464441421,-0.14142405649612086,-0.0022468170677232002,10.49969084926482,-1.0,-5.497027636605474,2.7276542993510147e-12
1669909329464498354,-0.14142405649612086,-0.0022468170677232002,10.49969084926482,-1.0,-5.497027636605474,2.7276542993510147e-12
1669909329464541169,-0.14142509739399312,-0.002249055711284087,10.50969178099605,-1.0,-5.497096014646174,2.7276856956786364e-12
1669909329464583304,-0.14142509739399312,-0.002249055711284087,10.50969178099605,-1.0,-5.497081990239565,2.7276856956786364e-12
1669909329464625040,-0.14142509739399312,-0.002249055711284087,10.50969178099605,-1.0,-5.497081990239565,2.7276856956786364e-12
1669909329464666331,-0.1423332157179478,0.00909329499509677,10.509595151872528,-1.0,-5.512697611048138,2.728793743315409e-12
1669909329464706792,-0.1423332157179478,0.00909329499509677,10.509595151872528,-1.0,-5.498848948318555,2.728793743315409e-12
1669909329464747725,-0.1423332157179478,0.00909329499509677,10.509595151872528,-1.0,-5.498848948318555,2.728793743315409e-12
1669909329464787266,-0.1423332157179478,0.00909329499509677,10.509595151872528,-1.0,-5.4988930255685124,2.728793743315409e-12
1669909329464825844,-0.1423332157179478,0.00909329499509677,10.509595151872528,-1.0,-5.4988930255685124,2.728793743315409e-12
1669909329464865617,-0.13380658063946374,0.014711253173028502,10.52954004484204,-1.0,-5.525361379238831,2.7296992193223728e-12
1669909329470611948,-0.13828297332231138,0.02346297222133717,10.529448885449648,-1.0,-5.63711919506055,2.7331322009553768e-12
1669909329470654917,-0.13828297332231138,0.02346297222133717,10.529448885449648,-1.0,-5.63711919506055,2.7331322009553768e-12
1669909329470695700,-0.13888527626977415,0.024092849225793078,10.52944169479451,-1.0,-5.520542974596944,2.733564477810447e-12
1669909329470736631,-0.13888527626977415,0.024092849225793078,10.52944169479451,-1.0,-5.511442528313737,2.733564477810447e-12
1669909329470776472,-0.13888527626977415,0.024092849225793078,10.52944169479451,-1.0,-5.511442528313737,2.733564477810447e-12
1669909329470817406,-0.13888527626977415,0.024092849225793078,10.52944169479451,-1.0,-5.511662026550809,2.733564477810447e-12
1669909329470859412,-0.13888527626977415,0.024092849225793078,10.52944169479451,-1.0,-5.511662026550809,2.733564477810447e-12
1669909329501711055,-0.14141160513785705,0.03630700120309473,10.539416300116798,-1.0,-5.558138665668542,2.7350894691618363e-12
1669909329516888182,-0.14141160513785705,0.03630700120309473,10.539416300116798,-1.0,-5.516699483470647,2.7350894691618363e-12
1669909329567016183,-0.14631993241390073,0.03999375261852252,10.539368714918124,-1.0,-5.670021837916582,2.737506756913969e-12
1669909329580100425,-0.14631993241390073,0.03999375261852252,10.539368714918124,-1.0,-5.670021837916582,2.737506756913969e-12
1669909329580241702,-0.14631993241390073,0.03999375261852252,10.539368714918124,-1.0,-5.5263017734462325,2.737506756913969e-12
1669909329599682572,-0.14631993241390073,0.03999375261852252,10.539368714918124,-1.0,-5.5263017734462325,2.737506756913969e-12
1669909329616850821,-0.14631993241390073,0.03999375261852252,10.539368714918124,-1.0,-5.52670184267778,2.737506756913969e-12
1669909329635125217,-0.14631993241390073,0.03999375261852252,10.539368714918124,-1.0,-5.52670184267778,2.737506756913969e-12
1669909329943975729,-0.12924397909797075,0.06234876079596411,10.559335796238612,-1.0,-5.577243120396545,2.738588304807813e-12
1669909329967361593,-0.12924397909797075,0.06234876079596411,10.559335796238612,-1.0,-5.532769786495694,2.738588304807813e-12
1669909329967375469,-0.13674643857224192,0.06867428396889554,10.55924372199136,-1.0,-5.767360237181983,2.7417869606106706e-12
1669909329967388394,-0.13674643857224192,0.06867428396889554,10.55924372199136,-1.0,-5.767360237181983,2.7417869606106706e-12
1669909329967633691,-0.13674643857224192,0.06867428396889554,10.55924372199136,-1.0,-5.5475174779135745,2.7417869606106706e-12
1669909329967639728,-0.13674643857224192,0.06867428396889554,10.55924372199136,-1.0,-5.5475174779135745,2.7417869606106706e-12
1669909329967658306,-0.13674643857224192,0.06867428396889554,10.55924372199136,-1.0,-5.5481707218809655,2.7417869606106706e-12
1669909329967671203,-0.14776322469997846,0.059446884894164095,10.559233466829413,-1.0,-5.581502235090896,2.7422514499163154e-12
1669909329967684837,-0.14776322469997846,0.059446884894164095,10.559233466829413,-1.0,-5.581502235090896,2.7422514499163154e-12
1669909329967698437,-0.15222269122925702,0.06339611571028315,10.559170946863537,-1.0,-5.627331331346973,2.744118554235773e-12
1669909329967711592,-0.15222269122925702,0.06339611571028315,10.559170946863537,-1.0,-5.55980869666958,2.744118554235773e-12
1669909329967724343,-0.15222269122925702,0.06339611571028315,10.559170946863537,-1.0,-5.55980869666958,2.744118554235773e-12
1669909329967738102,-0.15222269122925702,0.06339611571028315,10.559170946863537,-1.0,-5.560670718224111,2.744118554235773e-12
1669909329967751337,-0.15222269122925702,0.06339611571028315,10.559170946863537,-1.0,-5.560670718224111,2.744118554235773e-12
1669909329967763881,-0.15222269122925702,0.06339611571028315,10.559170946863537,-1.0,-5.561535748879986,2.744118554235773e-12
1669909329967802667,-0.15411027801747096,0.07573493005540274,10.559134826252617,-1.0,-5.561535748879981,2.7444677353369237e-12
1669909329983792194,-0.15411027801747096,0.07573493005540274,10.559134826252617,-1.0,-5.597482316141348,2.7444677353369237e-12
1669909330001488758,-0.15411027801747096,0.07573493005540274,10.559134826252617,-1.0,-5.597482316141348,2.7444677353369237e-12
1669909330021855263,-0.15411027801747096,0.07573493005540274,10.559134826252617,-1.0,-5.5665293004135314,2.7444677353369237e-12
1669909330046433943,-0.15411027801747096,0.07573493005540274,10.559134826252617,-1.0,-5.5665293004135314,2.7444677353369237e-12
1669909330056824245,-0.14566291152888408,0.07857607403074314,10.559092483119102,-1.0,-5.596722028046778,2.7452623436837927e-12
1669909330079659296,-0.14566291152888408,0.07857607403074314,10.559092483119102,-1.0,-5.570606524755203,2.7452623436837927e-12
1669909330105987734,-0.14568996903780052,0.08019107225980623,10.559071082799049,-1.0,-5.571861854857397,2.745769329556588e-12
1669909330123249607,-0.14568996903780052,0.08019107225980623,10.559071082799049,-1.0,-5.571861854857397,2.745769329556588e-12
1669909330141115100,-0.1452865461191025,0.08063234039575068,10.559066675749646,-1.0,-5.563956320244003,2.7459551306504843e-12
1669909330155727720,-0.14528657244253024,0.08063224917103279,10.559066676869826,-1.0,-5.571640275250096,2.7459551306504843e-12
1669909330476662897,-0.14528657244253024,0.08063224917103279,10.559066676869826,-1.0,-5.571640275250096,2.7459551306504843e-12
1669909330485106708,-0.14528657244253024,0.08063224917103279,10.559066676869826,-1.0,-5.572502021078349,2.7459551306504843e-12
1669909330485112887,-0.14528657244253024,0.08063224917103279,10.559066676869826,-1.0,-5.572935729710415,2.7459551306504843e-12
1669909330485128363,-0.14528657244253024,0.08063224917103279,10.559066676869826,-1.0,-5.573369189002995,2.7459551306504843e-12
1669909330485146637,-0.14528657244253024,0.08063224917103279,10.559066676869826,-1.0,-5.573369189002995,2.7459551306504843e-12
1669909330485187530,-0.14501772779599925,0.08090954657878503,10.569063942874534,-1.0,-5.569593520902923,2.7462882871721374e-12
1669909330485190703,-0.14424002861363633,0.08065519228652455,10.569070079636735,-1.0,-5.549076558474632,2.7465617661886287e-12
1669909330485209658,-0.14424002861363633,0.08065519228652455,10.569070079636735,-1.0,-5.549076558474632,2.7465617661886287e-12
1669909330485298900,-0.14424002861363633,0.08065519228652455,10.569070079636735,-1.0,-5.573621866292857,2.7465617661886287e-12
1669909330485323888,-0.14424002861363633,0.08065519228652455,10.569070079636735,-1.0,-5.574165575592915,2.7465617661886287e-12
1669909330485329618,-0.14424002861363633,0.08065519228652455,10.569070079636735,-1.0,-5.574165575592915,2.7465617661886287e-12
1669909330485336205,-0.14382336116791267,0.08068512027203087,10.569071126121328,-1.0,-5.5657989915181565,2.746530316548708e-12
1669909330502645552,-0.14382336116791267,0.08068512027203087,10.569071126121328,-1.0,-5.574471778487011,2.746530316548708e-12
1669909330502707197,-0.1421924328096902,0.08152978539120764,10.569065324662004,-1.0,-5.532449304963336,2.74621796883509e-12
1669909330502714992,-0.1421924328096902,0.08152978539120764,10.569065324662004,-1.0,-5.532449304963336,2.74621796883509e-12
1669909330502720452,-0.14173932385746932,0.08197510952445419,10.56906081986391,-1.0,-5.564367363818565,2.746139228446297e-12
1669909330502784502,-0.14047780505502344,0.08333134784227195,10.569046479713199,-1.0,-5.564367363818561,2.7460206893228654e-12
1669909330513949053,-0.14047780505502344,0.08333134784227195,10.569046479713199,-1.0,-5.54932356084394,2.7460206893228654e-12
1669909330542661338,-0.14047780505502344,0.08333134784227195,10.569046479713199,-1.0,-5.570645816493372,2.7460206893228654e-12
1669909330558192949,-0.14047780505502344,0.08333134784227195,10.569046479713199,-1.0,-5.571028510304788,2.7460206893228654e-12
1669909330581877705,-0.14047780505502344,0.08333134784227195,10.569046479713199,-1.0,-5.571028510304788,2.7460206893228654e-12
1669909330602114868,-0.14047780505502344,0.08333134784227195,10.569046479713199,-1.0,-5.571742118174034,2.7460206893228654e-12
1669909330619644729,-0.13045384917136235,0.08331520469384776,10.579043655587107,-1.0,-5.571742118174033,2.7460176600437465e-12
1669909330647901204,-0.13045384917136235,0.08331520469384776,10.579043655587107,-1.0,-5.572026577064751,2.7460176600437465e-12
1669909330687746652,-0.13045384917136235,0.08331520469384776,10.579043655587107,-1.0,-5.572837990574431,2.7460176600437465e-12
1669909330992753261,-0.13045384917136235,0.08331520469384776,10.579043655587107,-1.0,-5.572837990574431,2.7460176600437465e-12
1669909330992761919,-0.13045384917136235,0.08331520469384776,10.579043655587107,-1.0,-5.573554237171416,2.7460176600437465e-12
1669909331035792507,-0.1256627127117011,0.08583358307738073,10.589025924075804,-1.0,-5.573554237171404,2.744883981710451e-12
1669909331035809370,-0.1256627127117011,0.08583358307738073,10.589025924075804,-1.0,-5.4907595680480705,2.744883981710451e-12
1669909331035825753,-0.12353514762032379,0.08784523476350264,10.58900319658269,-1.0,-5.497212052138961,2.7441572423762846e-12
1669909331035842425,-0.12353514762032379,0.08784523476350264,10.58900319658269,-1.0,-5.5621128041041725,2.7441572423762846e-12
1669909331035858550,-0.12353514762032379,0.08784523476350264,10.58900319658269,-1.0,-5.5621128041041725,2.7441572423762846e-12
1669909331035898972,-0.12353514762032379,0.08784523476350264,10.58900319658269,-1.0,-5.562633713534598,2.7441572423762846e-12
1669909331035902020,-0.12353514762032379,0.08784523476350264,10.58900319658269,-1.0,-5.5629236889145375,2.7441572423762846e-12
1669909331035947464,-0.1222437073373828,0.07957558007713994,10.588981755691053,-1.0,-5.562923688914534,2.7435814879891953e-12
1669909331036001615,-0.1222437073373828,0.07957558007713994,10.588981755691053,-1.0,-5.541607500076679,2.7435814879891953e-12
1669909331036004554,-0.11883737906273945,0.08536710844521858,10.5889047697466,-1.0,-5.541607500076673,2.7420539792309277e-12
1669909331036021859,-0.11883737906273945,0.08536710844521858,10.5889047697466,-1.0,-5.502294013796416,2.7420539792309277e-12
1669909331036037964,-0.11883737906273945,0.08536710844521858,10.5889047697466,-1.0,-5.555538806614627,2.7420539792309277e-12
1669909331036054928,-0.11883737906273945,0.08536710844521858,10.5889047697466,-1.0,-5.555538806614627,2.7420539792309277e-12
1669909331049231694,-0.11883737906273945,0.08536710844521858,10.5889047697466,-1.0,-5.555999811274709,2.7420539792309277e-12
1669909331049252876,-0.11883737906273945,0.08536710844521858,10.5889047697466,-1.0,-5.55628947339688,2.7420539792309277e-12
1669909331049271722,-0.11777404522318555,0.07763687452267251,10.598872868474206,-1.0,-5.556289473396879,2.7417876266662265e-12
1669909331049288288,-0.11545512551925147,0.0830096369544709,10.598794457962514,-1.0,-5.491140687047028,2.740782018126814e-12
1669909331062148396,-0.11545512551925147,0.0830096369544709,10.598794457962514,-1.0,-5.491140687047028,2.740782018126814e-12
1669909331078225921,-0.1142472940880716,0.08558754015597324,10.59875573495495,-1.0,-5.530016707384306,2.7408478282633494e-12
1669909331097247395,-0.1142472940880716,0.08558754015597324,10.59875573495495,-1.0,-5.548723047069765,2.7408478282633494e-12
1669909331157818045,-0.1142472940880716,0.08558754015597324,10.59875573495495,-1.0,-5.548723047069765,2.7408478282633494e-12
1669909331161044046,-0.1142472940880716,0.08558754015597324,10.59875573495495,-1.0,-5.549066958647397,2.7408478282633494e-12
1669909331161137372,-0.1142472940880716,0.08558754015597324,10.59875573495495,-1.0,-5.549242324778622,2.7408478282633494e-12
1669909331175576444,-0.09333955905134665,0.09769018332020948,10.608716968077367,-1.0,-5.519594418583456,2.7418411556669673e-12
1669909331198785334,-0.09333955905134665,0.09769018332020948,10.608716968077367,-1.0,-5.519594418583456,2.7418411556669673e-12
1669909331216019821,-0.09313735776980746,0.09798026376286978,10.608712572832975,-1.0,-5.544583456633871,2.7431655950445566e-12
1669909331525380310,-0.09313735776980746,0.09798026376286978,10.608712572832975,-1.0,-5.544583456633871,2.7431655950445566e-12
1669909331531357728,-0.09352883526856026,0.09628833228402729,10.608739146563167,-1.0,-5.554735272741918,2.7450021677488073e-12
1669909331531374520,-0.09352883526856026,0.09628833228402729,10.608739146563167,-1.0,-5.548881566354223,2.7450021677488073e-12
1669909331531390605,-0.09352883526856026,0.09628833228402729,10.608739146563167,-1.0,-5.548881566354223,2.7450021677488073e-12
1669909331531406963,-0.09352883526856026,0.09628833228402729,10.608739146563167,-1.0,-5.549211867247458,2.7450021677488073e-12
1669909331531484328,-0.09352883526856026,0.09628833228402729,10.608739146563167,-1.0,-5.549377808968987,2.7450021677488073e-12
1669909331531507381,-0.09352883526856026,0.09628833228402729,10.608739146563167,-1.0,-5.549555796747523,2.7450021677488073e-12
1669909331531524490,-0.09352883526856026,0.09628833228402729,10.608739146563167,-1.0,-5.549555796747523,2.7450021677488073e-12
1669909331531540800,-0.08472456348792601,0.10222405832232492,10.618807764074004,-1.0,-5.571370891567452,2.7474871004732188e-12
1669909331531556666,-0.08472456348792601,0.10222405832232492,10.618807764074004,-1.0,-5.5522995417412915,2.7474871004732188e-12
1669909331531572516,-0.08472456348792601,0.10222405832232492,10.618807764074004,-1.0,-5.5522995417412915,2.7474871004732188e-12
1669909331531588873,-0.08472456348792601,0.10222405832232492,10.618807764074004,-1.0,-5.5526588404256305,2.7474871004732188e-12
1669909331531822905,-0.08472456348792601,0.10222405832232492,10.618807764074004,-1.0,-5.5528392609962856,2.7474871004732188e-12
1669909331533617491,-0.08472456348792601,0.10222405832232492,10.618807764074004,-1.0,-5.5528392609962856,2.7474871004732188e-12
1669909331533635860,-0.08472456348792601,0.10222405832232492,10.618807764074004,-1.0,-5.553215825347841,2.7474871004732188e-12
1669909331533654505,-0.07831614564019619,0.11119034764328167,10.638966706832273,-1.0,-5.553215825347827,2.752917084668993e-12
1669909331555211677,-0.07831614564019619,0.11119034764328167,10.638966706832273,-1.0,-5.616884088564244,2.752917084668993e-12
1669909331577752701,-0.08393170969395537,0.10014671833547678,10.63910735602844,-1.0,-5.616884088564231,2.757575251044242e-12
1669909331599811617,-0.08393170969395537,0.10014671833547678,10.63910735602844,-1.0,-5.657094346530502,2.757575251044242e-12
1669909331614138684,-0.08393170969395537,0.10014671833547678,10.63910735602844,-1.0,-5.657094346530502,2.757575251044242e-12
1669909331633941962,-0.08393170969395537,0.10014671833547678,10.63910735602844,-1.0,-5.5717152818780376,2.757575251044242e-12
1669909331656233069,-0.08393170969395537,0.10014671833547678,10.63910735602844,-1.0,-5.572008979487452,2.757575251044242e-12
1669909331673110957,-0.08393170969395537,0.10014671833547678,10.63910735602844,-1.0,-5.572008979487452,2.757575251044242e-12
1669909331696655121,-0.08393170969395537,0.10014671833547678,10.63910735602844,-1.0,-5.572592534692018,2.757575251044242e-12
1669909331718406749,-0.08648077002210372,0.07601963084415748,10.639154722740432,-1.0,-5.572592534692013,2.7600852897234024e-12
1669909331733807985,-0.08648077002210372,0.07601963084415748,10.639154722740432,-1.0,-5.617468555670026,2.7600852897234024e-12
1669909332041016312,-0.08648077002210372,0.07601963084415748,10.639154722740432,-1.0,-5.578237232647594,2.7600852897234024e-12
1669909332061981793,-0.08648077002210372,0.07601963084415748,10.639154722740432,-1.0,-5.578237232647594,2.7600852897234024e-12
1669909332062004136,-0.08648077002210372,0.07601963084415748,10.639154722740432,-1.0,-5.578881408680757,2.7600852897234024e-12
1669909332062022007,-0.09604764483818161,0.05784295988633304,10.639225882543066,-0.9979295564349515,-5.864412041522693,2.765807897591673e-12
1669909332062039988,-0.09604764483818161,0.05784295988633304,10.639225882543066,-0.9979295564349515,-5.864412041522693,2.765807897591673e-12
1669909332062057649,-0.09604764483818161,0.05784295988633304,10.639225882543066,-1.0,-5.597795309098816,2.765807897591673e-12
1669909332062089214,-0.09604764483818161,0.05784295988633304,10.639225882543066,-1.0,-5.597795309098816,2.765807897591673e-12
1669909332062266715,-0.09604764483818161,0.05784295988633304,10.639225882543066,-1.0,-5.598637747909975,2.765807897591673e-12
1669909332062286775,-0.09230687401762408,0.04588840929582652,10.649223919634421,-1.0,-5.598637747909965,2.7689816957712075e-12
1669909332062304753,-0.09230687401762408,0.04588840929582652,10.649223919634421,-1.0,-5.706785754867987,2.7689816957712075e-12
1669909332062336617,-0.09752332162502914,0.04406512980503567,10.649221405078992,-1.0,-5.765641615900467,2.771942657902891e-12
1669909332062359059,-0.09844303279091764,0.04375309002913866,10.649220529674189,-1.0,-5.765641615900464,2.7725672281124837e-12
1669909332071071327,-0.09844303279091764,0.04375309002913866,10.649220529674189,-1.0,-5.638977210922004,2.7725672281124837e-12
1669909332071090183,-0.09844303279091764,0.04375309002913866,10.649220529674189,-1.0,-5.624829036144204,2.7725672281124837e-12
1669909332071109580,-0.09844303279091764,0.04375309002913866,10.649220529674189,-1.0,-5.624829036144204,2.7725672281124837e-12
1669909332071128431,-0.09844303279091764,0.04375309002913866,10.649220529674189,-1.0,-5.625966954299299,2.7725672281124837e-12
1669909332082773859,-0.10001763690741894,0.05304928918288013,10.649221007510198,-1.0,-5.625966954299296,2.7728574877444114e-12
1669909332097395214,-0.10001763690741894,-0.7260722289521906,-9.350778992489802,-1.0,-5.6541141185586055,2.7728574877444114e-12
1669909332142580543,-0.10202474118904736,-0.7277024440073866,-9.350770779963346,-1.0,-5.654114118558597,2.773832120347841e-12
1669909332166788276,-0.10228327181349345,-0.7281928454668545,-9.350766596576385,-1.0,-5.670444710484776,2.774107599105862e-12
1669909332166793111,-0.10228327181349345,-0.7281928454668545,-9.350766596576385,-1.0,-5.636177070863135,2.774107599105862e-12
1669909332179725703,-0.10228327181349345,-0.7281928454668545,-9.350766596576385,-1.0,-5.636177070863135,2.774107599105862e-12
1669909332191789002,-0.10228327181349345,-0.7281928454668545,-9.350766596576385,-1.0,-5.637428918569624,2.774107599105862e-12
1669909332216163051,-0.10228327181349345,-0.7281928454668545,-9.350766596576385,-1.0,-5.637428918569624,2.774107599105862e-12
1669909332266606584,-0.10234372822108279,-0.7394708821145293,-9.350752529038267,-1.0,-5.639745438769538,2.7740329938567434e-12
1669909332495676109,-0.10234372822108279,-0.7394708821145293,-9.350752529038267,-1.0,-5.639745438769538,2.7740329938567434e-12
1669909332512246034,-0.10171170903374596,-0.7431244407485664,-9.350709017375488,-1.0,-5.630723325952006,2.7753655730347594e-12
1669909332512276893,-0.10171170876471707,-0.7431244392490494,-9.350709017234516,-1.0,-5.646322515864955,2.7804854598043935e-12
1669909332512296186,-0.10201967449164062,-0.749524492375334,-9.35064357721207,-1.0,-5.646322515864955,2.7804854598043935e-12
1669909332512314985,-0.10201967449164062,-0.749524492375334,-9.35064357721207,-1.0,-5.646322515864955,2.7804854598043935e-12
1669909332512334625,-0.10201967449164062,-0.749524492375334,-9.35064357721207,-1.0,-5.642042954063359,2.7804854598043935e-12
1669909332513255192,-0.10201967449164062,-0.749524492375334,-9.35064357721207,-1.0,-5.6426827044148515,2.7804854598043935e-12
1669909332513262264,-0.10201967449164062,-0.749524492375334,-9.35064357721207,-1.0,-5.643352379766741,2.7804854598043935e-12
1669909332513264349,-0.10201967449164062,-0.749524492375334,-9.35064357721207,-1.0,-5.643352379766741,2.7804854598043935e-12
1669909332513266501,-0.10201967449164062,-0.749524492375334,-9.35064357721207,-1.0,-5.644577630493365,2.7804854598043935e-12
1669909332513353255,-0.10422307438575915,-0.7605850641096198,-9.350464310761216,-0.9419676157194741,-5.70091918693892,2.7883570941324727e-12
1669909332513374972,-0.10422307438575915,-0.7605850641096198,-9.350464310761216,-0.9419676157194741,-5.70091918693892,2.7883570941324727e-12
1669909332513396883,-0.10422307438575915,-0.7605850641096198,-9.350464310761216,-1.0,-5.650629336100383,2.7883570941324727e-12
1669909332520439611,-0.10422307438575915,-0.7605850641096198,-9.350464310761216,-1.0,-5.651459067408946,2.7883570941324727e-12
1669909332541652445,-0.10422307438575915,0.01853645402545101,0.05309108245777949,-1.0,-5.651459067408946,2.7883570941324727e-12
1669909332556012210,0.08214756915141104,0.0663775377807479,-0.3166291853899281,-0.8333858397086675,-5.721139491188202,2.8009432129465945e-12
1669909332593555927,0.08214756915141104,0.0663775377807479,-0.3166291853899281,-0.8333858397086675,-5.721139491188202,2.8009432129465945e-12
1669909332606425622,0.08068329163819019,-0.00970294923439284,0.5152254207950708,-0.7811414227649682,-5.686659391420586,2.813306869580107e-12
1669909332620281528,0.08068329163819019,-0.00970294923439284,0.5152254207950708,-0.9813767120410357,-5.664246967057987,2.813306869580107e-12
1669909332634243741,0.07932863340965118,-0.050898086609979604,0.6812859410979968,-0.9813767120410357,-5.66424696705796,2.8210222933828574e-12
1669909332651204765,0.07932863340965118,-0.050898086609979604,0.6812859410979968,-0.8599306372766445,-5.689565930547978,2.8210222933828574e-12
1669909332680149725,0.07932863340965118,-0.050898086609979604,0.6812859410979968,-0.9681413871515203,-5.669029786691356,2.8210222933828574e-12
1669909332690385456,0.07932863340965118,-0.050898086609979604,0.6812859410979968,-0.9681413871515203,-5.669029786691356,2.8210222933828574e-12
1669909332719234182,0.07932863340965118,-0.050898086609979604,0.6812859410979968,-0.9677594023278331,-5.6704081858241375,2.8210222933828574e-12
1669909332740188647,-0.010672103709525663,-0.060871114328651235,0.23128627832748272,-0.9676928609571571,-5.671195250271954,2.8201876929992367e-12
1669909332752099244,-0.010672103709525663,-0.060871114328651235,0.23128627832748272,-0.9676928609571571,-5.671195250271954,2.8201876929992367e-12
1669909332777652870,-0.016864395480597295,-0.14350791665287604,0.23004808851404945,-0.7254772243983448,-5.78150859518774,2.8360351112909306e-12
1669909333025750905,-0.016864395480597295,-0.14350791665287604,0.23004808851404945,-0.9411763980802552,-5.684951731598933,2.8360351112909306e-12
1669909333060901141,-0.016864395480597295,-0.14350791665287604,0.23004808851404945,-0.9407897244734893,-5.685796706934948,2.8360351112909306e-12
1669909333060940853,-0.016864395480597295,-0.14350791665287604,0.23004808851404945,-0.9407897244734893,-5.685796706934948,2.8360351112909306e-12
1669909333060969910,-0.016864395480597295,-0.14350791665287604,0.23004808851404945,-0.9400543184835206,-5.687405653679252,2.8360351112909306e-12
1669909333060997952,-0.04291296302642072,-0.1984896215219683,-0.09093977482306315,-0.9400543184835206,-5.687405653679231,2.844010281829888e-12
1669909333061040789,-0.04291296302642072,-0.1984896215219683,-0.09093977482306315,-0.8105301728184612,-5.792870176686543,2.844010281829888e-12
1669909333061063264,-0.05751668587533727,-0.26148686685016836,-0.09272946120761283,-0.8105301728184612,-5.792870176686504,2.858157553521625e-12
1669909333061084358,-0.05751673258093218,-0.2614870025866682,-0.09272946565959295,-0.7444367653120807,-5.952481881392097,2.858157553521625e-12
1669909333061110061,-0.06513702881454436,-0.28128039358421314,-0.09340885197146953,-0.7987686543346263,-5.974207654333502,2.8622128207764483e-12
1669909333061131651,-0.06513702881454436,-0.28128039358421314,-0.09340885197146953,-0.7987686543346263,-5.974207654333502,2.8622128207764483e-12
1669909333061148782,-0.06513702881454436,-0.28128039358421314,-0.09340885197146953,-0.8969396277673918,-5.746700077282573,2.8622128207764483e-12
1669909333061166993,-0.06513702881454436,-0.28128039358421314,-0.09340885197146953,-0.8962636128914976,-5.747937090058128,2.8622128207764483e-12
1669909333068876885,-0.06513702881454436,-0.28128039358421314,-0.09340885197146953,-0.8954669885828268,-5.749397807317314,2.8622128207764483e-12
1669909333068930663,-0.06513702881454436,-0.28128039358421314,-0.09340885197146953,-0.8954669885828268,-5.749397807317314,2.8622128207764483e-12
1669909333083093425,-0.06513702881454436,-0.28128039358421314,-0.09340885197146953,-0.8943797862949378,-5.751391282521991,2.8622128207764483e-12
1669909333099365229,-0.15913817886203202,-0.3618362808334745,6.180288687210497,-0.8943797862949378,-5.751391282521984,2.864818005482605e-12
1669909333119169912,-0.15913817886203202,-0.3618362808334745,6.180288687210497,-0.8652347563717628,-5.8170186234121735,2.864818005482605e-12
1669909333135183968,-0.15913817886203202,-0.3618362808334745,9.454218044739184,-0.8652347563717628,-5.8170186234121735,2.864818005482605e-12
1669909333166547942,-0.15913817886203202,-0.3618362808334745,9.454218044739184,-0.8885448916524037,-5.763547058231503,2.864818005482605e-12
1669909333180281543,-0.15913817886203202,-0.3618362808334745,9.454218044739184,-0.8878881191200183,-5.764760463805864,2.864818005482605e-12
1669909333197347682,-0.15913817886203202,-0.3618362808334745,9.454218044739184,-0.8872299447194587,-5.765976209561507,2.864818005482605e-12
1669909333223676336,-0.17862836454507933,-0.4528045332135154,9.403164813643336,-0.797404169216792,-5.99999999999111,2.872829255446578e-12
1669909333237732304,-0.17862836454507933,-0.4528045332135154,9.403164813643336,-0.797404169216792,-5.99999999999111,2.872829255446578e-12
1669909333257979938,-0.19645240382622792,-0.43116895901624497,9.403647420416101,-0.9504207635982996,-5.999999999991104,2.873745007707259e-12
1669909333280727175,-0.19645240382622792,-0.43116895901624497,9.403647420416101,-0.8847542859566843,-5.85967662338814,2.873745007707259e-12
1669909333297749775,-0.19645240382622792,-0.43116895901624497,9.403647420416101,-0.8840946055336585,-5.861478081133532,2.873745007707259e-12
1669909333549694440,-0.19645240382622792,-0.43116895901624497,9.403647420416101,-0.8840946055336585,-5.861478081133532,2.873745007707259e-12
1669909333553710498,-0.19645240382622792,-0.43116895901624497,9.403647420416101,-0.8827930153809747,-5.8650405096963185,2.873745007707259e-12
1669909333553754272,-0.187498515860332,-0.5179140563808184,9.323737963470377,-0.8994979625920652,-5.900402149181267,2.8723016588501584e-12
1669909333553792318,-0.187498515860332,-0.5179140563808184,9.323737963470377,-0.8994979625920652,-5.900402149181267,2.8723016588501584e-12
1669909333553829458,-0.187498515860332,-0.5179140563808184,9.323737963470377,-0.8818382133336984,-5.872387096538176,2.8723016588501584e-12
1669909333553866347,-0.20491217018806052,-0.46789991120821106,9.324954705019074,-0.8818382133336984,-5.872387096538178,2.8686839288165234e-12
1669909333553903585,-0.20491217018806052,-0.46789991120821106,9.324954705019074,-1.0,-5.999999999991109,2.8686839288165234e-12
1669909333553940100,-0.20491217018806052,-0.46789991120821106,9.324954705019074,-0.8955005490201344,-5.910393375587965,2.8686839288165234e-12
1669909333553976714,-0.20491217018806052,-0.46789991120821106,9.324954705019074,-0.8949342930751796,-5.912483839927569,2.8686839288165234e-12
1669909333554013034,-0.20491217018806052,-0.46789991120821106,9.324954705019074,-0.8949342930751796,-5.912483839927569,2.8686839288165234e-12
1669909333554049411,-0.32236768772245583,-0.5076230350489408,9.285844361980967,-1.0,-5.999999999991119,2.861616056349516e-12
1669909333554085910,-0.32236768772245583,-0.5076230350489408,9.285844361980967,-1.0,-5.999999999991119,2.861616056349516e-12
1669909333576164659,-0.32892535442817916,-0.4203873570453158,9.287363736871662,-1.0,-5.999999999991136,2.848085513285234e-12
1669909333576328754,-0.32892535442817916,-0.4203873570453158,9.287363736871662,-1.0,-5.999999999991136,2.848085513285234e-12
1669909333596906566,-0.3288478333193976,-0.36407249696497973,9.288009559981544,-1.0,-5.950101802736679,2.838136427013187e-12
1669909333618598390,-0.3288478333193976,-0.36407249696497973,9.288009559981544,-1.0,-5.950101802736679,2.838136427013187e-12
1669909333636107564,-0.3288478333193976,-0.36407249696497973,9.288009559981544,-0.9489928940653914,-5.9553147665870165,2.838136427013187e-12
1669909333654962809,-0.3288478333193976,-0.36407249696497973,9.288009559981544,-0.9488209578117506,-5.957509589175918,2.838136427013187e-12
1669909333674899505,-0.3288478333193976,-0.36407249696497973,9.288009559981544,-0.9488209578117506,-5.957509589175918,2.838136427013187e-12
1669909333697319988,-0.3162560622045635,-0.3710443235272519,9.418367742790364,-1.0,-5.917601192848239,2.8278942384455595e-12
1669909333714084710,-0.3162560622045635,-0.3710443235272519,9.418367742790364,-1.0,-5.917601192848239,2.8278942384455595e-12
1669909333736022532,-0.3098675155434638,-0.3058815276212078,9.418470247586397,-1.0,-5.851166291686339,2.8139318873706636e-12
1669909333752791211,-0.3098675155434638,-0.3058815276212078,9.418470247586397,-0.9850523255229017,-5.951581213944627,2.8139318873706636e-12
1669909333774574087,-0.3098675155434638,-0.3058815276212078,9.418470247586397,-0.9851222022021635,-5.953668208295846,2.8139318873706636e-12
1669909333826946379,-0.3098675155434638,-0.3058815276212078,9.418470247586397,-0.9852021718865355,-5.956067152018937,2.8139318873706636e-12
1669909334073891836,-0.3098675155434638,-0.3058815276212078,9.418470247586397,-0.9852021718865355,-5.956067152018937,2.8139318873706636e-12
1669909334073894520,-0.3147467477764111,-0.30566463314881326,9.488464534596053,-1.0,-5.864924682217341,2.8110141979359644e-12
1669909334086116261,-0.29547197678062176,-0.22207533054061993,9.487950095028834,-1.0,-5.335922066497356,2.793547485827051e-12
1669909334086219067,-0.29547197678062176,-0.22207533054061993,9.487950095028834,-1.0,-5.335922066497356,2.793547485827051e-12
1669909334086275959,-0.29547197678062176,-0.22207533054061993,9.487950095028834,-1.0,-5.920348800818812,2.793547485827051e-12
1669909334086348387,-0.29547197678062176,-0.22207533054061993,9.487950095028834,-1.0,-5.922128951009584,2.793547485827051e-12
1669909334086354114,-0.29547197678062176,-0.22207533054061993,9.487950095028834,-1.0,-5.922128951009584,2.793547485827051e-12
1669909334086443900,-0.3037071572502841,-0.14883334991025635,9.537415983998091,-1.0,-5.723169953734726,2.780344578444572e-12
1669909334086448907,-0.3037071572502841,-0.14883334991025635,9.537415983998091,-1.0,-5.723169953734726,2.780344578444572e-12
1669909334086450872,-0.26168343132769906,-0.06328932460571118,9.535945479462056,-1.0,-5.193447584397427,2.7519511536113927e-12
1669909334086501785,-0.23954810824468203,-0.03356909995906715,9.53527403744691,-1.0,-5.193447584397424,2.7397849596535313e-12
1669909334086545094,-0.23954810824468203,-0.03356909995906715,9.53527403744691,-1.0,-5.46966061195905,2.7397849596535313e-12
1669909334087599320,-0.23954810824468203,-0.03356909995906715,9.53527403744691,-1.0,-5.46966061195905,2.7397849596535313e-12
1669909334097835771,-0.23954810824468203,-0.03356909995906715,9.53527403744691,-1.0,-5.791876227801204,2.7397849596535313e-12
1669909334097855622,-0.23954810824468203,-0.03356909995906715,9.53527403744691,-1.0,-5.791876227801204,2.7397849596535313e-12
1669909334111457927,-0.23954810824468203,-0.03356909995906715,9.53527403744691,-1.0,-5.79342081834602,2.7397849596535313e-12
1669909334134804374,-0.25466248682353065,0.01277324259212187,9.565113622061046,-1.0,-5.793420818346018,-3.5626280307742406
1669909334184940353,-0.25466248682353065,0.01277324259212187,9.565113622061046,-1.0,-5.71144213445106,-3.5626280307742406
1669909334194166781,-0.2055052677101218,0.05262664992885896,9.564002885023337,-1.0,-4.1963023082426245,-3.5626280307742637
1669909334194176977,-0.2055052677101218,0.05262664992885896,9.564002885023337,-1.0,-5.696223057470852,-6.358637809750705
1669909334219383976,-0.2055052677101218,0.05262664992885896,9.564002885023337,-1.0,-5.696417136051775,-6.358637809750705
1669909334236572311,-0.2055052677101218,0.05262664992885896,9.564002885023337,-1.0,-5.696417136051775,-10.252928137776522
1669909334252126420,-0.2055052677101218,0.05262664992885896,9.564002885023337,-1.0,-5.696790507781824,-10.252928137776522
1669909334276357640,-0.19579393901731812,0.1339499460420334,9.603602482466238,-1.0,-4.73657319704714,-10.25292813777653
1669909334297115233,-0.19579393901731812,0.1339499460420334,9.603602482466238,-1.0,-5.641925863322785,-11.151521801945842
1669909334317941023,-0.14394966684271454,0.1356344467375337,9.60332930787412,-1.0,-3.965546555557634,-11.151521801945862
1669909334339679136,-0.14394966684271454,0.1356344467375337,9.60332930787412,-1.0,-3.965546555557634,-11.351208686825927
1669909334353999515,-0.14394966684271454,0.1356344467375337,9.60332930787412,-1.0,-5.5443768380119876,-11.351208686825927
1669909334595098458,-0.14394966684271454,0.1356344467375337,9.60332930787412,-1.0,-5.543562228769347,-11.351208686825927
1669909334631589219,-0.14394966684271454,0.1356344467375337,9.60332930787412,-1.0,-5.543562228769347,-9.853552579877075
1669909334631607434,-0.15405464597950466,0.19544100974813136,9.66333694148054,-1.0,-5.5437571898697895,-9.853552579877071
1669909334631625271,-0.10954357224999496,0.17565973032434443,9.663633725863798,-0.9952080767933348,-4.106237982851909,-9.853552579877082
1669909334631643101,-0.10954357224999496,0.17565973032434443,9.663633725863798,-1.0,-5.457088109163044,-9.853552579877082
1669909334631659757,-0.09785371577979407,0.16749066534360404,9.663771338847974,-1.0,-5.457088109163036,-9.853552579877084
1669909334631676891,-0.09785371577979407,0.16749066534360404,9.663771338847974,-1.0,-5.198047132225653,-9.853552579877084
1669909334631717962,-0.09785371577979407,0.16749066534360404,9.663771338847974,-1.0,-5.431750848811747,-9.853552579877084
1669909334631721043,-0.09785371577979407,0.16749066534360404,9.663771338847974,-1.0,-5.431750848811747,-9.853552579877084
1669909334631765808,-0.09785371577979407,0.16749066534360404,9.663771338847974,-1.0,-5.428916521015319,-9.853552579877084
1669909334631769418,-0.09785371577979407,0.16749066534360404,9.663771338847974,-1.0,-5.428916521015319,-9.853552579877084
1669909334631778726,-0.06181584671588514,0.22530223502024704,9.723957864125502,-1.0,-5.150471375248492,-9.853552579877084
1669909334638662887,-0.06181584671588514,0.22530223502024704,9.723957864125502,-1.0,-5.394416701409525,-9.853552579877084
1669909334638688898,-0.0286534806008098,0.18214160621988945,9.724727405150132,-1.0,-5.39441670140951,-1.366066262123294
1669909334651998453,-0.0286534806008098,0.18214160621988945,9.724727405150132,-0.973004947998149,-4.822008766658744,-1.366066262123294
1669909334673903254,-0.0286534806008098,0.18214160621988945,9.724727405150132,-1.0,-5.327261244684118,-1.366066262123294
1669909334702996193,-0.0286534806008098,0.18214160621988945,9.724727405150132,-1.0,-5.324578703363691,-0.16794175374985473
1669909334725664103,-0.0286534806008098,0.18214160621988945,9.724727405150132,-1.0,-5.324578703363691,-0.16794175374985473
1669909334737582076,-0.0286534806008098,0.18214160621988945,7.6156413386656805,-1.0,-5.320984430985225,-0.16794175374985473
1669909334750627358,0.021853310171071755,0.2602671523318818,7.6960346746410435,-1.0,-5.320984430985232,-0.16794175374985174
1669909334779925966,0.021853310171071755,0.2602671523318818,7.6960346746410435,-1.0,-5.139540242712714,-0.16794175374985174
1669909334796953714,0.0334984510965074,0.2250367388849234,-1.7891470598448276,-1.0,-5.139540242712748,-0.16794175374985038
1669909334813164232,0.03700930699417662,0.21210267316429474,-1.7889418611981078,-0.936550622451046,-5.0281094353539935,-0.16794175374984985
1669909334838411060,0.03700930699417662,-0.7334250294056668,-10.194061041877431,-1.0,-5.262211513421084,-0.06809803889796381
1669909334857925154,0.03700930699417662,-0.7334250294056668,-10.194061041877431,-1.0,-5.2597698457957005,-0.06809803889796381
1669909334870268514,0.03700930699417662,-0.7334250294056668,-10.194061041877431,-1.0,-5.2597698457957005,-0.06809803889796381
1669909335114834500,0.03700930699417662,-0.8998312138405575,-10.194061041877431,-1.0,-5.254960789311794,2.679770875895577e-12
1669909335131201688,0.03700930699417662,-0.8998312138405575,-10.194061041877431,-1.0,-5.254960789311794,2.679770875895577e-12
1669909335131210880,0.07690771040094788,-0.7197818446368905,-10.134060296183799,-1.0,-5.251875307957143,2.680777039253455e-12
1669909335131215155,0.07690771040094788,-0.7197818446368905,-10.134060296183799,-1.0,-5.251875307957143,2.680777039253455e-12
1669909335131277949,0.0783238248351562,-0.7346891876735964,-10.133792851391672,-1.0,-5.221168420515881,2.684383686612071e-12
1669909335131297697,0.0783238248351562,-0.7346891876735964,-10.133792851391672,-1.0,-5.240182597053824,2.684383686612071e-12
1669909335131315124,0.0783238248351562,-0.7346891876735964,-10.133792851391672,-1.0,-5.240182597053824,2.684383686612071e-12
1669909335131353364,0.0783238248351562,-0.7346891876735964,-10.133792851391672,-1.0,-5.235620670570045,2.684383686612071e-12
1669909335131356498,0.0783238248351562,-0.7346891876735964,-10.133792851391672,-1.0,-5.233171043574841,2.684383686612071e-12
1669909335131460977,0.05605058972357457,-0.7005401296540315,-10.103637211602003,-1.0,-5.233171043574853,2.688446620069167e-12
1669909335131539496,0.05605058972357457,-0.7005401296540315,-10.103637211602003,-1.0,-5.26757611363328,2.688446620069167e-12
1669909335131542713,0.0460841847247655,-0.7174598262496488,-10.103144661936922,-0.9657585877846421,-5.5471482954592455,2.698343697851925e-12
1669909335140193341,0.0460841847247655,-0.7174598262496488,-10.103144661936922,-1.0,-5.245948906787443,2.698343697851925e-12
1669909335154836908,0.0460841847247655,-0.7174598262496488,-10.103144661936922,-1.0,-5.245948906787443,2.698343697851925e-12
1669909335184025052,0.0460841847247655,-0.7174598262496488,-10.103144661936922,-1.0,-5.241693613812219,2.698343697851925e-12
1669909335204297791,0.0460841847247655,-0.7174598262496488,-10.103144661936922,-1.0,-5.241693613812219,2.698343697851925e-12
1669909335218869068,0.0460841847247655,-0.7174598262496488,-10.103144661936922,-1.0,-5.237018254381467,2.698343697851925e-12
1669909335238808965,0.0460841847247655,-0.7174598262496488,-10.103144661936922,-1.0,-5.237018254381467,2.698343697851925e-12
1669909335253957656,0.20806581194195423,-0.7738176412744072,-10.192735106731934,-1.0,-5.375566468699237,2.706157320352649e-12
1669909335280574228,0.20806581194195423,-0.7738176412744072,-10.192735106731934,-1.0,-5.2453466489201945,2.706157320352649e-12
1669909335294080996,0.20806581194195423,-0.7738176412744072,-10.192735106731934,-1.0,-5.2453466489201945,2.706157320352649e-12
1669909335316631385,0.20806581194195423,-0.7738176412744072,-10.192735106731934,-1.0,-5.240943415960119,2.706157320352649e-12
1669909335333585716,0.20806581194195423,0.3381162457304451,-3.6187266419187054,-1.0,-5.240943415960119,2.706157320352649e-12
1669909335350866821,0.1892547018081643,0.2545052124726213,-4.077841448258894,-0.9219832896636984,-5.556247271848638,2.725909237441474e-12
1669909335401042107,0.1892547018081643,0.2545052124726213,-4.077841448258894,-0.9219832896636984,-5.556247271848638,2.725909237441474e-12
1669909335413401285,0.161680521169663,0.1900257938268976,-1.0810038870516827,-0.8563341801379554,-5.718955393843666,2.7513971616810005e-12
1669909335413457124,0.161680521169663,0.1900257938268976,-1.0810038870516827,-0.8563341801379554,-5.718955393843666,2.7513971616810005e-12
1669909335754739391,0.161680521169663,0.1900257938268976,1.5814950639065675,-1.0,-5.315776115138245,2.7513971616810005e-12
1669909335754748887,0.161680521169663,0.1900257938268976,1.5814950639065675,-1.0,-5.313960223281315,2.7513971616810005e-12
1669909335754756918,0.161680521169663,0.1900257938268976,1.5814950639065675,-1.0,-5.313960223281315,2.7513971616810005e-12
1669909335754812619,0.161680521169663,0.1900257938268976,1.5814950639065675,-1.0,-5.310946829143547,2.7513971616810005e-12
1669909335754816573,0.1365069555255059,0.16640852390084498,1.2717748867772904,-0.8307631834313243,-5.801017658876247,2.7637521797350483e-12
1669909335754863009,0.11286833726846808,0.11754592008988293,1.2719373927687752,-0.7407851251435518,-5.999999999991123,2.782050215749933e-12
1669909335754865648,0.08863864969482554,0.07325278652278294,1.2718451667826471,-0.7890920094493382,-5.9999999999911084,2.79983303628838e-12
1669909335754904334,0.08863862408008451,0.07325270288248796,1.2718451662222332,-0.7890920094493382,-5.9999999999911084,2.79983303628838e-12
1669909335754906913,0.08863862408008451,0.07325270288248796,1.2718451662222332,-0.97285202958726,-5.42152842937695,2.79983303628838e-12
1669909335754932342,0.08863862408008451,0.07325270288248796,1.2718451662222332,-0.97285202958726,-5.42152842937695,2.79983303628838e-12
1669909335754958561,0.08863862408008451,0.07325270288248796,1.2718451662222332,-0.9724983010948782,-5.41984624877737,2.79983303628838e-12
1669909335762804010,0.08863862408008451,0.07325270288248796,1.2718451662222332,-0.9724983010948782,-5.41984624877737,2.79983303628838e-12
1669909335762806909,0.08863862408008451,0.07325270288248796,1.2718451662222332,-0.9721299684241501,-5.418099006247405,2.79983303628838e-12
1669909335762825042,0.0699674425036623,0.038414908625836436,0.9717681905929183,-0.9721299684241501,-5.418099006247401,2.8045103942954967e-12
1669909335762842069,0.0699674425036623,0.038414908625836436,0.9717681905929183,-0.9278570955798487,-5.570429821045644,2.8045103942954967e-12
1669909335762858297,0.012708672824621674,-0.05129915011132391,0.9706117161858732,-0.4931243371505368,-5.999999999991077,2.836774168393004e-12
1669909335762903599,0.012708672824621674,-0.05129915011132391,0.9706117161858732,-0.4931243371505368,-5.999999999991077,2.836774168393004e-12
1669909335771208979,0.012708672824621674,-0.05129915011132391,0.9706117161858732,-0.9385928924107595,-5.5375626831160005,2.836774168393004e-12
1669909335796390457,0.012708672824621674,-0.05129915011132391,8.7381507405389,-0.938198895463012,-5.537529207670339,2.836774168393004e-12
1669909335809247417,0.012708672824621674,-0.05129915011132391,8.7381507405389,-0.938198895463012,-5.537529207670339,2.836774168393004e-12
1669909335838299572,0.012708672824621674,-0.05129915011132391,8.7381507405389,-0.9374245774944596,-5.537463430623315,2.836774168393004e-12
1669909335851365382,0.012708672824621674,-0.05129915011132391,8.7381507405389,-0.9374245774944596,-5.537463430623315,2.836774168393004e-12
1669909335876644458,-0.08442385502817881,-0.09194028625522917,8.717920518228738,-0.9062798466536036,-5.659393275643629,2.8420241553246808e-12
1669909335897579770,-0.08442385502817881,-0.09194028625522917,8.717920518228738,-0.9329318004705127,-5.550716859103854,2.8420241553246808e-12
1669909335913416487,-0.08442385502817881,-0.09194028625522917,8.717920518228738,-0.9329318004705127,-5.550716859103854,2.8420241553246808e-12
1669909335961094622,-0.14477533774705317,-0.15038688398816977,8.716329948415583,-0.7830497244530744,-5.999999999991058,2.8705926690276293e-12
1669909336199852470,-0.14477533774705317,-0.15038688398816977,8.716329948415583,-0.7830497244530744,-5.999999999991058,2.8705926690276293e-12
1669909336237772338,-0.14477533774705317,-0.15038688398816977,8.716329948415583,-0.9128944937947223,-5.664672211534446,2.8705926690276293e-12
1669909336237789168,-0.14477533774705317,-0.15038688398816977,8.716329948415583,-0.9128944937947223,-5.664672211534446,2.8705926690276293e-12
1669909336237805610,-0.14477533774705317,-0.15038688398816977,8.716329948415583,-0.9118671058623351,-5.666207294311038,2.8705926690276293e-12
1669909336237821684,-0.17789626933425046,-0.25306673128988955,8.746074738026852,-0.9118671058623351,-5.666207294311047,2.872841735175578e-12
1669909336237838113,-0.17789626933425046,-0.25306673128988955,8.746074738026852,-0.9031849774891396,-5.999999999991067,2.872841735175578e-12
1669909336237854342,-0.17789626933425046,-0.25306673128988955,8.746074738026852,-0.9031849774891396,-5.999999999991067,2.872841735175578e-12
1669909336237870013,-0.17789626933425046,-0.25306673128988955,8.746074738026852,-0.9088976663973481,-5.712930000191308,2.872841735175578e-12
1669909336237885783,-0.18114186385939643,-0.3288965694922402,8.736212841767564,-0.9822061474063143,-5.999999999991079,2.873777303381771e-12
1669909336237902116,-0.18114186385939643,-0.3288965694922402,8.736212841767564,-0.9822061474063143,-5.999999999991079,2.873777303381771e-12
1669909336237934835,-0.21207502692041547,-0.28523488158034044,8.736824473146077,-1.0,-5.999999999991096,2.87633724465264e-12
1669909336237952635,-0.22530083701710107,-0.25473374159745715,8.737214848022104,-1.0,-5.999999999991107,2.8758160110910714e-12
1669909336237969173,-0.22530083701710107,-0.25473374159745715,8.737214848022104,-1.0,-5.999999999991107,2.8758160110910714e-12
1669909336237985901,-0.22530083701710107,-0.25473374159745715,8.737214848022104,-0.9334956184671555,-5.8471308556072215,2.8758160110910714e-12
1669909336249503822,-0.22530083701710107,-0.25473374159745715,8.737214848022104,-0.9334956184671555,-5.8471308556072215,2.8758160110910714e-12
1669909336249566305,-0.22530083701710107,-0.25473374159745715,8.737214848022104,-0.9327703977941124,-5.850997118111105,2.8758160110910714e-12
1669909336295668115,-0.22530083701710107,-0.25473374159745715,8.737214848022104,-0.9327703977941124,-5.850997118111105,2.8758160110910714e-12
1669909336311195677,-0.2919994783250832,-0.34235480478003383,8.87657978942958,-0.9089896248450771,-5.8017286410215165,2.875763210398404e-12
1669909336327103108,-0.2919994783250832,-0.34235480478003383,8.87657978942958,-0.9292432421041569,-5.850961779781311,2.875763210398404e-12
1669909336344437585,-0.3166853767195098,-0.2607006106748534,8.877346318880168,-1.0,-5.850961779781333,2.871002919182234e-12
1669909336356475171,-0.3166853767195098,-0.2607006106748534,8.877346318880168,-0.9538053556538493,-5.999999999991125,2.871002919182234e-12
1669909336374091169,-0.3166853767195098,-0.2607006106748534,8.877346318880168,-0.9538053556538493,-5.999999999991125,2.871002919182234e-12
1669909336410568668,-0.3166853767195098,-0.2607006106748534,8.877346318880168,-0.953394816127563,-5.904915399259325,2.871002919182234e-12
1669909336427683747,-0.3166853767195098,-0.2607006106748534,8.877346318880168,-0.953188590001124,-5.9070813918915634,2.871002919182234e-12
1669909336438601405,-0.325894195991431,-0.2656047197780716,8.978046260821028,-1.0,-5.999999999991135,2.867031469696062e-12
1669909336458774378,-0.3311457037673545,-0.21637259335435718,8.978100952298417,-1.0,-5.999999999991144,2.8608244119960487e-12
1669909336480226080,-0.3311457037673545,-0.21637259335435718,8.978100952298417,-1.0,-5.999999999991144,2.8608244119960487e-12
1669909336722918033,-0.3324395730525579,-0.1840363918149794,8.978043410012676,-1.0,-5.999999999991149,2.856098050862405e-12
1669909336760716633,-0.3324395730525579,-0.1840363918149794,8.978043410012676,-1.0,-5.966981842496076,2.856098050862405e-12
1669909336760734291,-0.3324395730525579,-0.1840363918149794,8.978043410012676,-0.992040669754778,-5.949604840936355,2.856098050862405e-12
1669909336760752472,-0.3324395730525579,-0.1840363918149794,8.978043410012676,-0.992040669754778,-5.949604840936355,2.856098050862405e-12
1669909336760768888,-0.3324395730525579,-0.1840363918149794,8.978043410012676,-0.9921443462360419,-5.95421881799717,2.856098050862405e-12
1669909336760784914,-0.35126315470161584,-0.15993988805277148,9.027885324639461,-0.9921443462360419,-5.954218817997175,2.8483892403404046e-12
1669909336760801528,-0.35126315470161584,-0.15993988805277148,9.027885324639461,-1.0,-5.941475893798788,2.8483892403404046e-12
1669909336760820486,-0.35126315470161584,-0.15993988805277148,9.027885324639461,-1.0,-5.941475893798788,2.8483892403404046e-12
1669909336760837101,-0.33983992953578557,-0.09214266526556006,9.027382797930262,-1.0,-5.747167001163676,2.832113576691339e-12
1669909336760853575,-0.33983992953578557,-0.09214266526556006,9.027382797930262,-1.0,-5.747167001163676,2.832113576691339e-12
1669909336761068500,-0.3264543768352578,-0.05841792216870634,9.027087072031993,-1.0,-5.707232544388677,2.8205170036704295e-12
1669909336761089050,-0.3264543768352578,-0.05841792216870634,9.027087072031993,-1.0,-5.921773143590756,2.8205170036704295e-12
1669909336775644280,-0.3264543768352578,-0.05841792216870634,9.027087072031993,-1.0,-5.921773143590756,2.8205170036704295e-12
1669909336775646773,-0.3264543768352578,-0.05841792216870634,9.027087072031993,-1.0,-5.925866319135206,2.8205170036704295e-12
1669909336775649046,-0.3264543768352578,-0.05841792216870634,9.027087072031993,-1.0,-5.927977506620645,2.8205170036704295e-12
1669909336789908559,-0.3264543768352578,-0.05841792216870634,9.027087072031993,-1.0,-5.927977506620645,2.8205170036704295e-12
1669909336814514267,-0.3564090331037084,-0.048337444366047366,9.077086425922628,-1.0,-5.931147131505385,2.820497863596387e-12
1669909336840170931,-0.3564090331037084,-0.048337444366047366,9.077086425922628,-1.0,-5.933952941140619,2.820497863596387e-12
1669909336858376710,-0.31509689008014496,0.0017039238946604807,9.076696802519578,-1.0,-4.614238080634406,2.7950324345594576e-12
1669909336878972896,-0.31509689008014496,0.0017039238946604807,9.076696802519578,-1.0,-5.861327212045338,2.7950324345594576e-12
1669909336897442865,-0.31509689008014496,0.0017039238946604807,9.076696802519578,-1.0,-5.861327212045338,2.7950324345594576e-12
1669909336918010925,-0.31509689008014496,0.0017039238946604807,9.076696802519578,-1.0,-5.864232393193356,2.7950324345594576e-12
1669909336935763152,-0.31509689008014496,0.0017039238946604807,9.076696802519578,-1.0,-5.864232393193356,2.7950324345594576e-12
1669909336958700101,-0.31509689008014496,0.0017039238946604807,9.076696802519578,-1.0,-5.867286787520017,2.7950324345594576e-12
1669909336980335319,-0.3296944132536779,0.057464332453576294,9.12660790531083,-1.0,-5.04746021857858,2.7821797658001623e-12
1669909336996164778,-0.28714464825722014,0.07057831109909041,9.126621862245443,-1.0,-4.600751971288579,2.7617109640472927e-12
1669909337012806872,-0.28714464825722014,0.07057831109909041,9.126621862245443,-1.0,-4.600751971288579,2.7617109640472927e-12
1669909337256307384,-0.28714464825722014,0.07057831109909041,9.126621862245443,-1.0,-5.74592956855957,2.7617109640472927e-12
1669909337259297183,-0.28714464825722014,0.07057831109909041,9.126621862245443,-1.0,-5.74592956855957,2.7617109640472927e-12
1669909337259313250,-0.28714464825722014,0.07057831109909041,9.126621862245443,-1.0,-5.74733051592755,2.7617109640472927e-12
1669909337259329373,-0.28714464825722014,0.07057831109909041,9.126621862245443,-1.0,-5.748030844158555,2.7617109640472927e-12
1669909337259345798,-0.28714464825722014,0.07057831109909041,9.126621862245443,-1.0,-5.748030844158555,2.7617109640472927e-12
1669909337259361573,-0.28714464825722014,0.07057831109909041,9.126621862245443,-1.0,-5.749503642714697,2.7617109640472927e-12
1669909337259377627,-0.2975365045694941,0.09138541646346846,9.16670682937537,-1.0,-5.74950364271469,2.7557916826454915e-12
1669909337259461478,-0.2975365045694941,0.09138541646346846,9.16670682937537,-1.0,-5.396879797591895,2.7557916826454915e-12
1669909337259482918,-0.2975365045694941,0.09138541646346846,9.16670682937537,-1.0,-5.396879797591895,2.7557916826454915e-12
1669909337259500239,-0.2975365045694941,0.09138541646346846,9.16670682937537,-1.0,-5.7154156231008395,2.7557916826454915e-12
1669909337259517212,-0.2975365045694941,0.09138541646346846,9.16670682937537,-1.0,-5.7154156231008395,2.7557916826454915e-12
1669909337259534233,-0.2975365045694941,0.09138541646346846,9.16670682937537,-1.0,-5.716262744733655,2.7557916826454915e-12
1669909337268553351,-0.2264514442369866,0.09005999492930816,9.196916232171937,-1.0,-5.716262744733613,2.724444892507403e-12
1669909337297851856,-0.2264514442369866,0.09005999492930816,9.196916232171937,-1.0,-4.099116414208449,2.724444892507403e-12
1669909337316827783,-0.2264514442369866,0.09005999492930816,9.196916232171937,-1.0,-4.099116414208449,2.724444892507403e-12
1669909337332322130,-0.2264514442369866,0.09005999492930816,9.196916232171937,-1.0,-5.546585242139266,2.724444892507403e-12
1669909337353915090,-0.2264514442369866,0.09005999492930816,9.196916232171937,-1.0,-5.545925365720401,2.724444892507403e-12
1669909337381477968,-0.18682007157652444,0.09196764209217383,9.257042402706164,-0.9260625978110728,-3.6702424547117922,2.7098557916630202e-12
1669909337394539357,-0.18682007157652444,0.09196764209217383,9.257042402706164,-0.9260625978110728,-3.6702424547117922,2.7098557916630202e-12
1669909337410914834,-0.14824215746739794,0.059738723737564475,9.257164987014152,-0.9713338063494921,-4.759406604512901,2.7011112965369077e-12
1669909337439106743,-0.14824215746739794,0.059738723737564475,9.257164987014152,-1.0,-5.358748524371227,2.7011112965369077e-12
1669909337454411628,-0.14824215746739794,0.059738723737564475,9.257164987014152,-1.0,-5.35688202030793,2.7011112965369077e-12
1669909337472794687,-0.14824215746739794,0.059738723737564475,9.257164987014152,-1.0,-5.35688202030793,2.7011112965369077e-12
1669909337500559784,-0.14824215746739794,0.059738723737564475,9.257164987014152,-1.0,-5.353219491699504,2.7011112965369077e-12
1669909337518033543,-0.12853155133335495,0.08953105649117446,9.337205903586653,-1.0,-5.060721444180571,2.69956661328278e-12
1669909337538242429,-0.08192391574169305,0.03598455024258265,9.337107242676083,-0.7718378797469245,-5.060721444180531,2.6911362259975003e-12
1669909337977512668,-0.07836928612341851,0.03187248321295483,9.337078950223772,-0.7718378797469245,-4.429051136572402,2.6906513003010077e-12
1669909337980606589,-0.07836928612341851,0.03187248321295483,9.337078950223772,-1.0,-5.233658736933739,2.6906513003010077e-12
1669909337980608881,-0.0634366185610801,0.014798720380927485,9.336925247352204,-0.9419794783298177,-5.233658736933727,2.689184508479184e-12
1669909337980611081,-0.0634366185610801,0.014798720380927485,9.336925247352204,-1.0,-4.972945964205682,2.689184508479184e-12
1669909337980613105,-0.0634366185610801,0.014798720380927485,9.336925247352204,-1.0,-4.972945964205682,2.689184508479184e-12
1669909337980615138,-0.0634366185610801,0.014798720380927485,9.336925247352204,-1.0,-5.195043239477577,2.689184508479184e-12
1669909337980618808,-0.0634366185610801,0.014798720380927485,9.336925247352204,-1.0,-5.192104981877133,2.689184508479184e-12
1669909337980621068,-0.07270383986013987,0.014041584658909312,9.386915588695883,-1.0,-5.192104981877129,2.6884498457411284e-12
1669909337980623240,-0.07270383986013987,0.014041584658909312,9.386915588695883,-1.0,-5.173714562029031,2.6884498457411284e-12
1669909337980625203,-0.07270383986013987,0.014041584658909312,9.386915588695883,-1.0,-5.182408309927408,2.6884498457411284e-12
1669909337980627125,-0.051456524464104564,-0.004745455041090196,9.38656227440905,-0.9299119837340658,-4.5068282451690465,2.683944540568687e-12
1669909337980629201,-0.051456524464104564,-0.004745455041090196,9.38656227440905,-0.9299119837340658,-4.5068282451690465,2.683944540568687e-12
1669909337988663177,-0.04384244998448694,-0.005338176837336145,9.38637087134306,-1.0,-4.997402019062663,2.681897245274624e-12
1669909337988665483,-0.04251448589190471,-0.0018691033204614738,9.386309066699079,-1.0,-4.99740201906266,2.6818635655462122e-12
1669909337988667866,-0.04251448589190471,-0.0018691033204614738,9.386309066699079,-1.0,-5.09113442179503,2.6818635655462122e-12
1669909337988669922,-0.04251448589190471,-0.0018691033204614738,9.386309066699079,-1.0,-5.10748954121904,2.6818635655462122e-12
1669909337988672076,-0.04251448589190471,-0.0018691033204614738,9.386309066699079,-1.0,-5.10748954121904,2.6818635655462122e-12
1669909337988674250,-0.04251448589190471,-0.0018691033204614738,9.386309066699079,-1.0,-5.101881531423684,2.6818635655462122e-12
1669909337988676206,-0.04251448589190471,-0.0018691033204614738,9.386309066699079,-1.0,-5.101881531423684,2.6818635655462122e-12
1669909337988678149,-0.04251448589190471,-0.0018691033204614738,9.386309066699079,-1.0,-5.095979686978166,2.6818635655462122e-12
1669909337988680297,0.0006590278619292844,-0.076907928959664,9.456184553392902,-1.0,-4.992391658861164,2.681534392667753e-12
1669909337988682150,0.0006590278619292844,-0.076907928959664,9.456184553392902,-1.0,-5.083672268820008,2.681534392667753e-12
1669909337999082913,0.0006590278619292844,-0.076907928959664,9.343972811885848,-1.0,-5.0801665662000115,2.681534392667753e-12
1669909338008623629,0.0006590278619292844,-0.076907928959664,9.343972811885848,-1.0,-5.0801665662000115,2.681534392667753e-12
1669909338034321288,0.0006590278619292844,-3.6849347314994896,-0.9738534219183776,-1.0,-5.074185045053524,2.681534392667753e-12
1669909338055614187,0.0006590278619292844,-3.6849347314994896,-0.9738534219183776,-1.0,-5.070904437674097,2.681534392667753e-12
1669909338500534442,0.0006590278619292844,-3.6849347314994896,-0.9738534219183776,-1.0,-5.070904437674097,2.681534392667753e-12
