%time,field.force.x,field.force.y,field.force.z,field.torque.x,field.torque.y,field.torque.z
1669909628896314106,3.5936867981874268,-4.814105437368278,-10.13276494917888,-1.0,-5.695337943444671,4.0092616624007335e-12
1669909628924595811,3.5915337044594207,-4.823577219635257,-10.13254849685421,-1.0,-5.73579974447578,4.011466037457886e-12
1669909628973105294,3.924346073329202,-4.823577219635257,-10.13254849685421,-1.0,-5.73579974447578,4.011466037457886e-12
1669909628987902399,3.924346073329202,-4.823577219635257,-10.13254849685421,-1.0,-5.676522864709243,4.011466037457886e-12
1669909628987980728,3.924346073329202,-4.823577219635257,-10.13254849685421,-1.0,-5.67672900308113,4.011466037457886e-12
1669909629002963152,4.257158442198984,-4.823577219635257,-10.13254849685421,-1.0,-5.6769949372141175,4.011466037457886e-12
1669909629019887257,4.257158442198984,-4.823577219635257,-10.13254849685421,-1.0,-5.6769949372141175,4.011466037457886e-12
1669909629034873834,4.257158442198984,-4.823577219635257,-10.13254849685421,-1.0,-5.677327723954341,4.011466037457886e-12
1669909629053635649,4.4235644776222625,-4.823577219635257,-10.13254849685421,-1.0,-5.677533344809046,4.011466037457886e-12
1669909629072542928,4.492884362088766,-4.809907899432629,-10.162404983753937,-1.0,-5.67753334480904,4.0124675752834204e-12
1669909629098141441,4.492884362088766,-4.809907899432629,-10.162404983753937,-1.0,-5.689688672613333,4.0124675752834204e-12
1669909629326412676,4.492884362088766,-4.809907899432629,-10.162404983753937,-1.0,-5.6794077155958735,4.0124675752834204e-12
1669909629340819495,4.492884362088766,-4.809907899432629,-10.162404983753937,-1.0,-5.679621407267956,4.0124675752834204e-12
1669909629340863184,4.492884362088766,-4.809907899432629,-10.162404983753937,-1.0,-5.679621407267956,4.0124675752834204e-12
1669909629340868407,4.492884362088766,-4.809907899432629,-10.162404983753937,-1.0,-5.680037516299762,4.0124675752834204e-12
1669909629341080463,4.492884362088766,-4.809907899432629,-10.162404983753937,-1.0,-5.680248819994389,4.0124675752834204e-12
1669909629341083859,4.492884362088766,-4.809907899432629,-10.162404983753937,-1.0,-5.680462788646222,4.0124675752834204e-12
1669909629341086200,4.5881873341654185,-4.864274112199258,-10.721386676267025,-0.8452708925671025,-5.82029883918862,4.02560661464735e-12
1669909629341202135,4.5881873341654185,-4.864274112199258,-10.721386676267025,-0.8452708925671025,-5.82029883918862,4.02560661464735e-12
1669909629341205321,4.5881873341654185,-4.864274112199258,-10.721386676267025,-1.0,-5.6898272730624715,4.02560661464735e-12
1669909629341207641,4.575130080563678,-4.9093736543715085,-10.720736429954995,-0.8242652404277794,-5.999999999986355,4.0466001951532954e-12
1669909629341209556,4.575130080563678,-4.9093736543715085,-10.720736429954995,-0.8242652404277794,-5.999999999986355,4.0466001951532954e-12
1669909629341243964,4.575130080563678,-4.9093736543715085,-10.720736429954995,-1.0,-5.715065849732481,4.0466001951532954e-12
1669909629354946830,4.575130080563678,-4.9093736543715085,-10.720736429954995,-1.0,-5.7154941636690575,4.0466001951532954e-12
1669909629372529079,4.575130080563678,-4.9093736543715085,-10.720736429954995,-1.0,-5.715929844456063,4.0466001951532954e-12
1669909629421109139,0.13507250486101133,-0.3029097452223381,5.173303439353479,-1.0,-5.715929844456063,4.0466001951532954e-12
1669909629432782498,0.13507250486101133,-0.3029097452223381,5.173303439353479,-1.0,-5.716775124941317,4.0466001951532954e-12
1669909629433064497,0.13507250486101133,-0.3029097452223381,9.279263570045007,-1.0,-5.716775124941317,4.0466001951532954e-12
1669909629455552190,0.07732110208150142,-0.2876053720336549,8.74947886304471,-0.9652458725232583,-5.846784678421982,4.0551858975058185e-12
1669909629479128722,0.07732110208150142,-0.2876053720336549,8.74947886304471,-0.9652458725232583,-5.846784678421982,4.0551858975058185e-12
1669909629500086417,0.07732110208150142,-0.2876053720336549,8.74947886304471,-1.0,-5.733171689600018,4.0551858975058185e-12
1669909629517622946,0.07732110208150142,-0.2876053720336549,8.74947886304471,-1.0,-5.733868173810837,4.0551858975058185e-12
1669909629533716217,0.07732110208150142,-0.2876053720336549,8.74947886304471,-1.0,-5.733868173810837,4.0551858975058185e-12
1669909629556249482,0.07732110208150142,-0.2876053720336549,8.74947886304471,-1.0,-5.7347443494104535,4.0551858975058185e-12
1669909629573414396,0.07732110208150142,-0.2876053720336549,8.74947886304471,-1.0,-5.735274706569204,4.0551858975058185e-12
1669909629607833678,0.0665879212320032,-0.3401319731749037,8.439545852279144,-1.0,-5.73527470656917,4.080575756403911e-12
1669909629727400688,0.0665879212320032,-0.3401319731749037,8.439545852279144,-0.9408942698220037,-5.999999999986308,4.080575756403911e-12
1669909629730716393,0.0665879212320032,-0.3401319731749037,8.439545852279144,-1.0,-5.794304334157914,4.080575756403911e-12
1669909629730777903,0.043723675217941016,-0.3509442881021978,8.439430180802493,-1.0,-5.794304334157894,4.098987009863945e-12
1669909629730787002,0.043723675217941016,-0.3509442881021978,8.439430180802493,-0.9932892982543662,-5.999999999986287,4.098987009863945e-12
1669909629730791411,0.043723675217941016,-0.3509442881021978,8.439430180802493,-1.0,-5.839777262479403,4.098987009863945e-12
1669909629730966762,0.043723675217941016,-0.3509442881021978,8.439430180802493,-1.0,-5.839777262479403,4.098987009863945e-12
1669909629731054246,0.043723675217941016,-0.3509442881021978,8.439430180802493,-1.0,-5.8421265047175455,4.098987009863945e-12
1669909629750039041,0.043723675217941016,-0.3509442881021978,8.439430180802493,-1.0,-5.8421265047175455,4.098987009863945e-12
1669909629774748122,0.043723675217941016,-0.3509442881021978,8.439430180802493,-1.0,-5.844481213132298,4.098987009863945e-12
1669909629793299347,0.05840064559149023,-0.3881956001430236,8.169290287564305,-1.0,-5.844481213132287,4.109164102703034e-12
1669909629815272382,0.05840064559149023,-0.3881956001430236,8.169290287564305,-1.0,-5.999999999986277,4.109164102703034e-12
1669909629836978863,0.05840064559149023,-0.3881956001430236,8.169290287564305,-1.0,-5.999999999986277,4.109164102703034e-12
1669909629855309282,0.025481344968086544,-0.3909405748356658,8.168877468001472,-1.0,-5.999999999986265,4.124046309278909e-12
1669909629870172397,0.025481344968086544,-0.3909405748356658,8.168877468001472,-1.0,-5.999999999986265,4.124046309278909e-12
1669909629893490613,0.025481344968086544,-0.3909405748356658,8.168877468001472,-1.0,-5.9429118786712305,4.124046309278909e-12
1669909629909397940,0.025481344968086544,-0.3909405748356658,8.168877468001472,-1.0,-5.9429118786712305,4.124046309278909e-12
1669909629928292625,0.8046028631031573,-0.3909405748356658,8.168877468001472,-1.0,-5.946450652332567,4.124046309278909e-12
1669909629951269550,0.8046028631031573,-0.3909405748356658,8.168877468001472,-1.0,-5.946450652332567,4.124046309278909e-12
1669909629972090470,0.8046028631031573,-0.3909405748356658,8.168877468001472,-1.0,-5.94996693092978,4.124046309278909e-12
1669909629990319572,6.555943568495727,-0.34358998603621616,5.916603543495146,-1.0,-5.949966930929779,4.1256436192482516e-12
1669909630015504081,6.555943568495727,-0.34358998603621616,5.916603543495146,-1.0,-5.999999999986264,4.1256436192482516e-12
1669909630037300514,7.554380973128295,-0.34358998603621616,1.9222124299754775,-1.0,-5.999999999986264,4.1256436192482516e-12
1669909630090498245,7.540573112120498,-0.32068201812898695,1.9218033036658149,-1.0,-5.99999999998626,4.126381308580599e-12
1669909630104230680,7.540573112120498,-0.32068201812898695,1.9218033036658149,-1.0,-5.99999999998626,4.126381308580599e-12
1669909630104423428,9.703853360762468,-0.933397314576264,-2.5711638250878455,-1.0,-5.99999999998626,4.126381308580599e-12
1669909630117951499,9.703853360762468,-0.933397314576264,-2.5711638250878455,-1.0,-5.99999999998626,4.126381308580599e-12
1669909630133767842,13.698244325270524,-1.59902208956873,-9.228053740554154,-1.0,-5.99999999998626,4.126381308580599e-12
1669909630431425942,13.698244325270524,-1.59902208956873,-9.228053740554154,-1.0,-5.99999999998626,4.126381308580599e-12
1669909630441225230,13.698244325270524,-1.59902208956873,-9.228053740554154,-1.0,-5.99999999998626,4.126381308580599e-12
1669909630441274993,15.195900432219377,-2.098240642873402,-11.391333989196122,-1.0,-5.99999999998626,4.126381308580599e-12
1669909630441320459,15.195900432219377,-2.098240642873402,-11.391333989196122,-1.0,-5.99999999998626,4.126381308580599e-12
1669909630441365921,15.195900432219377,-2.098240642873402,-11.391333989196122,-1.0,-5.99999999998626,4.126381308580599e-12
1669909630441410685,15.223770380569901,-2.1195189189187507,-11.191467886655605,-1.0,-5.99999999998626,4.124333356704015e-12
1669909630441486792,15.223770380569901,-2.1195189189187507,-11.191467886655605,-1.0,-5.99999999998626,4.124333356704015e-12
1669909630441492618,15.223770380569901,-2.1195189189187507,-11.191467886655605,-1.0,-5.99999999998626,4.124333356704015e-12
1669909630441495460,15.223770380569901,-2.1195189189187507,-11.191467886655605,-1.0,-5.99999999998626,4.124333356704015e-12
1669909630441575868,15.223770380569901,-2.1195189189187507,-11.191467886655605,-1.0,-5.99999999998626,4.124333356704015e-12
1669909630443243523,15.223770380569901,-2.1195189189187507,-11.191467886655605,-1.0,-5.99999999998626,4.124333356704015e-12
1669909630455370815,15.223770380569901,-2.1195189189187507,-11.191467886655605,-1.0,-5.99999999998626,4.124333356704015e-12
1669909630455496803,15.228578383502754,-2.0872416605458834,-11.10171578796826,-1.0,-5.999999999986249,4.114002744551682e-12
1669909630455580593,15.228578383502754,-2.0872416605458834,-11.10171578796826,-1.0,-5.956391321630751,4.114002744551682e-12
1669909630455630781,15.228578383502754,-2.0872416605458834,-11.10171578796826,-1.0,-5.999999999986249,4.114002744551682e-12
1669909630464258803,15.245135963270165,-2.0869295869472837,-11.101454395239664,-1.0,-5.999999999986228,4.10397839704786e-12
1669909630476181481,15.245135963270165,-2.0869295869472837,-11.101454395239664,-1.0,-5.753228058046914,4.10397839704786e-12
1669909630490613302,17.242009580442403,-0.4228676960322475,-4.444564479773355,-1.0,-5.999999999986228,4.10397839704786e-12
1669909630512879533,17.242009580442403,-0.4228676960322475,-4.444564479773355,-1.0,-5.999999999986228,4.10397839704786e-12
1669909630535884191,17.242009580442403,-0.3093709622028684,8.535760704989123,-1.0,-5.999999999986228,4.10397839704786e-12
1669909630571434046,17.242009580442403,-0.3093709622028684,8.535760704989123,-1.0,-5.999999999986228,4.10397839704786e-12
1669909630870959630,17.37113727521279,-0.18257641005823028,8.465982287984504,-1.0,-5.742030791827581,4.098293596375124e-12
1669909630890575684,17.37113727521279,-0.18257641005823028,8.578194029491558,-1.0,-5.9999999999862235,4.098293596375124e-12
1669909630890592692,17.37113727521279,-0.18257641005823028,8.578194029491558,-1.0,-5.9999999999862235,4.098293596375124e-12
1669909630890608980,17.37113727521279,-0.18257641005823028,8.578194029491558,-1.0,-5.9999999999862235,4.098293596375124e-12
1669909630890625446,17.40369832061025,-0.18938241102212117,8.578690344547665,-1.0,-5.999999999986212,4.0800496192855366e-12
1669909630890641668,17.40369832061025,-0.18938241102212117,8.578690344547665,-1.0,-5.414043299458805,4.0800496192855366e-12
1669909630890658887,17.40369832061025,-0.18938241102212117,8.578690344547665,-1.0,-5.950712472505154,4.0800496192855366e-12
1669909630890676137,17.40369832061025,-0.18938241102212117,8.578690344547665,-1.0,-5.950712472505154,4.0800496192855366e-12
1669909630890692951,17.40369832061025,-0.18938241102212117,8.578690344547665,-1.0,-5.9530706172570005,4.0800496192855366e-12
1669909630890709139,17.40369832061025,-0.18938241102212117,8.578690344547665,-1.0,-5.954396346257405,4.0800496192855366e-12
1669909630890725953,17.40369832061025,-0.18938241102212117,8.578690344547665,-1.0,-5.954396346257405,4.0800496192855366e-12
1669909630890742382,17.40369832061025,-0.18938241102212117,8.578690344547665,-1.0,-5.957014278109076,4.0800496192855366e-12
1669909630890758265,17.40369832061025,-0.18938241102212117,8.578690344547665,-1.0,-5.957014278109076,4.0800496192855366e-12
1669909630890775630,17.40369832061025,-0.18938241102212117,8.578690344547665,-1.0,-5.959651289460466,4.0800496192855366e-12
1669909630892888605,17.59716895401666,-0.23028156359171228,8.108939605070407,-1.0,-5.959651289460464,4.073465993960501e-12
1669909630892904715,17.59716895401666,-0.23028156359171228,8.108939605070407,-1.0,-5.730470874968657,4.073465993960501e-12
1669909630892920887,17.59716895401666,-0.23028156359171228,8.108939605070407,-1.0,-5.730470874968657,4.073465993960501e-12
1669909630903150653,17.59716895401666,-0.23028156359171228,8.108939605070407,-1.0,-5.939485765415193,4.073465993960501e-12
1669909630931978187,19.26123169243524,-0.23028156359171228,8.222436338899787,-1.0,-5.939485765415193,4.073465993960501e-12
1669909630951741063,19.26123169243524,-0.23028156359171228,8.222436338899787,-1.0,-5.941790756029151,4.073465993960501e-12
1669909630978576059,19.26123169243524,-0.23028156359171228,8.222436338899787,-1.0,-5.942941463800628,4.073465993960501e-12
1669909630988600142,20.09326246559808,-0.23028156359171228,10.385716783119495,-1.0,-5.942941463800628,4.073465993960501e-12
1669909631026188209,20.31095768907116,-0.2732671351522217,10.145853791935206,-1.0,-5.310050127014827,4.048277229673735e-12
1669909631043968733,20.393839139724236,0.33816315965950394,10.97788471410966,-1.0,-5.310050127014827,4.048277229673735e-12
1669909631055856689,20.393839139724236,0.33816315965950394,10.97788471410966,-1.0,-5.87651441601788,4.048277229673735e-12
1669909631073283087,20.4390144614702,0.3615328772622023,10.977709387826149,-1.0,-4.488108866784124,4.016290193110936e-12
1669909631090509937,20.4390144614702,2.1920010178047096,13.640208636807625,-1.0,-4.488108866784124,4.016290193110936e-12
1669909631403315783,20.4390144614702,2.1920010178047096,13.640208636807625,-1.0,-5.794028303716255,4.016290193110936e-12
1669909631426685030,20.4390144614702,4.022469046588508,21.795396601247013,-1.0,-5.794028303716255,4.016290193110936e-12
1669909631426687499,20.4390144614702,4.022469046588508,21.795396601247013,-1.0,-5.79429288412292,4.016290193110936e-12
1669909631426689485,20.4390144614702,4.022469046588508,21.795396601247013,-1.0,-5.79429288412292,4.016290193110936e-12
1669909631436211049,20.4390144614702,4.022469046588508,21.795396601247013,-1.0,-5.794562336814518,4.016290193110936e-12
1669909631436254228,20.530219750621537,4.046435021545935,22.125052306637812,-1.0,-5.79456233681452,4.00287819957607e-12
1669909631436263989,20.530219750621537,4.046435021545935,22.125052306637812,-1.0,-5.440231889001206,4.00287819957607e-12
1669909631436267582,20.530219750621537,4.046435021545935,22.125052306637812,-1.0,-5.440231889001206,4.00287819957607e-12
1669909631436270862,20.530219750621537,4.046435021545935,22.125052306637812,-1.0,-5.7551675213876665,4.00287819957607e-12
1669909631436275362,20.530219750621537,4.046435021545935,22.125052306637812,-1.0,-5.7551675213876665,4.00287819957607e-12
1669909631436278686,20.530219750621537,4.046435021545935,22.125052306637812,-1.0,-5.75494846762114,4.00287819957607e-12
1669909631436282548,20.530219750621537,4.046435021545935,22.125052306637812,-1.0,-5.75494846762114,4.00287819957607e-12
1669909631436285025,20.814512699739012,4.094901467162464,22.333941877667513,-1.0,-4.851389197308601,3.964789397879549e-12
1669909631436297292,20.814512699739012,4.094901467162464,22.333941877667513,-1.0,-5.652700328217404,3.964789397879549e-12
1669909631436301091,20.85154836769351,4.162713416226687,22.331923992055096,-1.0,-5.652700328217446,3.9287636340353374e-12
1669909631436311048,20.85154836769351,4.162713416226687,22.331923992055096,-1.0,-5.026406184588589,3.9287636340353374e-12
1669909631436325060,20.85154836769351,4.162713416226687,22.331923992055096,-1.0,-5.026406184588589,3.9287636340353374e-12
1669909631469647419,20.85154836769351,7.824292011864962,28.405428678410686,-1.0,-5.580148084587491,3.9287636340353374e-12
1669909631485282298,20.85154836769351,7.824292011864962,28.405428678410686,-1.0,-5.580148084587491,3.9287636340353374e-12
1669909631500317130,17.939761334612456,8.98913545192081,28.405428678410686,-1.0,-5.5776541088867795,3.9287636340353374e-12
1669909631519875392,17.939761334612456,8.98913545192081,28.405428678410686,-1.0,-5.5776541088867795,3.9287636340353374e-12
1669909631529407411,5.458012276842681,8.98913545192081,28.405428678410686,-1.0,-5.5751834338749395,3.9287636340353374e-12
1669909631559300691,5.458012276842681,8.98913545192081,28.405428678410686,-1.0,-5.573939230897908,3.9287636340353374e-12
1669909631578804248,5.458012276842681,8.98913545192081,28.405428678410686,-1.0,-5.572407703854366,3.9287636340353374e-12
1669909631591171048,1.6306698858285822,9.155541487344088,28.405428678410686,-1.0,-5.572407703854366,3.9287636340353374e-12
1669909631614188420,1.8404517287205633,9.182220072356134,28.563782454065453,-1.0,-5.1906966882138414,3.903985478857248e-12
1669909631923043752,1.0613302105854925,9.182220072356134,28.563782454065453,-1.0,-5.532022630973951,3.903985478857248e-12
1669909631942903499,1.0613302105854925,9.182220072356134,28.563782454065453,-1.0,-5.532022630973951,3.903985478857248e-12
1669909631943532256,1.0613302105854925,9.182220072356134,28.563782454065453,-1.0,-5.5288455586050596,3.903985478857248e-12
1669909631943539524,1.0613302105854925,9.182220072356134,28.563782454065453,-1.0,-5.5288455586050596,3.903985478857248e-12
1669909631943541539,1.1951902186062668,9.520224038098116,28.544090565009633,-1.0,-3.0910836604915946,3.75677097173004e-12
1669909631943634897,1.1951902186062668,9.520224038098116,28.544090565009633,-1.0,-3.0910836604915946,3.75677097173004e-12
1669909631943676292,1.1951902186062668,9.520224038098116,28.544090565009633,-1.0,-5.271169171595688,3.75677097173004e-12
1669909631943716784,1.1951902186062668,9.520224038098116,28.544090565009633,-1.0,-5.271169171595688,3.75677097173004e-12
1669909631943756716,1.1951902186062668,9.520224038098116,28.544090565009633,-1.0,-5.264946430709481,3.75677097173004e-12
1669909631943796686,1.1951902186062668,9.520224038098116,28.544090565009633,-1.0,-5.26180871289385,3.75677097173004e-12
1669909631943835536,1.1951902186062668,9.520224038098116,28.544090565009633,-1.0,-5.258384706227151,3.75677097173004e-12
1669909631943875418,1.1951902186062668,9.520224038098116,28.544090565009633,-1.0,-5.258384706227151,3.75677097173004e-12
1669909631948061953,1.1951902186062668,9.520224038098116,28.544090565009633,-1.0,-5.252456147460707,3.75677097173004e-12
1669909631948106920,1.1951902186062668,9.520224038098116,28.544090565009633,-1.0,-5.249014211211563,3.75677097173004e-12
1669909631948242833,1.446965266486661,9.677109302724228,28.853163366608378,-1.0,-5.249014211211691,3.656758328356519e-12
1669909631948295190,1.446965266486661,9.677109302724228,28.853163366608378,-1.0,-3.6261106121509545,3.656758328356519e-12
1669909631948338209,1.446965266486661,9.677109302724228,28.853163366608378,-1.0,-3.6261106121509545,3.656758328356519e-12
1669909631966128866,1.446965266486661,9.677109302724228,28.853163366608378,-1.0,-5.063943875122913,3.656758328356519e-12
1669909631997603296,19.700021077415006,9.677109302724228,28.853163366608378,-1.0,-5.059641950292307,3.656758328356519e-12
1669909632011660441,19.700021077415006,9.677109302724228,28.853163366608378,-1.0,-5.055215382077424,3.656758328356519e-12
1669909632035646416,5.5542104733195465,9.677109302724228,28.853163366608378,-1.0,-5.055215382077424,3.656758328356519e-12
1669909632053698949,5.5542104733195465,9.677109302724228,28.853163366608378,-1.0,-5.046948516250571,3.656758328356519e-12
1669909632076485410,5.5542104733195465,9.677109302724228,28.853163366608378,-1.0,-5.046948516250571,3.656758328356519e-12
1669909632092956961,1.7447860842589717,10.045701242798117,29.083373400259514,-1.0,-1.6590830876663323,3.4876782728777843e-12
1669909632114385309,1.7447860842589717,10.045701242798117,29.083373400259514,-1.0,-4.6630347322909165,3.4876782728777843e-12
1669909632449276575,1.7447860842589717,10.045701242798117,29.083373400259514,-1.0,-4.6630347322909165,3.4876782728777843e-12
1669909632458737597,1.7447860842589717,10.045701242798117,29.083373400259514,-1.0,-4.650186377436148,3.4876782728777843e-12
1669909632458778763,1.7447860842589717,10.045701242798117,29.083373400259514,-1.0,-4.643513126024981,3.4876782728777843e-12
1669909632458853179,1.7447860842589717,10.212107278221396,29.083373400259514,-1.0,-4.643513126024981,3.4876782728777843e-12
1669909632459090086,1.7447860842589717,10.212107278221396,29.083373400259514,-1.0,-4.628886164264263,3.4876782728777843e-12
1669909632459158157,1.7447860842589717,10.212107278221396,29.083373400259514,-1.0,-4.628886164264263,3.4876782728777843e-12
1669909632459226785,1.7447860842589717,10.212107278221396,29.083373400259514,-1.0,-4.616292783098595,3.4876782728777843e-12
1669909632459282850,1.8238556228629994,10.523272748518707,29.26708963041481,-1.0,-4.616292783098699,3.3085586186580242e-12
1669909632459333385,1.8238556228629994,10.523272748518707,29.26708963041481,-1.0,-0.17355301501156134,3.3085586186580242e-12
1669909632459632412,1.8238556228629994,10.523272748518707,29.26708963041481,-1.0,-0.17355301501156134,3.3085586186580242e-12
1669909632459707252,1.8238556228629994,10.523272748518707,29.26708963041481,-1.0,-4.120432439700873,3.3085586186580242e-12
1669909632459750266,1.8238556228629994,10.523272748518707,29.26708963041481,-1.0,-4.110592383475548,3.3085586186580242e-12
1669909632459792178,1.8238556228629994,10.523272748518707,29.26708963041481,-1.0,-4.110592383475548,3.3085586186580242e-12
1669909632459833404,1.8238556228629994,10.523272748518707,29.26708963041481,-1.0,-4.091277758435532,3.3085586186580242e-12
1669909632485236559,1.8238556228629994,10.523272748518707,29.26708963041481,-1.0,-4.091277758435532,3.3085586186580242e-12
1669909632485277048,1.768558788660133,10.873637775789161,29.34916436015434,-1.0,1.3488365573076566,3.1441334368767903e-12
1669909632485315846,1.768558788660133,10.873637775789161,29.34916436015434,-1.0,-3.4697682481802263,3.1441334368767903e-12
1669909632485354601,1.768558788660133,10.873637775789161,29.34916436015434,-1.0,-3.4561534872568895,3.1441334368767903e-12
1669909632495871935,1.768558788660133,11.040044407258888,29.34916436015434,-1.0,-3.4561534872568895,3.1441334368767903e-12
1669909632516407680,1.768558788660133,11.040044407258888,29.34916436015434,-1.0,-3.4284478072121867,3.1441334368767903e-12
1669909632528399376,1.768558788660133,11.040044407258888,29.34916436015434,-1.0,-3.4284478072121867,3.1441334368767903e-12
1669909632552067923,1.768558788660133,11.040044407258888,29.34916436015434,-1.0,-3.4024175211257783,3.1441334368767903e-12
1669909632594066000,1.768558788660133,11.040044407258888,29.34916436015434,-1.0,-3.4024175211257783,3.1441334368767903e-12
1669909632607614423,1.768558788660133,11.040044407258888,29.34916436015434,-1.0,-3.375154492418441,3.1441334368767903e-12
1669909632622203203,1.9327732969139646,11.267156095776686,29.41368120619378,-1.0,-3.37515449241847,2.8955695710132472e-12
1669909632635554937,1.9327732969139646,11.267156095776686,29.41368120619378,-1.0,3.1347011002933174,2.8955695710132472e-12
1669909632648156194,1.9327732969139646,11.267156095776686,29.41368120619378,-1.0,3.1347011002933174,2.8955695710132472e-12
1669909632668514476,1.9327732969139646,11.267156095776686,29.41368120619378,-1.0,-2.609664368948294,2.8955695710132472e-12
1669909632966876292,1.9327732969139646,11.267156095776686,29.41368120619378,-1.0,-2.591455405872612,2.8955695710132472e-12
1669909632966925512,1.9327732969139646,11.267156095776686,29.41368120619378,-1.0,-2.591455405872612,2.8955695710132472e-12
1669909632966971606,1.9327732969139646,11.267156095776686,29.41368120619378,-1.0,-2.5547218761716235,2.8955695710132472e-12
1669909632967042746,1.9327732969139646,11.267156095776686,29.41368120619378,-1.0,-2.5547218761716235,2.8955695710132472e-12
1669909632967093596,1.9327732969139646,11.267156095776686,29.41368120619378,-1.0,-2.518481926628521,2.8955695710132472e-12
1669909632967138850,1.9327732969139646,11.267156095776686,29.41368120619378,-1.0,-2.500030514144791,2.8955695710132472e-12
1669909632967184273,2.0375605102102843,11.292525060647815,29.550308937633254,-1.0,-2.5000305141447074,2.788695799646717e-12
1669909632967228469,2.0375605102102843,11.292525060647815,29.550308937633254,-1.0,2.2492548421644187,2.788695799646717e-12
1669909632967272635,2.0375605102102843,11.292525060647815,29.550308937633254,-1.0,-1.9231566287991755,2.788695799646717e-12
1669909632968861121,2.0375605102102843,11.292525060647815,29.550308937633254,-1.0,-1.8979809596335941,2.788695799646717e-12
1669909632968938349,2.0375605102102843,11.292525060647815,29.550308937633254,-1.0,-1.8979809596335941,2.788695799646717e-12
1669909633009568899,2.0375605102102843,11.292525060647815,29.550308937633254,-1.0,-1.8595709158084448,2.788695799646717e-12
1669909633009622857,2.0375605102102843,9.462056882852405,29.550308937633254,-1.0,-1.8379003468417305,2.788695799646717e-12
1669909633009675292,2.0375605102102843,9.462056882852405,29.550308937633254,-1.0,-1.8379003468417305,2.788695799646717e-12
1669909633009730546,2.0375605102102843,9.462056882852405,29.550308937633254,-1.0,-1.7937945197874807,2.788695799646717e-12
1669909633009780173,2.0375605102102843,2.3059481533111033,14.156772846782424,-1.0,-1.7937945197874807,2.788695799646717e-12
1669909633011709143,2.1566278788784974,2.2849119726454568,14.337797413643662,-0.6879020693677408,1.9405798232709548,2.7240343872625808e-12
1669909633033832811,3.102155581448459,1.6734816778337311,9.731333504494492,-0.6879020693677408,1.9405798232709548,2.7240343872625808e-12
1669909633062562219,3.102155581448459,1.6734816778337311,9.731333504494492,-1.0,-1.2877940215967816,2.7240343872625808e-12
1669909633074878232,3.102155581448459,1.6734816778337311,9.731333504494492,-1.0,-1.2877940215967816,2.7240343872625808e-12
1669909633090561581,5.764654681418323,1.6734816778337311,9.731333504494492,-1.0,-1.2392178929115993,2.7240343872625808e-12
1669909633109545274,5.764654681418323,1.6734816778337311,9.731333504494492,-1.0,-1.214795044796477,2.7240343872625808e-12
1669909633133754878,17.247966036532304,1.6734816778337311,9.731333504494492,-1.0,-1.214795044796477,0.46670190990243565
1669909633154187590,17.247966036532304,1.6734816778337311,9.731333504494492,-1.0,-1.166005013494883,0.46670190990243565
1669909633168957505,17.247966036532304,1.6734816778337311,9.731333504494492,-1.0,-1.166005013494883,0.46670190990243565
1669909633192831423,22.201707435749064,1.3266601965562248,9.938458413306673,-0.35999838695733655,0.9096389066965559,2.4635761231211406
1669909633437117985,22.201707435749064,1.3266601965562248,9.938458413306673,-1.0,-0.8710904407070202,2.4635761231211406
1669909633437146245,22.201707435749064,1.3266601965562248,9.938458413306673,-1.0,-0.8710904407070202,2.4635761231211406
1669909633437286921,22.201707435749064,1.3266601965562248,9.938458413306673,-1.0,-0.8209739022725049,2.4635761231211406
1669909633437354411,22.201707435749064,1.3266601965562248,9.938458413306673,-1.0,-0.8209739022725049,2.4635761231211406
1669909633437386595,22.201707435749064,1.3266601965562248,9.938458413306673,-1.0,-0.7677378826326146,2.4635761231211406
1669909633437448933,22.201707435749064,1.3266601965562248,9.938458413306673,-1.0,-0.7405416569920912,2.4635761231211406
1669909633437581473,22.201707435749064,1.3266601965562248,9.938458413306673,-1.0,-0.7405416569920912,2.4635761231211406
1669909633437608889,22.201707435749064,1.3266601965562248,9.938458413306673,-1.0,-0.692500550092453,2.4635761231211406
1669909633437625317,22.539704540189778,1.236006089671685,10.064041408985972,0.07323400410130035,-1.3498838463474507,2.46357612312122
1669909633437640872,22.539704540189778,1.236006089671685,10.064041408985972,0.07323400410130035,-1.3498838463474507,2.46357612312122
1669909633437709271,22.539704540189778,1.236006089671685,10.064041408985972,-1.0,-0.6532560635901925,2.46357612312122
1669909633451215201,22.539704540189778,1.236006089671685,10.064041408985972,-1.0,-0.6532560635901925,2.46357612312122
1669909633451265031,22.539704540189778,1.236006089671685,10.064041408985972,-1.0,-0.6003901880022027,2.46357612312122
1669909633480101320,22.539704540189778,1.236006089671685,10.064041408985972,-1.0,-0.5652551330764487,2.46357612312122
1669909633492016225,22.539704540189778,1.236006089671685,10.064041408985972,-1.0,-0.5652551330764487,2.8195415144074874e-12
1669909633514741841,22.539704540189778,1.236006089671685,10.064041408985972,-1.0,-0.5224445601803387,2.8195415144074874e-12
1669909633525705109,22.539704540189778,1.236006089671685,10.064041408985972,-1.0,-0.5224445601803387,2.8195415144074874e-12
1669909633548661288,22.148237771649413,0.6973632389237093,10.429208331832367,-0.6309335742027904,-3.6168777050247876,2.9961379337236356e-12
1669909633570826461,22.148237771649413,0.6973632389237093,10.429208331832367,-1.0,-0.7612812629525426,2.9961379337236356e-12
1669909633593425221,22.148237771649413,0.6973632389237093,10.429208331832367,-1.0,-0.7374807524302688,2.9961379337236356e-12
1669909633610052791,22.148237771649413,0.6973632389237093,10.429208331832367,-1.0,-0.713526424553653,2.9961379337236356e-12
1669909633632842730,22.148237771649413,0.6973632389237093,10.429208331832367,-1.0,-0.713526424553653,2.9961379337236356e-12
1669909633654458746,22.148237771649413,0.6973632389237093,10.429208331832367,-1.0,-0.6661268430233636,2.9961379337236356e-12
1669909633672163906,22.148237771649413,0.6973632389237093,10.429208331832367,-1.0,-0.6661268430233636,2.9961379337236356e-12
1669909633719581799,22.148237771649413,0.6973632389237093,10.429208331832367,-1.0,-0.6174327945797129,2.9961379337236356e-12
1669909633952115561,22.02180185118228,0.478425493074477,10.405720630817333,-1.0,-0.6174327945796514,3.245941963798608e-12
1669909633952122867,22.02180185118228,0.478425493074477,10.405720630817333,-0.644618747319084,-5.9999999999865326,3.245941963798608e-12
1669909633952326644,22.02180185118228,0.478425493074477,10.405720630817333,-0.644618747319084,-5.9999999999865326,3.245941963798608e-12
1669909633952341481,22.02180185118228,0.478425493074477,10.405720630817333,-1.0,-1.1496370834934595,3.245941963798608e-12
1669909633952346057,22.02180185118228,0.478425493074477,10.405720630817333,-1.0,-1.1496370834934595,3.245941963798608e-12
1669909633952349908,22.02180185118228,0.478425493074477,10.405720630817333,-1.0,-1.1098153681352951,3.245941963798608e-12
1669909633952363623,22.02180185118228,0.478425493074477,10.405720630817333,-1.0,-1.1098153681352951,3.245941963798608e-12
1669909633952371100,22.02180185118228,0.478425493074477,10.405720630817333,-1.0,-1.0728803169638912,3.245941963798608e-12
1669909633952510479,21.894877125979757,-0.03915788570178663,10.330916456263983,-1.0,-1.0728803169638481,3.5393510100380973e-12
1669909633952559790,21.894877125979757,-0.03915788570178663,10.330916456263983,-0.8453782968363885,-5.999999999986489,3.5393510100380973e-12
1669909633952645077,21.894877125979757,-0.03915788570178663,10.330916456263983,-1.0,-1.859308017609449,3.5393510100380973e-12
1669909633961280347,21.894877125979757,-0.03915788570178663,10.330916456263983,-1.0,-1.8435180334763004,3.5393510100380973e-12
1669909633961283101,21.894877125979757,-0.03915788570178663,10.330916456263983,-1.0,-1.8435180334763004,3.5393510100380973e-12
1669909633970904432,21.894877125979757,-0.03915788570178663,10.330916456263983,-1.0,-1.8168231182900572,3.5393510100380973e-12
1669909633992718646,4.591474150572014,-0.3116975016009115,10.286235250578198,-1.0,-1.8168231182900592,3.803247203347884e-12
1669909634014996561,4.591474150572014,-0.3116975016009115,10.286235250578198,-1.0,-5.999999999986492,3.803247203347884e-12
1669909634028825572,1.981884454641533,-0.3116975016009115,10.286235250578198,-1.0,-5.999999999986492,3.803247203347884e-12
1669909634049417043,1.613291136986969,-0.2789142436829005,10.302165942133643,-1.0,-5.999999999986493,4.006767611142318e-12
1669909634066989740,1.613291136986969,-0.2789142436829005,10.302165942133643,-1.0,-3.395463094650632,4.006767611142318e-12
1669909634095002034,1.424504337486445,-0.2527206975278201,10.30460869159387,-1.0,-5.9999999999865,4.111195783648316e-12
1669909634109844261,1.2272046502976255,-0.21718965081304165,10.302911650216807,-1.0,-5.999999999986506,4.211010495615723e-12
1669909634130054846,1.2272046502976255,-0.21718965081304165,10.302911650216807,-1.0,-5.999999999986506,4.211010495615723e-12
1669909634169073071,1.2272046502976255,-0.21718965081304165,10.302911650216807,-1.0,-5.999999999986506,4.211010495615723e-12
1669909634183667077,1.2272046502976255,-0.21718965081304165,10.302911650216807,-1.0,-4.109234837099872,4.211010495615723e-12
1669909634195492792,1.2272046502976255,-0.21718965081304165,10.302911650216807,-1.0,-4.109234837099872,4.211010495615723e-12
1669909634211087085,1.2272046502976255,-0.21718965081304165,10.302911650216807,-1.0,-4.112054298047711,4.211010495615723e-12
1669909634233339540,1.2272046502976255,-0.21718965081304165,10.302911650216807,-1.0,-4.112054298047711,4.211010495615723e-12
1669909634472481438,1.2272046502976255,-0.21718965081304165,10.302911650216807,-1.0,-4.115107487301076,4.211010495615723e-12
1669909634515493016,1.2272046502976255,-0.21718965081304165,10.302911650216807,-1.0,-4.115107487301076,4.211010495615723e-12
1669909634515496138,1.684670416669506,-0.3073531157830414,10.24286437887303,-1.0,-4.164939026824721,4.241360709015533e-12
1669909634515513590,1.684670416669506,-0.3073531157830414,10.24286437887303,-1.0,-4.1245973867381736,4.241360709015533e-12
1669909634515552826,1.684670416669506,-0.3073531157830414,10.24286437887303,-1.0,-4.1245973867381736,4.241360709015533e-12
1669909634515556459,1.684670416669506,-0.3073531157830414,10.24286437887303,-1.0,-4.127535130307494,4.241360709015533e-12
1669909634515574349,1.684670416669506,-0.3073531157830414,10.24286437887303,-1.0,-4.127535130307494,4.241360709015533e-12
1669909634515590983,1.684670416669506,-0.3073531157830414,10.24286437887303,-1.0,-4.130730756727937,4.241360709015533e-12
1669909634515607409,1.0712908336925837,-0.18177209166161173,10.210459015015223,-1.0,-4.13073075672794,4.559260029355314e-12
1669909634515623872,1.0712908336925837,-0.18177209166161173,10.210459015015223,-1.0,-5.99999999998651,4.559260029355314e-12
1669909634515640025,1.0712908336925837,-0.18177209166161173,10.210459015015223,-1.0,-5.28487065561353,4.559260029355314e-12
1669909634515657293,1.0712908336925837,-0.18177209166161173,10.210459015015223,-1.0,-5.28487065561353,4.559260029355314e-12
1669909634520280742,1.0712908336925837,-0.18177209166161173,10.210459015015223,-1.0,-5.301814987322908,4.559260029355314e-12
1669909634520298677,1.0712908336925837,-0.18177209166161173,10.210459015015223,-1.0,-5.311191922216882,4.559260029355314e-12
1669909634547036234,1.0712908336925837,6.254517457212289,30.127577564362145,-1.0,-5.323628153988883,4.559260029355314e-12
1669909634558768287,1.0712908336925837,6.254517457212289,30.127577564362145,-1.0,-5.323628153988883,4.559260029355314e-12
1669909634568691429,1.0712908336925837,6.254517457212289,30.127577564362145,-1.0,-5.337940566017314,4.559260029355314e-12
1669909634626342896,1.0712908336925837,6.420923492635568,30.21045901501522,-1.0,-5.3474369646390345,4.559260029355314e-12
1669909634637643078,1.0712908336925837,6.420923492635568,30.21045901501522,-1.0,-5.3474369646390345,4.559260029355314e-12
1669909634637665222,1.0712908336925837,6.420923492635568,30.21045901501522,-1.0,-5.365093925111035,4.559260029355314e-12
1669909634648452170,1.171023556608687,6.416600230311175,30.115747435369144,-1.0,-5.36509392511103,4.6370326831789196e-12
1669909634669789872,1.171023556608687,6.416600230311175,30.115747435369144,-1.0,-5.999999999986506,4.6370326831789196e-12
1669909634686338525,1.171023556608687,6.416600230311175,30.115747435369144,-1.0,-5.693154947791348,4.6370326831789196e-12
1669909634718959065,1.171023556608687,6.416600230311175,30.115747435369144,-1.0,-5.7045625859650135,4.6370326831789196e-12
1669909634734143925,1.171023556608687,6.416600230311175,30.115747435369144,-1.0,-5.7045625859650135,4.6370326831789196e-12
1669909634747134058,1.171023556608687,6.416600230311175,30.115747435369144,-1.0,-5.726092900541384,4.6370326831789196e-12
1669909635002846424,1.171023556608687,6.416600230311175,30.115747435369144,-1.0,-5.737135757989949,4.6370326831789196e-12
1669909635044506056,1.171023556608687,6.416600230311175,30.115747435369144,-1.0,-5.753411948311705,4.6370326831789196e-12
1669909635044554277,1.171023556608687,6.416600230311175,30.115747435369144,-1.0,-5.753411948311705,4.6370326831789196e-12
1669909635044599211,1.171023556608687,6.416600230311175,30.115747435369144,-1.0,-5.770161769651202,4.6370326831789196e-12
1669909635044642140,1.171023556608687,6.416600230311175,30.115747435369144,-1.0,-5.781227813421276,4.6370326831789196e-12
1669909635044889334,1.171023556608687,6.416600230311175,30.115747435369144,-1.0,-5.794407734079624,4.6370326831789196e-12
1669909635044961461,0.2517500659119729,6.486203026535127,30.022644541340647,-1.0,-5.794407734079596,4.962064927452725e-12
1669909635045021690,0.2517500659119729,6.486203026535127,30.022644541340647,-1.0,-5.9999999999864775,4.962064927452725e-12
1669909635045066941,0.2517500659119729,6.486203026535127,30.022644541340647,-1.0,-5.9999999999864775,4.962064927452725e-12
1669909635045109669,0.2517500659119729,6.486203026535127,30.022644541340647,-1.0,-5.9999999999864775,4.962064927452725e-12
1669909635045228201,0.2517500659119729,6.486203026535127,30.022644541340647,-1.0,-5.9999999999864775,4.962064927452725e-12
1669909635045304532,0.2517500659119729,6.486203026535127,30.022644541340647,-1.0,-5.9999999999864775,4.962064927452725e-12
1669909635055755183,0.2517500659119729,6.486203026535127,30.022644541340647,-1.0,-5.9999999999864775,4.962064927452725e-12
1669909635055759657,0.2517500659119729,6.486203026535127,30.022644541340647,-1.0,-5.9999999999864775,4.962064927452725e-12
1669909635055763892,0.2517500659119729,6.486203026535127,30.022644541340647,-1.0,-5.9999999999864775,4.962064927452725e-12
1669909635068184348,0.2517500659119729,6.486203026535127,30.022644541340647,-1.0,-5.9999999999864775,4.962064927452725e-12
1669909635090162108,0.2517500659119729,6.486203026535127,30.022644541340647,-1.0,-5.9999999999864775,4.962064927452725e-12
1669909635114287296,-0.3944999488125065,6.637919416553313,29.935642731768496,-1.0,-5.999999999986489,5.05339012664504e-12
1669909635126883045,-0.3944999488125065,6.637919416553313,29.935642731768496,-1.0,-5.999999999986489,5.05339012664504e-12
1669909635149003183,-0.3944999488125065,6.637919416553313,29.935642731768496,-1.0,-5.999999999986489,5.05339012664504e-12
1669909635170935630,-0.3944999488125065,6.637919416553313,29.935642731768496,-1.0,-5.999999999986489,5.05339012664504e-12
1669909635189390758,-0.3944999488125065,6.637919416553313,29.935642731768496,-1.0,-5.999999999986489,5.05339012664504e-12
1669909635204261986,-0.3944999488125065,6.637919416553313,29.935642731768496,-1.0,-5.999999999986489,5.05339012664504e-12
1669909635235114136,-0.3944999488125065,6.637919416553313,29.935642731768496,-1.0,-5.999999999986489,5.05339012664504e-12
1669909635248951672,-0.7688311008043327,6.685502834027164,30.001207249681187,-1.0,-5.99999999998657,4.917582818205474e-12
1669909635285540827,-0.7688311008043327,6.685502834027164,30.001207249681187,-1.0,-5.99999999998657,4.917582818205474e-12
1669909635533673170,-0.7688311008043327,6.685502834027164,30.001207249681187,-1.0,-5.99999999998657,4.917582818205474e-12
1669909635543474579,-0.7688311008043327,6.685502834027164,30.001207249681187,-1.0,-5.99999999998657,4.917582818205474e-12
1669909635543477957,-0.7688311008043327,6.685502834027164,30.001207249681187,-1.0,-5.99999999998657,4.917582818205474e-12
1669909635543491677,-0.7688311008043327,6.685502834027164,30.001207249681187,-1.0,-5.99999999998657,4.917582818205474e-12
1669909635543719188,-0.7688311008043327,6.685502834027164,30.001207249681187,-1.0,-5.99999999998657,4.917582818205474e-12
1669909635543729668,-0.7688311008043327,6.685502834027164,30.001207249681187,-1.0,-5.99999999998657,4.917582818205474e-12
1669909635543859962,-0.7688311008043327,6.685502834027164,30.001207249681187,-1.0,-5.99999999998657,4.917582818205474e-12
1669909635543880267,-0.7688311008043327,6.685502834027164,30.001207249681187,-1.0,-5.99999999998657,4.917582818205474e-12
1669909635543897639,-0.7688311008043327,6.685502834027164,30.001207249681187,-1.0,-5.99999999998657,4.917582818205474e-12
1669909635544038325,-0.7688311008043327,6.685502834027164,30.001207249681187,-1.0,-5.99999999998657,4.917582818205474e-12
1669909635544042707,-0.7688311008043327,6.685502834027164,30.001207249681187,-1.0,-5.99999999998657,4.917582818205474e-12
1669909635544047942,-0.85434345170047,6.791689115551202,30.063093133128035,-1.0,-4.345935790694732,4.7670951440288895e-12
1669909635545796679,-0.85434345170047,6.791689115551202,30.063093133128035,-1.0,-4.345935790694732,4.7670951440288895e-12
1669909635547540695,-0.85434345170047,6.791689115551202,30.063093133128035,-1.0,-5.999999999986629,4.7670951440288895e-12
1669909635564558391,-0.85434345170047,6.791689115551202,30.063093133128035,-1.0,-5.999999999986629,4.7670951440288895e-12
1669909635588885524,-0.85434345170047,6.958095150974481,30.063093133128035,-1.0,-5.999999999986629,4.7670951440288895e-12
1669909635622062911,-0.85434345170047,6.958095150974481,30.063093133128035,-1.0,-5.999999999986629,4.7670951440288895e-12
1669909635639453906,-0.85434345170047,6.958095150974481,30.063093133128035,-1.0,-5.999999999986629,4.7670951440288895e-12
1669909635654281253,-0.85434345170047,6.958095150974481,30.063093133128035,-1.0,-5.999999999986629,4.7670951440288895e-12
1669909635677825006,-0.85434345170047,6.958095150974481,30.063093133128035,-1.0,-5.999999999986629,4.7670951440288895e-12
1669909635689595749,-0.6387129272460739,5.096613108816161,21.756624700657184,-1.0,6.000000000013262,4.345609414664895e-12
1669909635734886887,-0.6387129272460739,5.096613108816161,21.756624700657184,-1.0,6.000000000013262,4.345609414664895e-12
1669909635749393467,-0.6387129272460739,1.4356769767427577,10.60676791720753,-1.0,-5.999999999986738,4.345609414664895e-12
1669909635767315398,-0.6387129272460739,1.4356769767427577,10.60676791720753,-1.0,-5.999999999986738,4.345609414664895e-12
1669909635782579718,-0.6387129272460739,1.4356769767427577,10.60676791720753,-1.0,-5.999999999986738,4.345609414664895e-12
1669909635793514510,-0.6387129272460739,0.49143427580834764,10.160458805195145,-1.0,-5.999999999986738,4.345609414664895e-12
1669909635807391177,-0.6387129272460739,0.49143427580834764,10.160458805195145,-1.0,-5.999999999986738,4.345609414664895e-12
1669909636050068385,-0.6387129272460739,0.49143427580834764,10.160458805195145,-1.0,-5.999999999986738,4.345609414664895e-12
1669909636094587294,-0.32110837961066807,0.7149278950644545,10.206909604963178,-1.0,-5.999999999986782,4.036138614502736e-12
1669909636094589559,-0.32110837961066807,0.7149278950644545,10.206909604963178,-1.0,0.8254787601188307,4.036138614502736e-12
1669909636094591997,-0.32110837961066807,0.7149278950644545,10.206909604963178,-1.0,0.8254787601188307,4.036138614502736e-12
1669909636094594272,-0.32110837961066807,0.7149278950644545,10.206909604963178,-1.0,-5.999999999986782,4.036138614502736e-12
1669909636094736336,-0.32110837961066807,0.7149278950644545,10.206909604963178,-1.0,-5.999999999986782,4.036138614502736e-12
1669909636094788487,-0.32110837961066807,0.7149278950644545,10.206909604963178,-1.0,-5.999999999986782,4.036138614502736e-12
1669909636094791949,-0.32110837961066807,0.7149278950644545,10.206909604963178,-1.0,-5.999999999986782,4.036138614502736e-12
1669909636094797304,-0.32110837961066807,0.7149278950644545,10.206909604963178,-1.0,-5.999999999986782,4.036138614502736e-12
1669909636094863609,0.03446621321567256,0.8785252281159633,10.245975408283023,-1.0,1.746342575210925,3.763742851618865e-12
1669909636094867368,0.03446621321567256,0.8785252281159633,10.245975408283023,-1.0,-5.609765357899336,3.763742851618865e-12
1669909636094869384,0.03446621321567256,0.8785252281159633,10.245975408283023,-1.0,-5.609765357899336,3.763742851618865e-12
1669909636115971481,0.03446621321567256,0.8785252281159633,10.245975408283023,-1.0,-5.618810519773363,0.5665456317402807
1669909636115977668,0.03446621321567256,0.8785252281159633,10.245975408283023,-1.0,-5.618810519773363,0.5665456317402807
1669909636115980546,0.03446621321567256,0.8785252281159633,10.245975408283023,-1.0,-5.618810519773363,0.5665456317402807
1669909636127152541,0.4060521109688079,0.7155997358288317,10.279406105332123,-0.6738014796083747,3.3464157366878045,12.000000178817636
1669909636162161050,0.4060521109688079,0.7155997358288317,10.279406105332123,-1.0,-4.838927204335559,12.000000178817636
1669909636176260887,0.4060521109688079,0.7155997358288317,10.279406105332123,-1.0,-4.838927204335559,12.000000178817636
1669909636189787351,0.4060521109688079,0.7155997358288317,10.279406105332123,-1.0,-4.834226755909449,3.701298466850982e-12
1669909636205310091,0.4060521109688079,0.7155997358288317,10.279406105332123,-1.0,-4.831818466808675,3.701298466850982e-12
1669909636228048955,0.4060521109688079,0.7155997358288317,10.279406105332123,-1.0,-4.831818466808675,3.701298466850982e-12
1669909636262091529,0.9428189222598853,1.2011851026778553,10.18377158889017,-0.274164250532829,-2.6473241262483853,3.755447293598118e-12
1669909636280776044,0.9428189222598853,1.2011851026778553,10.18377158889017,-0.274164250532829,-2.6473241262483853,3.755447293598118e-12
1669909636299610709,0.9428189222598853,1.2011851026778553,10.18377158889017,-1.0,-4.564365236355775,3.755447293598118e-12
1669909636310596463,0.9428189222598853,1.2011851026778553,10.18377158889017,-1.0,-4.560128169784535,3.755447293598118e-12
1669909636332007967,0.9428189222598853,1.2011851026778553,10.18377158889017,-1.0,-4.560128169784535,3.755447293598118e-12
1669909636716730703,1.0365972990088415,0.742192591129059,10.211198030578919,-0.20842738225463314,-3.2441742683645445,3.776078427754783e-12
1669909636745528773,1.0365972990088415,0.742192591129059,10.211198030578919,-0.20842738225463314,-3.2441742683645445,3.776078427754783e-12
1669909636745530695,1.0365972990088415,0.742192591129059,10.211198030578919,-1.0,-4.366127713350524,3.776078427754783e-12
1669909636745532718,1.0365972990088415,0.742192591129059,10.211198030578919,-1.0,-4.360628823250988,3.776078427754783e-12
1669909636745534675,1.0365972990088415,0.742192591129059,10.211198030578919,-1.0,-4.360628823250988,3.776078427754783e-12
1669909636746393381,1.0365972990088415,0.742192591129059,10.211198030578919,-1.0,-4.351369267470565,3.776078427754783e-12
1669909636746430718,1.0373349063462154,0.19083358777331935,10.187391626628163,1.0,-2.101518875184731,3.806386889683968e-12
1669909636746434608,1.0373349063462154,0.19083358777331935,10.187391626628163,1.0,-2.101518875184731,3.806386889683968e-12
1669909636748864108,1.0373349063462154,0.19083358777331935,10.187391626628163,-1.0,-4.19843445168449,3.806386889683968e-12
1669909636749073089,1.0373349063462154,0.19083358777331935,10.187391626628163,-1.0,-4.19843445168449,3.806386889683968e-12
1669909636749097396,1.0373349063462154,0.19083358777331935,10.187391626628163,-1.0,-4.226174739602945,3.806386889683968e-12
1669909636749111253,1.035544093592497,-0.32455292618764875,10.174485100156488,1.0,-4.226174739602691,3.945706877611251e-12
1669909636749119752,1.035544093592497,-0.32455292618764875,10.174485100156488,1.0,-4.1821079824184535,3.945706877611251e-12
1669909636771119739,1.035544093592497,-0.32455292618764875,10.174485100156488,-0.8420217950939968,-4.1821079824184535,3.945706877611251e-12
1669909636771123834,1.035544093592497,-0.32455292618764875,10.174485100156488,-0.8420217950939968,-4.170506495312397,3.945706877611251e-12
1669909636771264907,1.035544093592497,-0.32455292618764875,10.174485100156488,-0.8399318149374879,-4.1642016751468525,3.945706877611251e-12
1669909636771331012,1.0812393196980383,-0.6657998419471033,10.089657320378388,-0.8399318149374879,-4.164201675146767,4.023272704705125e-12
1669909636772280324,1.0812393196980383,-0.6657998419471033,10.089657320378388,-0.07993432659100658,-4.923735133042086,4.023272704705125e-12
1669909636772308087,0.9410012879514906,-1.060000051231088,10.056217935062019,-0.07993432659100658,-4.923735133042017,4.160627319480058e-12
1669909636772310921,0.9410012879514906,-1.060000051231088,10.056217935062019,0.37950989739996804,-5.999999999985539,4.160627319480058e-12
1669909636776211112,0.9410012879514906,-1.060000051231088,10.056217935062019,-0.6285525652913349,-4.480751681252552,4.160627319480058e-12
1669909636776234182,0.9410012879514906,-1.060000051231088,10.056217935062019,-0.6259666441154933,-4.476597414867497,4.160627319480058e-12
1669909636797383797,0.9410012879514906,-1.060000051231088,10.056217935062019,-0.6259666441154933,-4.476597414867497,4.160627319480058e-12
1669909636806235477,0.9410012879514906,-1.060000051231088,10.056217935062019,-0.6213055050655014,-4.4691244442443905,4.160627319480058e-12
1669909637219210288,0.8426335232667317,-1.164894178004536,10.091452982362048,-0.6213055050655014,-4.469124444244426,4.202023155970191e-12
1669909637236418657,0.8426335232667317,-1.164894178004536,10.091452982362048,-0.4551485493642875,-5.664324458644883,4.202023155970191e-12
1669909637236466967,0.8426335232667317,-1.164894178004536,10.091452982362048,-0.5971474739616124,-5.664324458644883,4.202023155970191e-12
1669909637236505297,0.8426335232667317,-1.164894178004536,10.091452982362048,-0.5945145700646819,-4.582761056509504,4.202023155970191e-12
1669909637236563557,0.8426335232667317,-1.164894178004536,10.091452982362048,-0.5916586308794676,-4.579351594048963,4.202023155970191e-12
1669909637236568195,0.8426335232667317,-1.164894178004536,10.091452982362048,-0.5888362850668576,-4.575978246680419,4.202023155970191e-12
1669909637236624074,0.8426335232667317,-1.164894178004536,10.091452982362048,-0.5888362850668576,-4.575978246680419,4.202023155970191e-12
1669909637236776509,0.8426335232667317,-1.164894178004536,10.091452982362048,-0.5843322426858234,-4.570595142327705,4.202023155970191e-12
1669909637236784033,0.799985776766845,-1.8589967880732479,10.119580638448339,-0.5843322426858234,-4.570595142327823,4.257418710447754e-12
1669909637236792737,0.799985776766845,-1.8589967880732479,10.119580638448339,-0.7226865907679862,-5.999999999985692,4.257418710447754e-12
1669909637236864742,0.799985776766845,-1.8589967880732479,10.119580638448339,-0.5916301667755165,-4.828819622922506,4.257418710447754e-12
1669909637236956883,0.799985776766845,-1.8589967880732479,10.119580638448339,-0.5889164333007804,-4.827411454168325,4.257418710447754e-12
1669909637237100487,0.6038220234006136,-1.5613863088076831,10.1507444479197,-0.5889164333007804,-4.8274114541685496,4.304302942587052e-12
1669909637237170877,0.6038220234006136,-1.5613863088076831,10.1507444479197,-1.0,-5.999999999985917,4.304302942587052e-12
1669909637237311460,0.6038220234006136,-1.5613863088076831,10.1507444479197,-0.6754422812725638,-5.190634330842055,4.304302942587052e-12
1669909637252683197,0.6038220234006136,-1.5613863088076831,10.1507444479197,-0.673653132889092,-5.191817975733651,4.304302942587052e-12
1669909637252706125,0.6038220234006136,-1.5613863088076831,10.1507444479197,-0.673653132889092,-5.191817975733651,4.304302942587052e-12
1669909637252709921,0.6038220234006136,-1.5613863088076831,10.1507444479197,-0.6697467525668376,-5.1944006787827455,4.304302942587052e-12
1669909637252722836,0.5110617477931988,-1.711713193789444,10.200856714081036,-1.0,-5.999999999986072,4.3168260142905096e-12
1669909637252950621,0.5110617477931988,-1.711713193789444,10.200856714081036,-1.0,-5.999999999986072,4.3168260142905096e-12
1669909637253428910,0.5110617477931988,-1.711713193789444,10.200856714081036,-0.7582964787212382,-5.427174787199528,4.3168260142905096e-12
1669909637253553778,0.5110617477931988,-1.711713193789444,10.200856714081036,-0.7571265233936225,-5.42985948537613,4.3168260142905096e-12
1669909637747057562,0.5110617477931988,-1.711713193789444,10.200856714081036,-0.7571265233936225,-5.42985948537613,4.3168260142905096e-12
1669909637801613512,0.32946355698646934,-1.1799294748919558,10.211726989860965,-1.0,-5.999999999986301,4.3326328886552065e-12
1669909637801665055,0.32946355698646934,-1.1799294748919558,10.211726989860965,-0.9196372343459618,-5.778015569009526,4.3326328886552065e-12
1669909637801704722,0.32946355698646934,-1.1799294748919558,10.211726989860965,-0.9196372343459618,-5.778015569009526,4.3326328886552065e-12
1669909637801753311,0.32946355698646934,-1.1799294748919558,10.211726989860965,-0.9194619236161725,-5.788514947033674,4.3326328886552065e-12
1669909637801803566,0.32946355698646934,-1.1799294748919558,10.211726989860965,-0.9194619236161725,-5.788514947033674,4.3326328886552065e-12
1669909637801843660,0.32946355698646934,-1.1799294748919558,10.211726989860965,-0.9192949460300999,-5.79850469685305,4.3326328886552065e-12
1669909637801883200,0.32946355698646934,-1.1799294748919558,10.211726989860965,-0.9192949460300999,-5.79850469685305,4.3326328886552065e-12
1669909637801931337,0.11462440866899304,-0.7677712855368377,10.263796909430948,-1.0,-5.999999999986536,4.3452996348940316e-12
1669909637801975071,0.11462440866899304,-0.7677712855368377,10.263796909430948,-1.0,-5.999999999986536,4.3452996348940316e-12
1669909637802016371,-0.011764612929210605,-0.36218445253150544,10.228589910040661,-1.0,-5.9999999999866995,4.356273659765021e-12
1669909637802054278,-0.011764612929210605,-0.36218445253150544,10.228589910040661,-1.0,-5.9999999999866995,4.356273659765021e-12
1669909637802092620,-0.011764612929210605,-0.36218445253150544,10.228589910040661,-1.0,-5.9999999999866995,4.356273659765021e-12
1669909637802131158,-0.011764612929210605,-0.36218445253150544,10.228589910040661,-1.0,-5.9999999999866995,4.356273659765021e-12
1669909637802224983,-0.011764612929210605,-0.36218445253150544,10.228589910040661,-1.0,-5.9999999999866995,4.356273659765021e-12
1669909637802303981,-0.011764612929210605,-0.36218445253150544,10.228589910040661,-1.0,-5.9999999999866995,4.356273659765021e-12
1669909637802350475,-0.011764612929210605,-0.36218445253150544,10.228589910040661,-1.0,-5.9999999999866995,4.356273659765021e-12
1669909637809585605,-0.011764612929210605,-0.36218445253150544,10.228589910040661,-1.0,-5.9999999999866995,4.356273659765021e-12
1669909637809607814,-0.011764612929210605,-0.36218445253150544,10.228589910040661,-1.0,-5.9999999999866995,4.356273659765021e-12
1669909637809626426,0.16520516349771885,-0.2790967321770401,10.315016752931527,-1.0,-5.999999999986765,4.362651446764755e-12
1669909637809646709,0.16520516349771885,-0.2790967321770401,10.315016752931527,-1.0,-5.999999999986765,4.362651446764755e-12
1669909637809665783,0.16520516349771885,-0.2790967321770401,10.315016752931527,-1.0,-5.999999999986765,4.362651446764755e-12
1669909637809685220,0.16520516349771885,-0.2790967321770401,10.315016752931527,-1.0,-5.999999999986765,4.362651446764755e-12
1669909637809703545,0.16520516349771885,-0.2790967321770401,10.315016752931527,-1.0,-5.999999999986765,4.362651446764755e-12
1669909637809722361,0.16520516349771885,-0.2790967321770401,10.315016752931527,-1.0,-5.999999999986765,4.362651446764755e-12
1669909637809740524,-0.25738739805586675,0.6437449079720007,10.159322771062143,-1.0,-5.999999999986867,4.383911526194792e-12
1669909637809758640,-0.25738739805586675,5.248923740979813,30.159322771062143,-1.0,-5.999999999986867,4.383911526194792e-12
1669909637813002740,-0.3129755495173935,5.33794452741605,30.14076736222348,-1.0,-5.999999999986876,4.400555868142379e-12
1669909637822562932,0.28594842294490297,6.502311185435955,30.13949787781918,-1.0,-5.999999999986868,12.000000178818341
1669909637848721472,0.28594842294490297,6.502311185435955,30.13949787781918,-1.0,-5.999999999986868,12.000000178818341
1669909637866310031,0.28594842294490297,6.502311185435955,30.13949787781918,-1.0,-5.999999999986868,12.000000178818341
1669909637887886838,0.28594842294490297,6.502311185435955,26.562085510952116,-1.0,-5.999999999986868,12.000000178818341
1669909637905381269,0.28594842294490297,6.502311185435955,26.562085510952116,-1.0,-5.999999999986868,12.000000178818341
1669909638140015585,0.4523546446326967,1.5101254288718151,14.91236782239163,-1.0,-5.999999999986868,8.65465700626814
1669909638150403260,0.4173030360585952,1.8417553124561516,14.881618568369998,-1.0,-5.999999999986846,8.654657006268142
1669909638150478162,0.4173030360585952,1.8417553124561516,14.881618568369998,-1.0,-5.999999999986846,8.654657006268142
1669909638150497932,0.3962233174261226,1.7590815759143115,14.891956799608481,-1.0,-5.999999999986792,8.654657006268161
1669909638150516049,0.3962233174261226,1.7590815759143115,14.891956799608481,-1.0,-5.999999999986792,8.654657006268161
1669909638150576790,0.39683093292343863,1.7044028907570892,14.899848868413589,-1.0,-5.999999999986768,8.654657006268163
1669909638150665794,0.39683093292343863,1.7044028907570892,14.899848868413589,-1.0,-5.999999999986768,8.654657006268163
1669909638150690565,0.39683093292343863,1.7044028907570892,14.899848868413589,-1.0,-5.999999999986768,8.654657006268163
1669909638150708927,0.39683093292343863,1.7044028907570892,14.899848868413589,-1.0,-5.999999999986768,8.654657006268163
1669909638150726760,0.39683093292343863,1.7044028907570892,14.899848868413589,-1.0,-5.999999999986768,8.654657006268163
1669909638150744641,0.39683093292343863,1.7044028907570892,14.899848868413589,-1.0,-5.999999999986768,8.654657006268163
1669909638158561501,0.39683093292343863,1.7044028907570892,14.899848868413589,-1.0,-5.999999999986768,8.654657006268163
1669909638160021743,0.3245698093617225,1.8604995886234537,14.868034931420066,-1.0,-5.999999999986748,8.654657006268154
1669909638188974088,-0.4545517087733483,1.0826630721239345,10.095164986847617,-1.0,-5.999999999986748,4.421445339694638e-12
1669909638210543958,-0.4545517087733483,1.0826630721239345,10.095164986847617,-1.0,-5.999999999986748,4.421445339694638e-12
1669909638224875085,-0.3992833392156454,0.932850070835664,10.119497714299728,-0.5940007580988648,-5.500969759093986,4.386946708053207e-12
1669909638247164912,-0.3992833392156454,0.932850070835664,10.119497714299728,-0.5940007580988648,-5.500969759093986,4.386946708053207e-12
1669909638269229367,-0.3438978277119664,0.8441068895510234,10.134661847706559,-1.0,-5.999999999986669,4.362513421660875e-12
1669909638285544527,-0.3438978277119664,0.8441068895510234,10.134661847706559,-1.0,-5.999999999986669,4.362513421660875e-12
1669909638309867875,-0.3438978277119664,0.8441068895510234,10.134661847706559,-1.0,-5.999999999986669,4.362513421660875e-12
1669909638326036948,-0.3438978277119664,0.8441068895510234,10.134661847706559,-1.0,-5.999999999986669,4.362513421660875e-12
1669909638350564297,-0.3438978277119664,0.8441068895510234,10.134661847706559,-1.0,-5.999999999986669,4.362513421660875e-12
1669909638368957791,-0.3438978277119664,0.8441068895510234,10.134661847706559,-1.0,-5.999999999986669,4.362513421660875e-12
1669909638389580984,-0.3438978277119664,0.8441068895510234,10.134661847706559,-1.0,-5.999999999986669,4.362513421660875e-12
1669909638411620276,-0.3438978277119664,0.8441068895510234,10.134661847706559,-1.0,-5.999999999986669,4.362513421660875e-12
1669909638427518184,-0.5004242989163783,0.8479777991666775,10.190580812700519,-1.0,-5.999999999986649,4.34688768768237e-12
1669909638537601272,-0.5004242989163783,0.8479777991666775,10.190580812700519,-1.0,-5.999999999986649,4.34688768768237e-12
