%time,field.force.x,field.force.y,field.force.z,field.torque.x,field.torque.y,field.torque.z
1669909269154946131,1.5073250518452983,0.4919314901766093,10.024421405704654,-1.0,-5.999999999993417,2.296922244907593e-12
1669909269239290459,1.076534741894577,0.5579976778638972,10.004619838462858,-1.0,-5.9999999999934115,2.2975393993005303e-12
1669909269239312688,1.076534741894577,0.5579976778638972,10.004619838462858,-1.0,-5.9999999999934115,2.2975393993005303e-12
1669909269239332601,1.0823802324041734,0.508507186690686,10.009042415611859,-0.9809631296709455,-5.999999999993376,2.299374084104272e-12
1669909269239355913,1.0823802324041734,0.508507186690686,10.009042415611859,-0.9809631296709455,-5.999999999993376,2.299374084104272e-12
1669909269239446649,1.0823802324041734,0.508507186690686,10.009042415611859,-1.0,-5.999999999993376,2.299374084104272e-12
1669909269239492431,1.0823802324041734,0.508507186690686,10.009042415611859,-1.0,-5.999999999993376,2.299374084104272e-12
1669909269239496059,1.0823802324041734,0.508507186690686,10.009042415611859,-1.0,-5.999999999993376,2.299374084104272e-12
1669909269239517856,1.0823802324041734,0.508507186690686,10.009042415611859,-1.0,-5.999999999993376,2.299374084104272e-12
1669909269239535748,0.745291432488421,0.5882876080724553,9.960140679473254,-1.0,-5.999999999993371,2.2981693517798694e-12
1669909269239554595,0.745291432488421,0.5882876080724553,9.960140679473254,-1.0,-5.999999999993371,2.2981693517798694e-12
1669909269239573303,0.745291432488421,0.5882876080724553,9.960140679473254,-0.7447277213049195,-5.999999999993371,2.2981693517798694e-12
1669909269239593215,0.7876973897057726,0.49382907525703124,9.9715823487021,-0.7447277213049195,-5.999999999993329,2.2871089518645517e-12
1669909269239611010,0.7876973897057726,0.49382907525703124,9.9715823487021,-1.0,-5.999999999993329,2.2871089518645517e-12
1669909269239632699,0.7876973897057726,0.49382907525703124,9.9715823487021,-1.0,-5.999999999993329,2.2871089518645517e-12
1669909269261663606,0.7876973897057726,0.49382907525703124,9.9715823487021,-1.0,-5.999999999993329,2.2871089518645517e-12
1669909269261697868,0.7876973897057726,0.49382907525703124,9.9715823487021,-1.0,-5.999999999993329,2.2871089518645517e-12
1669909269261718343,0.7876973897057726,0.49382907525703124,9.9715823487021,-1.0,-5.999999999993329,2.2871089518645517e-12
1669909269261738182,0.5798980481082654,0.5165472870330584,9.906439885548554,-1.0,-5.999999999993313,2.2792552218384404e-12
1669909269261760144,0.5798980481082654,0.5165472870330584,9.906439885548554,-1.0,-5.999999999993313,2.2792552218384404e-12
1669909269275162361,0.6350202282272506,0.44350065662457705,9.916701673131326,-0.9506235158756007,-5.999999999993287,2.260827370758712e-12
1669909269289693108,0.6350202282272506,0.44350065662457705,9.916701673131326,-1.0,-5.999999999993287,2.260827370758712e-12
1669909269306866589,0.6350202282272506,0.44350065662457705,9.916701673131326,-1.0,-5.999999999993287,2.260827370758712e-12
1669909269328587547,0.6350202282272506,0.44350065662457705,9.916701673131326,-1.0,-5.999999999993287,2.260827370758712e-12
1669909269349103658,0.6350202282272506,0.44350065662457705,9.916701673131326,-1.0,-5.999999999993287,2.260827370758712e-12
1669909269373555710,0.4411000007057806,0.4560892958501042,9.850921412923254,-1.0,-5.999999999993283,2.251288938280657e-12
1669909269670808291,0.49381850830636775,0.4116824879577567,9.85853876590586,-0.9523368869722165,-5.99999999999327,2.2312538991523677e-12
1669909269742207032,0.49381850830636775,0.4116824879577567,9.85853876590586,-0.9523368869722165,-5.99999999999327,2.2312538991523677e-12
1669909269742230985,0.5416358075865849,0.38006431086352627,9.864687999419905,-1.0,-5.999999999993261,2.213013261825389e-12
1669909269742247740,0.5450429126800251,0.37810296652903685,9.865101848315014,-1.0,-5.9999999999932605,2.211835327216753e-12
1669909269742264335,0.5734243267681303,0.36276894575224167,9.868449734364201,-1.0,-5.999999999993257,2.2016943606048615e-12
1669909269742281234,0.5734243267681303,0.36276894575224167,9.868449734364201,-1.0,-5.999999999993257,2.2016943606048615e-12
1669909269742297892,0.5734243267681303,0.36276894575224167,9.868449734364201,-1.0,-5.999999999993257,2.2016943606048615e-12
1669909269742314855,0.5734243267681303,0.36276894575224167,9.868449734364201,-1.0,-5.999999999993257,2.2016943606048615e-12
1669909269742331456,0.5734243267681303,0.36276894575224167,9.868449734364201,-1.0,-5.999999999993257,2.2016943606048615e-12
1669909269742347736,0.39279111523046617,0.3580606014490506,9.819518953092507,-1.0,-5.999999999993257,2.1987566695635864e-12
1669909269742364173,0.39279111523046617,0.3580606014490506,9.819518953092507,-1.0,-5.999999999993257,2.1987566695635864e-12
1669909269742380092,0.4923897790975107,0.31733381667295407,9.829877034338688,-0.891724106560916,-4.5065690885606955,2.161073755826408e-12
1669909269742396021,0.5440760169477337,0.30185939829634234,9.834607973874366,-0.891724106560916,-4.506569088560692,2.141001982406135e-12
1669909269742411898,0.5440760169477337,0.30185939829634234,9.834607973874366,-1.0,-5.999999999993243,2.141001982406135e-12
1669909269742428769,0.5440760169477337,0.30185939829634234,9.834607973874366,-1.0,-5.999999999993243,2.141001982406135e-12
1669909269773374585,0.5440760169477337,0.30185939829634234,9.834607973874366,-1.0,-5.999999999993243,2.141001982406135e-12
1669909269773419933,0.5440760169477337,0.30185939829634234,9.834607973874366,-1.0,-5.999999999993243,2.141001982406135e-12
1669909269773459995,0.5440760169477337,0.30185939829634234,9.834607973874366,-1.0,-5.999999999993243,2.141001982406135e-12
1669909269773502861,0.43388983436045847,0.2620506473146236,9.774586549868575,-1.0,-5.9999999999932445,2.1428515193125823e-12
1669909269788100424,0.43388983436045847,0.2620506473146236,9.774586549868575,-1.0,-5.9999999999932445,2.1428515193125823e-12
1669909269788149205,0.5531482529908618,0.23509072285848331,9.784119559782788,-0.9494747637118348,-3.659613772054315,2.0972020003623588e-12
1669909269809465140,0.563839485876287,0.23304744482160036,9.784888678299993,-0.9494747637118348,-3.6596137720543145,2.0932758801159426e-12
1669909269846291662,0.563839485876287,0.23304744482160036,9.784888678299993,-1.0,-5.999999999993236,2.0932758801159426e-12
1669909269869824205,0.6054991974090069,0.22569474891119232,9.787753070047543,-1.0,-5.839243363042986,2.0780690279811857e-12
1669909269869876279,0.6374611293893343,0.22109211501160136,9.789798540893862,-1.0,-5.839243363042985,2.0681276635390647e-12
1669909269886315548,0.6374611293893343,0.22109211501160136,9.789798540893862,-1.0,-5.999999999993233,2.0681276635390647e-12
1669909270124867339,0.6374611293893343,0.22109211501160136,9.789798540893862,-1.0,-5.999999999993233,2.0681276635390647e-12
1669909270188827806,0.6374611293893343,0.22109211501160136,9.789798540893862,-1.0,-5.999999999993233,2.0681276635390647e-12
1669909270188868020,0.6374611293893343,0.22109211501160136,9.789798540893862,-1.0,-5.999999999993233,2.0681276635390647e-12
1669909270188906867,0.6374611293893343,0.22109211501160136,9.789798540893862,-1.0,-5.999999999993233,2.0681276635390647e-12
1669909270188945694,0.4822023737070408,0.21729696471945584,9.741312861747744,-1.0,-5.999999999993232,2.0588848341605085e-12
1669909270188984098,0.4822023737070408,0.21729696471945584,9.741312861747744,-1.0,-5.999999999993232,2.0588848341605085e-12
1669909270189021814,0.4822023737070408,0.21729696471945584,9.741312861747744,-1.0,-5.999999999993232,2.0588848341605085e-12
1669909270189059804,0.5944461516650894,0.20377652787579567,9.747293373638527,-1.0,-3.50643245611153,2.017285225905034e-12
1669909270189096928,0.5944461516650894,0.20377652787579567,9.747293373638527,-1.0,-5.9999999999932285,2.017285225905034e-12
1669909270189135191,0.5944461516650894,0.20377652787579567,9.747293373638527,-1.0,-5.9999999999932285,2.017285225905034e-12
1669909270189173134,0.5944461516650894,0.20377652787579567,9.747293373638527,-1.0,-5.9999999999932285,2.017285225905034e-12
1669909270189210950,0.5944461516650894,0.20377652787579567,9.747293373638527,-1.0,-5.9999999999932285,2.017285225905034e-12
1669909270189248505,0.5430350035308784,0.2189444848129791,9.729842083463891,-1.0,-5.999999999993228,1.9954484445802487e-12
1669909270207801427,0.5430350035308784,0.2189444848129791,9.729842083463891,-1.0,-5.688282009240214,1.9954484445802487e-12
1669909270207851699,0.5430350035308784,0.2189444848129791,9.729842083463891,-1.0,-5.999999999993228,1.9954484445802487e-12
1669909270207895873,0.6407655351971882,0.2141596933970305,9.733229064866576,-1.0,-5.999999999993226,1.9564529158264397e-12
1669909270220818744,0.6407655351971882,0.2141596933970305,9.733229064866576,-1.0,-4.956605498153578,1.9564529158264397e-12
1669909270245524821,0.7017312733287134,0.21338046904698235,9.73479451960503,-1.0,-4.956605498153578,1.9332572453432525e-12
1669909270288033106,20.701731273328715,0.21338046904698235,9.73479451960503,-1.0,-5.466430959428107,-0.2677854616175631
1669909270313622246,20.701731273328715,0.21338046904698235,9.73479451960503,-1.0,-5.999999999993226,-0.2677854616175631
1669909270313722948,20.701731273328715,0.21338046904698235,9.73479451960503,-1.0,-5.999999999993226,-0.2677854616175631
1669909270336888571,20.701731273328715,0.21338046904698235,9.73479451960503,-1.0,-5.999999999993226,-0.6671603210251073
1669909270353646481,20.701731273328715,0.21338046904698235,9.73479451960503,-1.0,-5.999999999993226,-0.6671603210251073
1669909270385565833,20.643502596545773,0.2042599535218332,9.735788747950687,-1.0,-5.554028016175319,-1.2662225961666016
1669909270654842055,20.643502596545773,0.2042599535218332,9.735788747950687,-1.0,-5.999999999993227,-1.2662225961666016
1669909270654864691,20.744910367945977,0.20755369151870395,9.736906980344084,-1.0,-5.999999999993227,-1.2662225961666402
1669909270750898847,20.744910367945977,0.20755369151870395,9.736906980344084,-1.0,-4.007764336908729,-1.2662225961666402
1669909270750948880,20.792601711813848,0.20980038838493817,9.737052891262435,-1.0,-4.651027463717995,-1.2662225961666567
1669909270751072920,20.792601711813848,0.20980038838493817,9.737052891262435,-1.0,-4.651027463717995,-1.2662225961666567
1669909270751076764,20.792601711813848,0.20980038838493817,9.737052891262435,-1.0,-5.999999999993228,-1.2662225961666567
1669909270751078802,20.792601711813848,0.20980038838493817,9.737052891262435,-1.0,-5.999999999993228,-1.2662225961666567
1669909270751081235,20.792601711813848,0.20980038838493817,9.737052891262435,-1.0,-5.999999999993228,-1.2662225961666567
1669909270751083021,20.692427183419188,0.2098144774648471,9.727052590867169,-1.0,-5.999999999993228,-1.2662225961666538
1669909270751084786,20.692427183419188,0.2098144774648471,9.727052590867169,-1.0,-5.999999999993228,-1.2662225961666538
1669909270751105131,20.692427183419188,0.2098144774648471,9.727052590867169,-1.0,-5.999999999993228,-1.2662225961666538
1669909270751124440,20.78185585769002,0.2156708361921869,9.726660162781783,-1.0,-5.9999999999932285,-1.266222596166685
1669909270752019658,20.82901364713977,0.21934053408576892,9.726108625296568,-1.0,-3.688670606553486,-1.2662225961667002
1669909270752071826,20.82901364713977,0.21934053408576892,9.726108625296568,-1.0,-3.688670606553486,-1.2662225961667002
1669909270752093502,20.82901364713977,0.21934053408576892,9.726108625296568,-1.0,-5.775808423911551,-1.2662225961667002
1669909270809242184,20.82901364713977,0.21934053408576892,9.726108625296568,-1.0,-5.774336621718654,-1.2662225961667002
1669909270809365768,20.82901364713977,0.21934053408576892,9.726108625296568,-1.0,-5.772686558284215,-1.2662225961667002
1669909270809420534,20.82901364713977,0.21934053408576892,9.726108625296568,-1.0,-5.770937712392508,-1.2662225961667002
1669909270809465021,20.827789796290975,0.2134566519150266,9.72528951613373,-1.0,-5.770937712392508,-1.2662225961667144
1669909270809547097,20.827789796290975,0.2134566519150266,9.72528951613373,-1.0,-4.832882189670898,-1.2662225961667144
1669909270826782398,20.827789796290975,0.2134566519150266,9.72528951613373,-1.0,-4.832882189670898,-1.2662225961667144
1669909270826827109,20.902551125871206,0.21515726345537317,9.723680964730034,-1.0,-4.422714692251916,-1.2662225961667404
1669909270841843441,20.902551125871206,0.21515726345537317,9.723680964730034,-1.0,-4.422714692251916,-1.2662225961667404
1669909270861505232,20.902551125871206,0.21515726345537317,9.723680964730034,-1.0,-5.529038948057918,-1.2662225961667404
1669909270884539957,20.902551125871206,0.21515726345537317,9.723680964730034,-1.0,-5.526060585447125,-1.2662225961667404
1669909270905143386,20.902551125871206,0.21515726345537317,9.723680964730034,-1.0,-5.526060585447125,-1.2662225961667404
1669909270905288430,20.902551125871206,0.21515726345537317,9.723680964730034,-1.0,-5.520154623329281,-1.2662225961667404
1669909270931947637,21.05901181189411,0.25346152517123194,9.732754376391725,-1.0,-4.384217517666895,-1.2662225961667475
1669909271183796642,21.05901181189411,0.25346152517123194,9.732754376391725,-1.0,-4.384217517666895,-1.2662225961667475
1669909271235902343,21.05901181189411,0.25346152517123194,9.732754376391725,-1.0,-5.442980753969497,-1.2662225961667475
1669909271235923443,21.112601126785805,0.25114042346251286,9.731142192501656,-1.0,-3.7030532808612207,-1.2662225961667635
1669909271235943732,21.13056146790664,0.25538010045699133,9.730406666029053,-1.0,-3.703053280861232,-1.2662225961667668
1669909271235962806,21.13056146790664,0.25538010045699133,9.730406666029053,-1.0,-5.024774914317655,-1.2662225961667668
1669909271236164240,21.13056146790664,0.25538010045699133,9.730406666029053,-1.0,-5.024774914317655,-1.2662225961667668
1669909271236186580,21.13056146790664,0.25538010045699133,9.730406666029053,-1.0,-5.290406792131029,-1.2662225961667668
1669909271236203213,21.13056146790664,0.25538010045699133,9.730406666029053,-1.0,-5.286087151807084,-1.2662225961667668
1669909271236219997,21.13056146790664,0.25538010045699133,9.730406666029053,-1.0,-5.280951174630782,-1.2662225961667668
1669909271236237529,21.64430459612426,0.3361196304743853,9.789611948618516,-1.0,-5.280951174630797,-1.2662225961667686
1669909271236254616,21.64430459612426,0.3361196304743853,9.789611948618516,-1.0,-5.028332692898974,-1.2662225961667686
1669909271236271177,21.656619572828163,0.3804273325577699,9.787842760809273,-1.0,-5.028332692899017,-1.266222596166768
1669909271236287300,21.65661954943562,0.38042720121237117,9.787842765870083,-1.0,-5.01652062250573,-1.266222596166768
1669909271236305184,21.654224410824625,0.3994408309758648,9.787313666262117,-1.0,-5.016520622505749,-1.2662225961667652
1669909271255891438,21.654224410824625,0.3994408309758648,9.787313666262117,-1.0,-5.24798167983322,-1.2662225961667652
1669909271255912992,21.654224410824625,0.3994408309758648,9.787313666262117,-1.0,-5.24798167983322,-1.2662225961667652
1669909271268372868,21.654224410824625,0.3994408309758648,9.787313666262117,-1.0,-5.201895267408229,-1.2662225961667652
1669909271283742517,21.654224410824625,0.3994408309758648,9.787313666262117,-1.0,-5.19729673831648,-1.2662225961667652
1669909271303220042,22.00211233654406,0.35382734662957954,9.827252032392403,-1.0,-5.197296738316479,-1.2662225961667637
1669909271323847744,22.00211233654406,0.35382734662957954,9.827252032392403,-1.0,-5.225117234016665,-1.2662225961667637
1669909271341602665,22.00211233654406,0.35382734662957954,9.827252032392403,-1.0,-5.187576885544243,-1.2662225961667637
1669909271366003492,1.9760338772646568,0.41475745022912114,9.825942214257914,-1.0,-5.187576885544288,1.7655761337521919e-12
1669909271409204553,1.9728168693577235,0.41992431930044494,9.825845752125657,-1.0,-5.68025825570567,1.766946889176682e-12
1669909271428820245,1.9614678071723408,0.435611940846422,9.825583344111338,-1.0,-5.680258255705682,1.7714382529842893e-12
1669909271428831288,1.9614678071723408,0.435611940846422,9.825583344111338,-1.0,-5.42010552401659,1.7714382529842893e-12
1669909271451497751,1.9614678071723408,0.435611940846422,9.825583344111338,-1.0,-5.240421631741704,1.7714382529842893e-12
1669909271699633942,1.9614678071723408,0.435611940846422,9.825583344111338,-1.0,-5.240421631741704,1.7714382529842893e-12
1669909271755026492,1.9614678071723408,0.435611940846422,9.825583344111338,-1.0,-5.232345762882404,1.7714382529842893e-12
1669909271755045908,1.9614678071723408,0.435611940846422,9.825583344111338,-1.0,-5.232345762882404,1.7714382529842893e-12
1669909271755064109,2.2560489649982567,0.4827340493448377,9.875219729333597,-1.0,-5.704357533671661,1.7824706934664404e-12
1669909271755082322,2.2560489649982567,0.4827340493448377,9.875219729333597,-1.0,-5.704357533671661,1.7824706934664404e-12
1669909271755102070,2.2035592429640003,0.5151089484465907,9.875202415534886,-1.0,-5.999999999993443,1.8042109359635112e-12
1669909271755140572,2.2035592429640003,0.5151089484465907,9.875202415534886,-1.0,-5.999999999993443,1.8042109359635112e-12
1669909271755143608,2.2035592429640003,0.5151089484465907,9.875202415534886,-1.0,-5.35616403248384,1.8042109359635112e-12
1669909271756009527,2.2035592429640003,0.5151089484465907,9.875202415534886,-1.0,-5.35616403248384,1.8042109359635112e-12
1669909271756028365,2.2035592429640003,0.5151089484465907,9.875202415534886,-1.0,-5.350294976296346,1.8042109359635112e-12
1669909271756058170,2.4136036068636453,0.5849183527386507,9.915211030457693,-1.0,-5.350294976296342,1.8036581805685572e-12
1669909271756076773,2.4136036068636453,0.5849183527386507,9.915211030457693,-1.0,-5.343397403215441,1.8036581805685572e-12
1669909271756095200,2.348867264814679,0.590431440339244,9.916404327077014,-1.0,-5.999999999993457,1.8350383704328835e-12
1669909271778499096,2.348867264814679,0.590431440339244,9.916404327077014,-1.0,-5.999999999993457,1.8350383704328835e-12
1669909271778501628,2.309275789316553,0.5817657471103315,9.917508753489521,-1.0,-5.999999999993465,1.8523860577376232e-12
1669909271778503823,2.309275789316553,0.5817657471103315,9.917508753489521,-1.0,-5.527626853886825,1.8523860577376232e-12
1669909271788324454,2.272729051510735,0.5704898240694004,9.918533878863224,-1.0,-5.527626853886832,1.8678370336836513e-12
1669909271804861360,2.272729051510735,0.5704898240694004,9.918533878863224,-1.0,-5.999999999993472,1.8678370336836513e-12
1669909271823891098,2.272729051510735,0.5704898240694004,9.918533878863224,-1.0,-5.590571897812836,1.8678370336836513e-12
1669909271868640301,2.272729051510735,0.5704898240694004,9.918533878863224,-1.0,-5.589188646160876,1.8678370336836513e-12
1669909271888966570,2.272729051510735,0.5704898240694004,9.918533878863224,-1.0,-5.587612068490875,1.8678370336836513e-12
1669909271888968613,2.272729051510735,0.5704898240694004,9.918533878863224,-1.0,-5.587612068490875,1.8678370336836513e-12
1669909271908748844,1.9961828544763658,0.6281711031730752,9.978716704768427,-1.0,-5.705719283362667,1.8706919735717405e-12
1669909271927309257,1.9961828544763658,0.6281711031730752,9.978716704768427,-1.0,-5.595961535339762,1.8706919735717405e-12
1669909271950427492,1.9961828544763658,0.6281711031730752,9.978716704768427,-1.0,-5.594587887740013,1.8706919735717405e-12
1669909271969617723,1.9285771922163504,0.6006679246400727,9.980463260265536,-0.9924812758610145,-5.999999999993485,1.8983153739600067e-12
1669909271993411696,1.9285771922163504,0.6006679246400727,9.980463260265536,-1.0,-5.717687241370557,1.8983153739600067e-12
1669909272232079707,1.9285771922163504,0.6006679246400727,9.980463260265536,-1.0,-5.717687241370557,1.8983153739600067e-12
1669909272281509013,1.9285771922163504,0.6006679246400727,9.980463260265536,-1.0,-5.716738818065415,1.8983153739600067e-12
1669909272281550443,1.9285771922163504,0.6006679246400727,9.980463260265536,-1.0,-5.716252541469234,1.8983153739600067e-12
1669909272281557645,1.6594335453194333,0.596046999421409,9.971169511876546,-1.0,-5.99999999999349,1.908025242371602e-12
1669909272281599203,1.6594335453194333,0.596046999421409,9.971169511876546,-1.0,-5.99999999999349,1.908025242371602e-12
1669909272281605085,1.6071907744272351,0.5632687042573203,9.972416899826818,-1.0,-5.999999999993497,1.929560573672382e-12
1669909272281621923,1.5814539498229172,0.5423696326611871,9.97306547245605,-1.0,-5.999999999993499,1.9405232124322384e-12
1669909272281638456,1.5814539498229172,0.5423696326611871,9.97306547245605,-1.0,-5.999999999993499,1.9405232124322384e-12
1669909272281655406,1.5765993069937951,0.5380179804226061,9.973190201282765,-1.0,-5.9999999999935,1.9425966646431534e-12
1669909272281699508,1.5765993069937951,0.5380179804226061,9.973190201282765,-1.0,-5.9999999999935,1.9425966646431534e-12
1669909272281703920,1.5765993069937951,0.5380179804226061,9.973190201282765,-1.0,-5.92696191123099,1.9425966646431534e-12
1669909272281706892,1.5765993069937951,0.5380179804226061,9.973190201282765,-1.0,-5.927868726809431,1.9425966646431534e-12
1669909272281747141,1.5765993069937951,0.5380179804226061,9.973190201282765,-1.0,-5.9288344929151,1.9425966646431534e-12
1669909272330546748,1.3269718675211808,0.5787427061884085,9.973707439508784,-1.0,-5.9288344929151,1.9491266849363135e-12
1669909272330567156,1.3269718675211808,0.5787427061884085,9.973707439508784,-1.0,-5.9999999999935,1.9491266849363135e-12
1669909272330587633,1.3269718675211808,0.5787427061884085,9.973707439508784,-1.0,-5.968269117685788,1.9491266849363135e-12
1669909272347631977,1.3269718675211808,0.5787427061884085,9.973707439508784,-1.0,-5.968269117685788,1.9491266849363135e-12
1669909272347647434,1.2925943509433648,0.539534738034929,9.974597214150144,-0.9840708315039917,-5.999999999993504,1.9635066823434357e-12
1669909272357325286,1.2925943509433648,0.539534738034929,9.974597214150144,-1.0,-5.999999999993504,1.9635066823434357e-12
1669909272395104569,1.2925943509433648,0.539534738034929,9.974597214150144,-1.0,-5.999999999993504,1.9635066823434357e-12
1669909272407860377,1.2925943509433648,0.539534738034929,9.974597214150144,-1.0,-5.999999999993504,1.9635066823434357e-12
1669909272421121821,1.2925943509433648,0.539534738034929,9.974597214150144,-1.0,-5.999999999993504,1.9635066823434357e-12
1669909272444085003,1.2925943509433648,0.539534738034929,9.974597214150144,-1.0,-5.999999999993504,1.9635066823434357e-12
1669909272463944490,1.2925943509433648,0.539534738034929,9.974597214150144,-1.0,-5.999999999993504,1.9635066823434357e-12
1669909272476787784,1.105701137705526,0.49935193780111486,9.985356296531414,-0.973790021934799,-5.9999999999935065,1.9713258316190894e-12
1669909272505732405,1.105701137705526,0.49935193780111486,9.985356296531414,-1.0,-5.9999999999935065,1.9713258316190894e-12
1669909272520089197,1.105701137705526,0.49935193780111486,9.985356296531414,-1.0,-5.9999999999935065,1.9713258316190894e-12
1669909272765434366,1.105701137705526,0.49935193780111486,9.985356296531414,-1.0,-5.9999999999935065,1.9713258316190894e-12
1669909272765437101,0.9788244415040794,0.3963150332703591,9.976556318760801,-0.8868906501734461,-5.999999999993513,1.976460960361672e-12
1669909272765439237,0.9788244415040794,0.3963150332703591,9.976556318760801,-0.8868906501734461,-5.999999999993513,1.976460960361672e-12
1669909272765442142,0.9788244415040794,0.3963150332703591,9.976556318760801,-1.0,-5.999999999993513,1.976460960361672e-12
1669909272765444573,0.9759575904805692,0.3623184112580181,9.97708988691206,-0.8794222325806657,-5.999999999993516,1.976407534371893e-12
1669909272765446802,0.9777299469852231,0.3455783046225621,9.977368690773606,-0.9573876051071182,-5.99999999999352,1.97497238929613e-12
1669909272765448986,0.9777299469852231,0.3455783046225621,9.977368690773606,-0.9573876051071182,-5.99999999999352,1.97497238929613e-12
1669909272765451198,0.9777299469852231,0.3455783046225621,9.977368690773606,-1.0,-5.99999999999352,1.97497238929613e-12
1669909272765453048,0.9777299469852231,0.3455783046225621,9.977368690773606,-1.0,-5.99999999999352,1.97497238929613e-12
1669909272765455268,0.9777299469852231,0.3455783046225621,9.977368690773606,-1.0,-5.99999999999352,1.97497238929613e-12
1669909272765457453,0.9777299469852231,0.3455783046225621,9.977368690773606,-1.0,-5.99999999999352,1.97497238929613e-12
1669909272780803176,0.8473373844464456,0.3348420838003162,9.9573722004467,-1.0,-5.99999999999352,1.976182008738239e-12
1669909272780859260,0.8473373844464456,0.3348420838003162,9.9573722004467,-1.0,-5.99999999999352,1.976182008738239e-12
1669909272798114219,0.871920272922913,0.2919997485901031,9.95829467252571,-0.9126310347760392,-5.739201552890058,1.9638137016004156e-12
1669909272820990540,0.871920272922913,0.2919997485901031,9.95829467252571,-0.9126310347760392,-5.739201552890058,1.9638137016004156e-12
1669909272839912581,0.8801408641352708,0.2858516367739172,9.958479460418957,-1.0,-5.999999999993539,1.9594810421711804e-12
1669909272865057585,0.888954994702475,0.2813792299116111,9.958648295414239,-1.0,-5.999999999993545,1.9549384804363127e-12
1669909272877247327,0.8920600386889415,0.280211763828168,9.95870207118925,-1.0,-5.91397412947053,1.953219128019685e-12
1669909272901263432,0.8920600386889415,0.280211763828168,9.95870207118925,-1.0,-5.999999999993546,1.953219128019685e-12
1669909272922082890,0.8920600386889415,0.280211763828168,9.95870207118925,-1.0,-5.999999999993546,1.953219128019685e-12
1669909272949466117,0.8920600386889415,0.280211763828168,9.95870207118925,-1.0,-5.999999999993546,1.953219128019685e-12
1669909272990997591,0.8920600386889415,0.280211763828168,9.95870207118925,-1.0,-5.999999999993546,1.953219128019685e-12
1669909272991003944,0.7648870169008763,0.2372482736919925,9.94876497716167,-1.0,-5.99999999999355,1.9501763171341885e-12
1669909273007216980,0.7648870169008763,0.2372482736919925,9.94876497716167,-1.0,-5.99999999999355,1.9501763171341885e-12
1669909273031264189,0.8055077095968571,0.23706539037706392,9.949241852523393,-1.0,-4.806116777491973,1.930652868268187e-12
1669909273267945587,0.8055077095968571,0.23706539037706392,9.949241852523393,-1.0,-5.999999999993568,1.930652868268187e-12
1669909273286924013,0.8319091083434113,0.24238655046314836,9.949417412257835,-1.0,-5.9999999999935785,1.9181051900425685e-12
1669909273286957878,0.8319091083434113,0.24238655046314836,9.949417412257835,-1.0,-5.529657208218477,1.9181051900425685e-12
1669909273286999322,0.8319091083434113,0.24238655046314836,9.949417412257835,-1.0,-5.529657208218477,1.9181051900425685e-12
1669909273287003113,0.8319091083434113,0.24238655046314836,9.949417412257835,-1.0,-5.99417338696459,1.9181051900425685e-12
1669909273287181940,0.8319091083434113,0.24238655046314836,9.949417412257835,-1.0,-5.9950102474344416,1.9181051900425685e-12
1669909273287241364,0.8319091083434113,0.24238655046314836,9.949417412257835,-1.0,-5.9950102474344416,1.9181051900425685e-12
1669909273287306950,0.8319091083434113,0.24238655046314836,9.949417412257835,-1.0,-5.996764176470166,1.9181051900425685e-12
1669909273287387533,0.7271080530628095,0.173468278702753,9.949442776132864,-1.0,-5.996764176470169,1.914355924077803e-12
1669909273288053676,0.7271080530628095,0.173468278702753,9.949442776132864,-1.0,-5.905430113129824,1.914355924077803e-12
1669909273289301833,0.7883320598203094,0.1928027100361835,9.949460738276914,-1.0,-4.036760975340618,1.8857047806466017e-12
1669909273289310273,0.7883320598203094,0.1928027100361835,9.949460738276914,-1.0,-4.036760975340618,1.8857047806466017e-12
1669909273295603332,0.7883320598203094,0.1928027100361835,9.949460738276914,-1.0,-5.876421435239599,1.8857047806466017e-12
1669909273302878780,0.7883320598203094,0.1928027100361835,9.949460738276914,-1.0,-5.876421435239599,1.8857047806466017e-12
1669909273317055932,0.7883320598203094,0.1928027100361835,9.949460738276914,-1.0,-5.876462417772265,1.8857047806466017e-12
1669909273340527886,0.7883320598203094,0.1928027100361835,9.949460738276914,-1.0,-5.876462417772265,1.8857047806466017e-12
1669909273360825788,0.7195487310529005,0.19859778992612717,9.94939376951479,-1.0,-5.683362075357692,1.8826115420522434e-12
1669909273388486446,0.7195487310529005,0.19859778992612717,9.94939376951479,-1.0,-5.85550143318103,1.8826115420522434e-12
1669909273426401327,0.7824266757007619,0.23270127639299787,9.948694186145413,-1.0,-5.855501433181051,1.859024550164534e-12
1669909273445658101,20.810820782971014,0.24904711200375018,9.948191992362174,-1.0,-4.186496715151892,-1.266222596166668
1669909273445795487,20.810820782971014,0.24904711200375018,9.948191992362174,-1.0,-5.684491700626291,-1.266222596166668
1669909273464083465,20.810820782971014,0.24904711200375018,11.060125879367027,-1.0,-5.684491700626291,-1.266222596166668
1669909273476287214,20.810820782971014,0.24904711200375018,11.060125879367027,-1.0,-5.682032965726842,-1.266222596166668
1669909273499525476,20.810820782971014,0.24904711200375018,11.060125879367027,-1.0,-5.682032965726842,-1.266222596166668
1669909273522201674,20.810820782971014,0.24904711200375018,14.721061936934623,-1.0,-5.679563693093198,-1.266222596166668
1669909273546179107,20.748709372190973,0.24033443547990418,14.730672262732092,-1.0,-5.194343461738876,-1.2662225961666775
1669909273563536565,20.748709372190973,0.685358545856739,16.56178297859818,-1.0,-5.194343461738876,-0.46747290529126645
1669909273807174203,20.748709372190973,0.685358545856739,16.56178297859818,-1.0,-5.6421531730978,-0.46747290529126645
1669909273833678796,20.78754808854427,0.711480644825283,16.560747485628603,-1.0,-5.642153173097814,-0.4674729052912793
1669909273833840576,20.79440167508421,1.380494871820452,18.391034677152128,-1.0,-4.794110855921356,-0.46747290529128116
1669909273833854003,20.802377016853963,1.3835123786265873,18.390835773411766,-1.0,-5.3158906348834645,-0.4674729052912832
1669909273833953010,20.802377016853963,1.3835123786265873,18.390835773411766,-1.0,-5.3158906348834645,-0.4674729052912832
1669909273833975541,20.802377016853963,1.3835123786265873,18.390835773411766,-1.0,-5.533617665779227,-0.4674729052912832
1669909273834061484,20.802377016853963,1.3835123786265873,18.390835773411766,-1.0,-5.5308442818398635,-0.4674729052912832
1669909273834118966,20.802377016853963,1.3835123786265873,18.390835773411766,-1.0,-5.5308442818398635,-0.4674729052912832
1669909273834175417,20.802377016853963,1.3835123786265873,18.390835773411766,-1.0,-5.527224276528578,-0.4674729052912832
1669909273834246974,20.796353170786666,1.4090696256883506,18.420462188423777,-1.0,-5.074895067957012,-0.46747290529128593
1669909273834252148,20.796353170786666,1.4090696256883506,18.420462188423777,-1.0,-5.074895067957012,-0.46747290529128593
1669909273834254323,20.82065162313498,1.4190013511692503,18.419754172444037,-1.0,-5.069217700476927,-0.46747290529129704
1669909273834361750,20.82065162313498,1.4190013511692503,18.419754172444037,-1.0,-5.069217700476927,-0.46747290529129704
1669909273842747963,20.82065162313498,1.4190013511692503,18.419754172444037,-1.0,-5.444512446570816,-0.46747290529129704
1669909273855760086,20.82065162313498,2.25103234784951,19.584597016453436,-1.0,-5.444512446570816,-0.3676291834544917
1669909273881338335,20.82065162313498,2.25103234784951,19.584597016453436,-1.0,-5.439259452181023,-0.3676291834544917
1669909273904206635,20.82065162313498,2.25103234784951,19.584597016453436,-1.0,-5.439259452181023,-0.3676291834544917
1669909273915099012,20.79739963010998,2.2546461839425875,16.29578799706081,-1.0,-5.145451672531999,-0.16794175375072998
1669909273941947125,20.79739963010998,2.2546461839425875,16.29578799706081,-1.0,-5.145451672531999,-0.16794175375072998
1669909273956325929,20.830659209004935,0.3568118557289651,10.468937560543008,-1.0,-4.83787578612744,1.7753098118167344e-12
1669909273984721532,20.830659209004935,0.3568118557289651,10.468937560543008,-1.0,-5.331936598199921,1.7753098118167344e-12
1669909274002926743,20.85857836170363,0.40710054286781566,10.466606069506035,-1.0,-5.33193659819995,1.7559889112837331e-12
1669909274028469827,20.85857836170363,0.40710054286781566,10.020296957493649,-1.0,-4.875274421300486,1.7559889112837331e-12
1669909274045588074,20.85857836170363,0.40710054286781566,10.020296957493649,-1.0,-4.875274421300486,1.7559889112837331e-12
1669909274063257036,20.85857836170363,0.40710054286781566,10.020296957493649,-1.0,-5.2669541965191335,1.7559889112837331e-12
1669909274351170720,20.85857836170363,0.40710054286781566,10.020296957493649,-1.0,-5.2632495168940965,1.7559889112837331e-12
1669909274351212562,20.85857836170363,0.40710054286781566,10.020296957493649,-1.0,-5.2632495168940965,1.7559889112837331e-12
1669909274351215742,20.973288836661165,0.3557396248598469,10.088852949384254,-1.0,-4.992320801674251,1.7467102115838775e-12
1669909274351259029,20.973288836661165,0.3557396248598469,10.088852949384254,-1.0,-5.225315173476525,1.7467102115838775e-12
1669909274351263925,21.025065795408395,0.4609672513463391,10.082726484720217,-1.0,-3.619765658786331,1.714820150989062e-12
1669909274351287720,21.025065795408395,0.4609672513463391,10.082726484720217,-1.0,-3.619765658786331,1.714820150989062e-12
1669909274351357421,21.066615987924717,0.5552874543866685,10.076235572979186,-1.0,-4.415629123002347,1.6979701563406005e-12
1669909274352265828,21.066615987924717,0.5552874543866685,10.076235572979186,-1.0,-4.415629123002347,1.6979701563406005e-12
1669909274352277997,21.066615987924717,0.5552874543866685,10.076235572979186,-1.0,-5.030415662073839,1.6979701563406005e-12
1669909274352281768,21.066615987924717,0.5552874543866685,10.076235572979186,-1.0,-5.030415662073839,1.6979701563406005e-12
1669909274352285607,21.066615987924717,0.5552874543866685,10.076235572979186,-1.0,-5.020732811711832,1.6979701563406005e-12
1669909274352288721,21.066615987924717,0.5552874543866685,10.076235572979186,-1.0,-5.015706258752953,1.6979701563406005e-12
1669909274421981172,21.066615987924717,0.5552874543866685,10.076235572979186,-1.0,-5.015706258752953,1.6979701563406005e-12
1669909274421987180,21.527829059986335,0.472032669480513,10.15421251100496,-1.0,-4.809709378422303,1.6952622099627839e-12
1669909274421990151,21.527829059986335,0.472032669480513,10.15421251100496,-1.0,-4.809709378422303,1.6952622099627839e-12
1669909274441556041,21.55716734218704,0.5490149441053329,10.148061387692852,-1.0,-4.4962697001536736,1.6954133016741708e-12
1669909274441577423,21.55716734218704,0.5490149441053329,10.148061387692852,-1.0,-4.4962697001536736,1.6954133016741708e-12
1669909274447533165,21.55716734218704,0.5490149441053329,10.148061387692852,-1.0,-4.909974311341437,1.6954133016741708e-12
1669909274456736060,21.55716734218704,0.5490149441053329,10.148061387692852,-1.0,-4.909974311341437,1.6954133016741708e-12
1669909274507893629,21.55716734218704,0.5490149441053329,10.148061387692852,-1.0,-4.8977392122224765,1.6954133016741708e-12
1669909274548287236,21.55716734218704,0.5490149441053329,10.148061387692852,-1.0,-4.891513948851785,1.6954133016741708e-12
1669909274548392332,21.994791884719664,0.6510851033820743,10.157351100221073,-1.0,-4.8915139488517845,1.7043391089395068e-12
1669909274548597115,21.994791884719664,0.6510851033820743,10.157351100221073,-1.0,-4.933912500326979,1.7043391089395068e-12
1669909274556396329,21.97804371484967,0.6549512155546428,10.15781550176171,-1.0,-5.370269470584768,1.7196003232840773e-12
1669909274556540062,21.97804371484967,0.6549512155546428,10.15781550176171,-1.0,-5.370269470584768,1.7196003232840773e-12
1669909274579805682,21.97804371484967,0.6549512155546428,10.15781550176171,-1.0,-4.9027204632643535,1.7196003232840773e-12
1669909274598341478,21.97804371484967,0.6549512155546428,10.15781550176171,-1.0,-4.9027204632643535,1.7196003232840773e-12
1669909274842977045,21.97804371484967,0.6549512155546428,10.15781550176171,-1.0,-4.892566647542086,1.7196003232840773e-12
1669909274861128586,21.97804371484967,0.6549512155546428,10.15781550176171,-1.0,-4.892566647542086,1.7196003232840773e-12
1669909274861306816,22.251267279771493,0.6027634321334667,10.158258015023012,-1.0,-5.001401575317459,1.72640187638614e-12
1669909274861360629,22.251267279771493,0.6027634321334667,10.158258015023012,-1.0,-5.001401575317459,1.72640187638614e-12
1669909274861483677,22.2053645643808,0.582280027345188,10.161468300558067,-1.0,-5.677275206954411,1.7548354058454323e-12
1669909274861535961,22.2053645643808,0.582280027345188,10.161468300558067,-1.0,-4.966072327731677,1.7548354058454323e-12
1669909274861728013,22.170484036367217,0.563943526307363,10.163914326835972,-1.0,-4.966072327731672,1.7740613897859205e-12
1669909274861812400,22.170484036367217,0.563943526307363,10.163914326835972,-1.0,-5.558021781925567,1.7740613897859205e-12
1669909274861822202,22.170484036367217,0.563943526307363,10.163914326835972,-1.0,-5.017970271640802,1.7740613897859205e-12
1669909274861974346,22.170484036367217,0.563943526307363,10.163914326835972,-1.0,-5.010829989052988,1.7740613897859205e-12
1669909274862047455,22.170484036367217,0.563943526307363,10.163914326835972,-1.0,-5.010829989052988,1.7740613897859205e-12
1669909274862056303,22.170484036367217,0.563943526307363,10.163914326835972,-1.0,-5.005661652294287,1.7740613897859205e-12
1669909274867508567,22.444775191606144,0.5898278111024737,10.17565117643464,-1.0,-5.005661652294284,1.7853895717795981e-12
1669909274879611261,22.38608123237059,0.5614951620129727,10.17905636503307,-1.0,-5.999999999993853,1.8123744161552186e-12
1669909274897536035,22.38608123237059,0.5614951620129727,10.17905636503307,-1.0,-5.999999999993853,1.8123744161552186e-12
1669909274919768053,22.363732768055016,0.5529623477281018,10.180104542599247,-1.0,-5.524535520198529,1.821732475284405e-12
1669909274936452379,22.363732768055016,0.5529623477281018,10.180104542599247,-1.0,-5.524535520198529,1.821732475284405e-12
1669909274957664071,22.363732768055016,0.5529623477281018,10.180104542599247,-1.0,-5.184788297916397,1.821732475284405e-12
1669909274979798095,22.363732768055016,0.5529623477281018,10.180104542599247,-1.0,-5.184788297916397,1.821732475284405e-12
1669909274999707289,22.363732768055016,0.5529623477281018,10.180104542599247,-1.0,-5.17931211582298,1.821732475284405e-12
1669909275021313319,2.3637327680550175,0.5529623477281018,10.180104542599247,-1.0,-5.17931211582298,1.821732475284405e-12
1669909275038914685,2.3637327680550175,0.5529623477281018,10.180104542599247,-1.0,-5.173783189547798,1.821732475284405e-12
1669909275061887578,2.54244516624396,0.5030001181499957,10.171360191965535,-1.0,-5.173783189547797,1.833931031460864e-12
1669909275083516317,2.54244516624396,0.5030001181499957,10.171360191965535,-1.0,-5.69669086147039,1.833931031460864e-12
1669909275099556878,2.4427109972026417,0.4876191909758082,10.173700329971867,-1.0,-5.696690861470392,1.874558656843437e-12
1669909275120409983,2.4122954083900727,0.4869937175925718,10.173976647910171,-1.0,-5.999999999993855,1.8862105967611725e-12
1669909275233191257,2.4122954083900727,0.4869937175925718,10.173976647910171,-1.0,-5.462925113460309,1.8862105967611725e-12
1669909275247591774,2.4122954083900727,0.4869937175925718,10.173976647910171,-1.0,-5.462925113460309,1.8862105967611725e-12
1669909275247646714,2.4122954083900727,0.4869937175925718,10.173976647910171,-1.0,-5.46144247275204,1.8862105967611725e-12
1669909275247689968,2.4122954083900727,0.4869937175925718,10.173976647910171,-1.0,-5.46144247275204,1.8862105967611725e-12
1669909275248313024,2.610565067963606,0.3671148409803364,10.17398144083785,-1.0,-5.4893302361997955,1.8854591402340583e-12
1669909275248320869,2.610565067963606,0.3671148409803364,10.17398144083785,-1.0,-5.462321612246424,1.8854591402340583e-12
1669909275264022031,2.528224786235163,0.3760873876131332,10.173630420592255,-1.0,-5.462321612246427,1.9151758739445684e-12
1669909275286446745,2.528224786235163,0.3760873876131332,10.173630420592255,-1.0,-5.999999999993857,1.9151758739445684e-12
1669909275300364273,2.489438258543456,0.38216085896476415,10.173114631957423,-1.0,-5.999999999993857,1.9304569984008665e-12
1669909275330788511,2.4734859620584064,0.38427067370530665,10.172879576855877,-1.0,-5.9999999999938565,1.9369595604109295e-12
1669909275347563437,2.4734859620584064,0.38427067370530665,10.172879576855877,-1.0,-5.9999999999938565,1.9369595604109295e-12
1669909275366372049,2.4734859620584064,0.38427067370530665,10.172879576855877,-1.0,-5.717896912978647,1.9369595604109295e-12
1669909275408057462,2.4734859620584064,0.38427067370530665,10.172879576855877,-1.0,-5.7188897852747225,1.9369595604109295e-12
1669909275422901823,2.4734859620584064,0.38427067370530665,10.172879576855877,-1.0,-5.7188897852747225,1.9369595604109295e-12
1669909275422905684,2.4734859620584064,0.38427067370530665,10.172879576855877,-1.0,-5.720698799900753,1.9369595604109295e-12
1669909275436457087,2.4734859620584064,0.38427067370530665,10.172879576855877,-1.0,-5.721644035860198,1.9369595604109295e-12
1669909275458499095,2.5231822928921277,0.26523449590571074,10.1727362983833,-1.0,-5.721644035860198,1.9385843580602653e-12
1669909275478922818,2.5231822928921277,0.26523449590571074,10.1727362983833,-1.0,-5.901790499777152,1.9385843580602653e-12
1669909275496242895,2.5231822928921277,0.26523449590571074,10.1727362983833,-1.0,-5.743797588642774,1.9385843580602653e-12
1669909275518967586,2.4143946351833145,0.2725688151541086,10.170733900071863,-1.0,-5.999999999993856,1.9780985726633854e-12
1669909275537331316,2.4143946351833145,0.2725688151541086,10.170733900071863,-1.0,-5.948242883107617,1.9780985726633854e-12
1669909275563044427,2.4143946351833145,0.2725688151541086,10.170733900071863,-1.0,-5.950882286961258,1.9780985726633854e-12
1669909275578721867,2.4143946351833145,0.2725688151541086,10.170733900071863,-1.0,-5.950882286961258,1.9780985726633854e-12
1669909275597009911,2.4143946351833145,0.2725688151541086,10.170733900071863,-1.0,-5.95540207704776,1.9780985726633854e-12
1669909275617873004,2.4143946351833145,0.2725688151541086,10.170733900071863,-1.0,-5.9577980797104315,1.9780985726633854e-12
1669909275635326992,1.9385656824454207,0.29469973164700924,10.208781177985198,-1.0,-5.957798079710431,2.009504789537365e-12
1669909276093509021,1.8861986129874266,0.2924155434655128,10.207324426536513,-1.0,-5.999999999993854,2.028687679175885e-12
1669909276142240252,1.8861986129874266,0.2924155434655128,10.207324426536513,-1.0,-5.999999999993854,2.028687679175885e-12
1669909276142314887,1.8861986129874266,0.2924155434655128,10.207324426536513,-1.0,-5.999999999993854,2.028687679175885e-12
1669909276142361111,1.8861986129874266,0.2924155434655128,10.207324426536513,-1.0,-5.999999999993854,2.028687679175885e-12
1669909276142381681,1.8861986129874266,0.2924155434655128,10.207324426536513,-1.0,-5.999999999993854,2.028687679175885e-12
1669909276142462821,1.8861986129874266,0.2924155434655128,10.207324426536513,-1.0,-5.999999999993854,2.028687679175885e-12
1669909276142487354,1.5786674800988159,0.3691175569435129,10.186587016507103,-1.0,-5.999999999993852,2.0365372431547563e-12
1669909276142504862,1.5786674800988159,0.3691175569435129,10.186587016507103,-1.0,-5.999999999993852,2.0365372431547563e-12
1669909276142522961,1.5786674800988159,0.3691175569435129,10.186587016507103,-1.0,-5.999999999993852,2.0365372431547563e-12
1669909276142604460,1.5077456787012697,0.3510846888084682,10.184834211563036,-1.0,-5.999999999993848,2.0609178045203942e-12
1669909276142625674,1.5077456787012697,0.3510846888084682,10.184834211563036,-1.0,-5.999999999993848,2.0609178045203942e-12
1669909276142643339,1.5077456787012697,0.3510846888084682,10.184834211563036,-1.0,-5.999999999993848,2.0609178045203942e-12
1669909276148089579,1.5077456787012697,0.3510846888084682,10.184834211563036,-1.0,-5.999999999993848,2.0609178045203942e-12
1669909276148110597,1.5077456787012697,0.3510846888084682,10.184834211563036,-1.0,-5.999999999993848,2.0609178045203942e-12
1669909276148113237,1.5077456787012697,0.3510846888084682,10.184834211563036,-1.0,-5.999999999993848,2.0609178045203942e-12
1669909276148115663,1.2725571008648529,0.3692447083765168,10.154388028766528,-1.0,-5.999999999993846,2.0666533579931907e-12
1669909276148117662,1.2725571008648529,0.3692447083765168,10.154388028766528,-1.0,-5.999999999993846,2.0666533579931907e-12
1669909276148120011,1.2333083019755011,0.3394595346474886,10.154141018365191,-1.0,-5.9999999999938405,2.0784175244305614e-12
1669909276148122081,1.2307494190064407,0.3365660390476656,10.154166585957395,-1.0,-5.9999999999938405,2.0792225716455055e-12
1669909276148124190,1.2307494190064407,0.3365660390476656,10.154166585957395,-1.0,-5.9999999999938405,2.0792225716455055e-12
1669909276148126169,1.2307494190064407,0.3365660390476656,10.154166585957395,-1.0,-5.9999999999938405,2.0792225716455055e-12
1669909276148129552,1.2307494190064407,0.3365660390476656,10.154166585957395,-1.0,-5.9999999999938405,2.0792225716455055e-12
1669909276148131467,1.2307494190064407,0.3365660390476656,10.154166585957395,-1.0,-5.9999999999938405,2.0792225716455055e-12
1669909276148133498,1.2307494190064407,0.3365660390476656,10.154166585957395,-1.0,-5.9999999999938405,2.0792225716455055e-12
1669909276148135722,1.020694009893283,0.3519121876623586,10.134420121104693,-1.0,-5.999999999993838,2.0816336402970926e-12
1669909276166840646,1.020694009893283,0.3519121876623586,10.134420121104693,-1.0,-5.999999999993838,2.0816336402970926e-12
1669909276181119704,1.020694009893283,0.3519121876623586,10.134420121104693,-1.0,-5.999999999993838,2.0816336402970926e-12
1669909276620008167,1.0088611440933812,0.31580788836222196,10.135594473013617,-1.0,-5.999999999993833,2.0849711390944876e-12
1669909276646826598,1.0076134898938407,0.30060779372750585,10.136240939605116,-1.0,-5.999999999993832,2.0852385431597984e-12
1669909276646862302,1.0076134898938407,0.30060779372750585,10.136240939605116,-1.0,-5.999999999993832,2.0852385431597984e-12
1669909276646906646,1.0076134898938407,0.30060779372750585,10.136240939605116,-1.0,-5.999999999993832,2.0852385431597984e-12
1669909276646909821,1.0076134898938407,0.30060779372750585,10.136240939605116,-1.0,-5.999999999993832,2.0852385431597984e-12
1669909276646911632,1.0076134898938407,0.30060779372750585,10.136240939605116,-1.0,-5.999999999993832,2.0852385431597984e-12
1669909276646959203,1.0076134898938407,0.30060779372750585,10.136240939605116,-1.0,-5.999999999993832,2.0852385431597984e-12
1669909276646966720,0.8577421818471906,0.3168171493038551,10.106421152848968,-1.0,-5.999999999993832,2.084232535314201e-12
1669909276646984081,0.8577421818471906,0.3168171493038551,10.106421152848968,-1.0,-5.999999999993832,2.084232535314201e-12
1669909276647000920,0.8638703842503784,0.2781946395443119,10.10842696240912,-1.0,-5.999999999993826,2.081824951919534e-12
1669909276647017566,0.8638703842503784,0.2781946395443119,10.10842696240912,-1.0,-5.999999999993826,2.081824951919534e-12
1669909276647034195,0.8722142647520208,0.2552906990560311,10.109783082357854,-1.0,-5.999999999993824,2.078505014923828e-12
1669909276647050179,0.8722142647520208,0.2552906990560311,10.109783082357854,-1.0,-5.999999999993824,2.078505014923828e-12
1669909276647066384,0.8722142647520208,0.2552906990560311,10.109783082357854,-1.0,-5.999999999993824,2.078505014923828e-12
1669909276647104952,0.8722142647520208,0.2552906990560311,10.109783082357854,-1.0,-5.999999999993824,2.078505014923828e-12
1669909276647110521,0.8722142647520208,0.2552906990560311,10.109783082357854,-1.0,-5.999999999993824,2.078505014923828e-12
1669909276650981551,0.7326693071711743,0.2844933986596906,10.089838071822504,-1.0,-5.9999999999938245,2.077930445148576e-12
1669909276651025999,0.7326693071711743,0.2844933986596906,10.089838071822504,-1.0,-5.9999999999938245,2.077930445148576e-12
1669909276651532456,0.7326693071711743,0.2844933986596906,10.089838071822504,-1.0,-5.9999999999938245,2.077930445148576e-12
1669909276651596025,0.7326693071711743,0.2844933986596906,10.089838071822504,-1.0,-5.9999999999938245,2.077930445148576e-12
1669909276651599031,0.7326693071711743,0.2844933986596906,10.089838071822504,-1.0,-5.9999999999938245,2.077930445148576e-12
1669909276651640977,0.7699165269192334,0.22644884516598895,10.093766243950098,-1.0,-5.999999999993817,2.0644413647590965e-12
1669909276651643957,0.7699165269192334,0.22644884516598895,10.093766243950098,-0.9497886407402729,-5.999999999993817,2.0644413647590965e-12
1669909276660813144,0.7699165269192334,0.22644884516598895,10.093766243950098,-1.0,-5.999999999993817,2.0644413647590965e-12
1669909276683494756,0.7699165269192334,0.22644884516598895,10.093766243950098,-1.0,-5.999999999993817,2.0644413647590965e-12
1669909276695521889,0.7699165269192334,0.22644884516598895,10.093766243950098,-1.0,-5.999999999993817,2.0644413647590965e-12
1669909277141729551,0.6834261862695874,0.2015796424452559,10.064876451578247,-1.0,-5.9999999999938165,2.0592112368241534e-12
1669909277203304368,0.6834261862695874,0.2015796424452559,10.064876451578247,-1.0,-5.9999999999938165,2.0592112368241534e-12
1669909277203649040,0.6834261862695874,0.2015796424452559,10.064876451578247,-1.0,-5.9999999999938165,2.0592112368241534e-12
1669909277203753021,0.6834261862695874,0.2015796424452559,10.064876451578247,-1.0,-5.9999999999938165,2.0592112368241534e-12
1669909277203765463,0.7305078711560304,0.16221508628822906,10.06808246713608,-0.982627898313818,-5.937909613538734,2.0411182217182884e-12
1669909277203772433,0.7305078711560304,0.16221508628822906,10.06808246713608,-0.982627898313818,-5.937909613538734,2.0411182217182884e-12
1669909277203776558,0.7305078711560304,0.16221508628822906,10.06808246713608,-1.0,-5.999999999993813,2.0411182217182884e-12
1669909277203909504,0.7305078711560304,0.16221508628822906,10.06808246713608,-1.0,-5.999999999993813,2.0411182217182884e-12
1669909277204076479,0.7305078711560304,0.16221508628822906,10.06808246713608,-1.0,-5.999999999993813,2.0411182217182884e-12
1669909277204081912,0.7305078711560304,0.16221508628822906,10.06808246713608,-1.0,-5.999999999993813,2.0411182217182884e-12
1669909277204084069,0.6545071955649894,0.15714229294275417,10.03943755561193,-1.0,-5.999999999993813,2.0319203665159573e-12
1669909277204159169,0.6545071955649894,0.15714229294275417,10.03943755561193,-1.0,-5.999999999993813,2.0319203665159573e-12
1669909277204201814,0.6545071955649894,0.15714229294275417,10.03943755561193,-1.0,-5.999999999993813,2.0319203665159573e-12
1669909277204243210,0.716293187576954,0.12967097312388798,10.04229221534339,-1.0,-5.999999999993813,2.010010710595192e-12
1669909277206185255,0.7352124081362336,0.1238421169573508,10.043014249859235,-0.9754391985468165,-5.161020849012388,2.0029931442227177e-12
1669909277206210224,0.7352124081362336,0.1238421169573508,10.043014249859235,-0.9754391985468165,-5.161020849012388,2.0029931442227177e-12
1669909277206213952,0.7352124081362336,0.1238421169573508,10.043014249859235,-1.0,-5.999999999993813,2.0029931442227177e-12
1669909277206216794,0.7352124081362336,0.1238421169573508,10.043014249859235,-1.0,-5.999999999993813,2.0029931442227177e-12
1669909277209934026,0.7352124081362336,0.1238421169573508,10.043014249859235,-1.0,-5.999999999993813,2.0029931442227177e-12
1669909277210347743,0.7352124081362336,0.1238421169573508,10.043014249859235,-1.0,-5.999999999993813,2.0029931442227177e-12
1669909277210361138,0.6794763380278735,0.10522380795167034,10.024177705080229,-1.0,-5.848334159008821,1.987058588935654e-12
1669909277210365102,0.6794763380278735,0.10522380795167034,10.024177705080229,-1.0,-5.999999999993815,1.987058588935654e-12
1669909277211106725,0.6794763380278735,0.10522380795167034,10.024177705080229,-1.0,-5.999999999993815,1.987058588935654e-12
1669909277211156805,0.7454565658277392,0.09850040132798589,10.02585411113263,-1.0,-5.35680534803502,1.959880805415374e-12
1669909277211249997,0.7454565658277392,0.09850040132798589,10.02585411113263,-1.0,-5.35680534803502,1.959880805415374e-12
1669909277237740865,0.7454565658277392,0.09850040132798589,10.02585411113263,-1.0,-5.999999999993818,1.959880805415374e-12
1669909277747304548,0.7454565658277392,0.09850040132798589,10.02585411113263,-1.0,-5.999999999993818,1.959880805415374e-12
1669909277747343796,0.7454565658277392,0.09850040132798589,10.02585411113263,-1.0,-5.999999999993818,1.959880805415374e-12
1669909277747346943,0.7454565658277392,0.09850040132798589,10.02585411113263,-1.0,-5.999999999993818,1.959880805415374e-12
1669909277747777169,0.6965243303626942,0.07804974481761498,10.016592482515017,-1.0,-5.655300144566791,1.9454132721075507e-12
1669909277747783493,0.6965243303626942,0.07804974481761498,10.016592482515017,-1.0,-5.655300144566791,1.9454132721075507e-12
1669909277747785631,0.6965243303626942,0.07804974481761498,10.016592482515017,-1.0,-5.999999999993821,1.9454132721075507e-12
1669909277747842100,0.6965243303626942,0.07804974481761498,10.016592482515017,-1.0,-5.999999999993821,1.9454132721075507e-12
1669909277747845514,0.6965243303626942,0.07804974481761498,10.016592482515017,-1.0,-5.999999999993821,1.9454132721075507e-12
1669909277747847957,0.6752416466224009,0.07255255287343065,10.017330626576548,-1.0,-5.187813083139235,1.919171023651936e-12
1669909277748868355,0.6752416466224009,0.07255255287343065,10.017330626576548,-1.0,-5.187813083139235,1.919171023651936e-12
1669909277748890485,0.6752416466224009,0.07255255287343065,10.017330626576548,-1.0,-5.999999999993826,1.919171023651936e-12
1669909277748978171,0.7426287303489137,0.08062160850127276,10.017503303052344,-1.0,-5.99999999999383,1.8938052224527123e-12
1669909277749005828,0.7426287303489137,0.08062160850127276,10.017503303052344,-1.0,-4.98671360639666,1.8938052224527123e-12
1669909277749323956,0.8030446077716052,0.08933080654504869,10.017224446342079,-1.0,-4.2009490321036145,1.8703660318740785e-12
1669909277749331029,0.8030446077716052,0.08933080654504869,10.017224446342079,-1.0,-4.2009490321036145,1.8703660318740785e-12
1669909277749333074,0.8030446077716052,0.08933080654504869,10.017224446342079,-1.0,-5.9193670383836645,1.8703660318740785e-12
1669909277749335032,0.8030446077716052,0.08933080654504869,10.017224446342079,-1.0,-5.9193670383836645,1.8703660318740785e-12
1669909277796927810,0.8030446077716052,0.08933080654504869,10.017224446342079,-1.0,-5.918402706691628,1.8703660318740785e-12
1669909277796930361,0.8030446077716052,0.08933080654504869,10.017224446342079,-1.0,-5.91787236639336,1.8703660318740785e-12
1669909277796932281,0.7527718226560745,0.10081684000895177,10.02714207554462,-1.0,-5.6177830833788,1.866006809717098e-12
1669909277796934326,0.7527718226560745,0.10081684000895177,10.02714207554462,-1.0,-5.6177830833788,1.866006809717098e-12
1669909277797263429,0.8343250121471043,0.11548876140339381,10.026007809750352,-1.0,-4.706859028387276,1.8349510448760537e-12
1669909277797284363,0.8343250121471043,0.11548876140339381,10.026007809750352,-1.0,-4.706859028387276,1.8349510448760537e-12
1669909277797287057,0.8750271797635034,0.12496795829025253,10.025123864643144,-1.0,-4.855082527623935,1.8217065896440788e-12
1669909277797289423,0.8750271797635034,0.12496795829025253,10.025123864643144,-1.0,-5.665609729446095,1.8217065896440788e-12
1669909277797291750,0.8750271797635034,0.12496795829025253,10.025123864643144,-1.0,-5.663367453292445,1.8217065896440788e-12
1669909278190843876,0.8750271797635034,0.12496795829025253,10.025123864643144,-1.0,-5.663367453292445,1.8217065896440788e-12
1669909278223689361,0.8750271797635034,0.12496795829025253,10.025123864643144,-1.0,-5.659206672659998,1.8217065896440788e-12
1669909278223707323,0.8750271797635034,0.12496795829025253,10.025123864643144,-1.0,-5.656422542435849,1.8217065896440788e-12
1669909278223749468,0.7962572648388404,0.13516737916870974,10.025096708688306,-1.0,-5.656422542435849,1.820349537059035e-12
1669909278223753525,0.7962572648388404,0.13516737916870974,10.025096708688306,-1.0,-5.628476695383933,1.820349537059035e-12
1669909278223772925,0.8574919250047492,0.14915214067824972,10.02343071286343,-1.0,-3.6729984888447174,1.8016697549851427e-12
1669909278223790027,0.8574919250047492,0.14915214067824972,10.02343071286343,-1.0,-5.532190999866442,1.8016697549851427e-12
1669909278223815445,0.8574919250047492,0.14915214067824972,10.02343071286343,-1.0,-5.532190999866442,1.8016697549851427e-12
1669909278223817960,0.8574919250047492,0.14915214067824972,10.02343071286343,-1.0,-5.526467485110057,1.8016697549851427e-12
1669909278223838836,0.8574919250047492,0.14915214067824972,10.02343071286343,-1.0,-5.526467485110057,1.8016697549851427e-12
1669909278223855247,0.8574919250047492,0.14915214067824972,10.02343071286343,-1.0,-5.520699528745848,1.8016697549851427e-12
1669909278223871296,0.8392985354948569,0.15274226251768364,10.05277887707522,-1.0,-5.520699528745849,1.7952196394280848e-12
1669909278223887310,0.8392985354948569,0.15274226251768364,10.05277887707522,-1.0,-5.155796436948638,1.7952196394280848e-12
1669909278223903223,0.8392985354948569,0.15274226251768364,10.05277887707522,-1.0,-5.155796436948638,1.7952196394280848e-12
1669909278223941328,0.8875822939918002,0.15461159504887667,10.051330493223801,-1.0,-4.672204266869577,1.7823029318885881e-12
1669909278223944716,0.8875822939918002,0.15461159504887667,10.051330493223801,-1.0,-4.672204266869577,1.7823029318885881e-12
1669909278223962221,0.8875822939918002,0.15461159504887667,10.051330493223801,-1.0,-5.370679339285348,1.7823029318885881e-12
1669909278223977976,0.8875822939918002,0.15461159504887667,10.051330493223801,-1.0,-5.366908947789689,1.7823029318885881e-12
1669909278224017351,0.8875822939918002,0.15461159504887667,10.051330493223801,-1.0,-5.363101225130018,1.7823029318885881e-12
1669909278224019370,0.8778415873563525,0.19398512657628042,10.091020650571137,-1.0,-5.363101225130018,1.781178370829237e-12
1669909278224021310,0.8778415873563525,0.19398512657628042,10.091020650571137,-1.0,-5.178366222458451,1.781178370829237e-12
1669909278225466630,0.9042641604595691,0.1926214611184072,10.090166154505997,-1.0,-4.483753827828734,1.7764464186730293e-12
1669909278237724982,0.9042641604595691,0.1926214611184072,10.090166154505997,-1.0,-4.483753827828734,1.7764464186730293e-12
1669909278237742381,0.9042641604595691,0.1926214611184072,10.090166154505997,-1.0,-5.27487637847439,1.7764464186730293e-12
1669909278249036668,0.9042641604595691,0.1926214611184072,10.090166154505997,-1.0,-5.27487637847439,1.7764464186730293e-12
1669909278262804299,20.90426416045957,0.1926214611184072,10.090166154505997,-1.0,-5.266126300605968,0.6663893535750988
1669909278282457283,20.87586756988411,0.18242399953238164,10.110115212471175,-1.0,-5.266126300605968,0.6663893535750998
1669909278714006460,20.87586756988411,0.18242399953238164,10.110115212471175,-1.0,-5.228317615702749,0.6663893535750998
1669909278744368985,20.886022873752204,0.18152622224157605,10.109776457054668,-1.0,-5.228317615702751,0.6663893535751031
1669909278744386671,20.886022873752204,0.18152622224157605,10.109776457054668,-1.0,-5.0722550537448114,0.6663893535751031
1669909278744403851,20.88564248882782,0.18157837134407107,10.109788823727445,-1.0,-5.0722550537448114,0.666389353575105
1669909278744420310,20.882650266224353,0.1819055909058464,10.109887882696428,-1.0,-5.277339266044471,0.6663893535751092
1669909278744436746,20.882650266224353,0.1819055909058464,10.109887882696428,-1.0,-5.221475545163338,0.6663893535751092
1669909278744452731,20.882650266224353,0.1819055909058464,10.109887882696428,-1.0,-5.221475545163338,0.6663893535751092
1669909278744468741,20.882650266224353,0.1819055909058464,10.109887882696428,-1.0,-5.212289493925101,0.6663893535751092
1669909278744484838,20.882650266224353,0.1819055909058464,10.109887882696428,-1.0,-5.212289493925101,0.6663893535751092
1669909278744500900,20.882650266224353,0.1819055909058464,10.109887882696428,-1.0,-5.204209925584572,0.6663893535751092
1669909278744517098,20.858473287752936,0.17241963335992563,10.150023046723765,-1.0,-5.204209925584573,0.6663893535751134
1669909278744533020,20.858473287752936,0.17241963335992563,10.150023046723765,-1.0,-5.2670345921627995,0.6663893535751134
1669909278744548811,20.83276729309402,0.17549632774483676,10.150817355050565,-1.0,-5.98474431283328,0.6663893535751297
