%time,field.force.x,field.force.y,field.force.z,field.torque.x,field.torque.y,field.torque.z
1669909508898139202,0.1457928719920893,20.777635510865426,4.242584799381599,-1.0,-5.864657766254193,3.2471517105373134e-12
1669909508908627132,0.1457928719920893,20.777635510865426,4.242584799381599,-1.0,-5.864657766254193,3.2471517105373134e-12
1669909508946881217,0.17346700317414007,20.784353684716585,4.242294867900902,-1.0,-5.497706189088938,3.2448365973105836e-12
1669909508964661643,0.17346700317414007,20.784353684716585,4.242294867900902,-1.0,-5.497706189088938,3.2448365973105836e-12
1669909508984196674,0.17346700317414007,20.784353684716585,4.242294867900902,-1.0,-5.8161448493191505,3.2448365973105836e-12
1669909509006635850,0.17346700317414007,20.784353684716585,4.242294867900902,-1.0,-5.816743646423232,3.2448365973105836e-12
1669909509122481762,0.17346700317414007,20.784353684716585,4.242294867900902,-1.0,-5.817354830173735,3.2448365973105836e-12
1669909509144392684,0.17346700317414007,20.784353684716585,4.242294867900902,-1.0,-5.8180138841082,3.2448365973105836e-12
1669909509144397249,0.17346700317414007,20.784353684716585,4.242294867900902,-1.0,-5.8180138841082,3.2448365973105836e-12
1669909509144449180,0.17346700317414007,20.784353684716585,4.242294867900902,-1.0,-5.8190476696317734,3.2448365973105836e-12
1669909509144488478,0.17346700317414007,20.784353684716585,4.242294867900902,-1.0,-5.8190476696317734,3.2448365973105836e-12
1669909509145187561,0.2886017405721729,21.046380204020814,4.20220752565217,-1.0,-5.550968524769319,3.2458041592863328e-12
1669909509145207630,0.2886017405721729,21.046380204020814,4.20220752565217,-1.0,-5.792426397923181,3.2458041592863328e-12
1669909509158001619,0.2886017405721729,21.046380204020814,4.20220752565217,-1.0,-5.792426397923181,3.2458041592863328e-12
1669909509174292458,0.2886017405721729,21.046380204020814,4.20220752565217,-1.0,-5.793170985066515,3.2458041592863328e-12
1669909509192313241,0.2886017405721729,21.046380204020814,4.20220752565217,-1.0,-5.793170985066515,3.2458041592863328e-12
1669909509231747820,0.2886017405721729,21.046380204020814,4.20220752565217,-1.0,-5.794007147728418,3.2458041592863328e-12
1669909509259964167,0.2886017405721729,21.046380204020814,4.20220752565217,-1.0,-5.794007147728418,3.2458041592863328e-12
1669909509277738325,0.2886017405721729,21.046380204020814,4.20220752565217,-1.0,-5.794705939125896,3.2458041592863328e-12
1669909509277866021,0.2886017405721729,21.046380204020814,4.20220752565217,-1.0,-5.795129929611979,3.2458041592863328e-12
1669909509300338410,0.346647854709199,21.271689153538688,4.202569735011164,-1.0,-5.211645452219782,3.2524086958884e-12
1669909509323802764,0.346647854709199,21.271689153538688,4.202569735011164,-1.0,-5.211645452219782,3.2524086958884e-12
1669909509347046486,0.346647854709199,21.271689153538688,4.202569735011164,-1.0,-5.762506418033271,3.2524086958884e-12
1669909509367582145,0.346647854709199,21.271689153538688,4.202569735011164,-1.0,-5.762674234163681,3.2524086958884e-12
1669909509388745614,0.346647854709199,21.271689153538688,4.202569735011164,-1.0,-5.762674234163681,3.2524086958884e-12
1669909509407668061,0.346647854709199,21.271689153538688,4.202569735011164,-1.0,-5.762994584127104,3.2524086958884e-12
1669909509431231114,0.4043877033604043,21.4134692902579,2.2062928782461686,-1.0,-5.537690710557502,3.2617007640077973e-12
1669909509452849519,0.4043877033604043,21.4134692902579,2.2062928782461686,-1.0,-5.537690710557502,3.2617007640077973e-12
1669909509475227481,0.39981986988252083,21.403498369850347,-1.121173916318968,-1.0,-5.83203132493861,3.272667210421412e-12
1669909509476006367,0.39981986988252083,21.403498369850347,-1.121173916318968,-1.0,-5.757603832196058,3.272667210421412e-12
1669909509496329019,0.39981986988252083,21.403498369850347,-1.121173916318968,-1.0,-5.757603832196058,3.272667210421412e-12
1669909509512460560,0.39981986988252083,21.403498369850347,-1.2875805477886946,-1.0,-5.7578523921843425,3.272667210421412e-12
1669909509533302972,0.39981986988252083,21.403498369850347,-1.2875805477886946,-1.0,-5.757985968026357,3.272667210421412e-12
1669909509774807859,0.39981986988252083,21.403498369850347,-1.2875805477886946,-1.0,-5.757985968026357,3.272667210421412e-12
1669909509837836237,0.39981986988252083,21.403498369850347,-1.2875805477886946,-1.0,-5.758243884003149,3.272667210421412e-12
1669909509837976807,0.43743716988743525,21.501032015779813,-1.2774221450770984,-1.0,-5.811778563070299,3.2786049873775165e-12
1669909509838018895,0.43743716988743525,21.501032015779813,-1.2774221450770984,-1.0,-5.811778563070299,3.2786049873775165e-12
1669909509839531207,0.4249891275851891,21.49289333977327,-1.2769164615179065,-1.0,-5.99999999998975,3.292195042536549e-12
1669909509839580336,0.4249891275851891,21.49289333977327,-1.2769164615179065,-1.0,-5.99999999998975,3.292195042536549e-12
1669909509839621670,0.4124662272702573,21.486788482792615,-1.2765636866491619,-1.0,-5.999999999989736,3.3018730504621586e-12
1669909509839624948,0.4124662272702573,21.486788482792615,-1.2765636866491619,-1.0,-5.810475360641798,3.3018730504621586e-12
1669909509839644622,0.4038445927053809,21.483092344243992,-1.2763645892690452,-1.0,-5.8104753606417905,3.3068742546270727e-12
1669909509839663695,0.4038445927053809,21.483092344243992,-1.2763645892690452,-1.0,-5.9652999038427215,3.3068742546270727e-12
1669909509839683103,0.4038445927053809,21.483092344243992,-1.2763645892690452,-1.0,-5.828005963855667,3.3068742546270727e-12
1669909509839702349,0.4038445927053809,21.483092344243992,-1.2763645892690452,-1.0,-5.828005963855667,3.3068742546270727e-12
1669909509855549245,0.4038445927053809,21.483092344243992,-1.2763645892690452,-1.0,-5.829224118397241,3.3068742546270727e-12
1669909509855571160,0.4038445927053809,21.483092344243992,0.22129151767980737,-1.0,-5.830073950707608,3.3068742546270727e-12
1669909509872071088,0.4038445927053809,21.483092344243992,0.22129151767980737,-1.0,-5.830073950707608,3.3068742546270727e-12
1669909509872138366,0.4038445927053809,21.483092344243992,0.22129151767980737,-1.0,-5.831039968089721,3.3068742546270727e-12
1669909509888294203,0.4038445927053809,21.483092344243992,0.22129151767980737,-1.0,-5.831039968089721,3.3068742546270727e-12
1669909509905497224,0.42890628502429895,21.596909471502517,0.2316021987936825,-1.0,-5.999999999989715,3.3185305385991577e-12
1669909509923784943,0.42890628502429895,21.596909471502517,1.3964456388495314,-1.0,-5.860465566363393,3.3185305385991577e-12
1669909509942113977,0.42890628502429895,21.596909471502517,1.3964456388495314,-1.0,-5.860465566363393,3.3185305385991577e-12
1669909509966209748,0.42890628502429895,21.596909471502517,1.3964456388495314,-1.0,-5.861937239980615,3.3185305385991577e-12
1669909509984115179,0.42890628502429895,21.596909471502517,1.3964456388495314,-1.0,-5.861937239980615,3.3185305385991577e-12
1669909510002756299,0.42890628502429895,21.596909471502517,1.3964456388495314,-1.0,-5.863340929272105,3.3185305385991577e-12
1669909510017863590,0.42890628502429895,21.596909471502517,1.3964456388495314,-1.0,-5.864162097158659,3.3185305385991577e-12
1669909510036455598,0.4621678382861938,21.675328482996193,1.266886203976135,-1.0,-5.864162097158637,3.3385763078295113e-12
1669909510051789021,0.4621678382861938,21.675328482996193,1.266886203976135,-1.0,-5.999999999989693,3.3385763078295113e-12
1669909510169835121,0.4621678382861938,21.675328482996193,1.266886203976135,-1.0,-5.934988553146555,3.3385763078295113e-12
1669909510251655276,0.4260072208315278,21.671484492443266,1.2666950502200578,-1.0,-5.999999999989677,3.3585156396664083e-12
1669909510251661146,0.4260072208315278,21.671484492443266,1.2666950502200578,-1.0,-5.999999999989677,3.3585156396664083e-12
1669909510251663465,0.4260072208315278,21.671484492443266,1.2666950502200578,-1.0,-5.999999999989677,3.3585156396664083e-12
1669909510251745715,0.4260072208315278,21.671484492443266,1.2666950502200578,-1.0,-5.999999999989677,3.3585156396664083e-12
1669909510251750608,0.4260072208315278,21.671484492443266,1.2666950502200578,-1.0,-5.999999999989677,3.3585156396664083e-12
1669909510251816462,0.4037811739959552,21.7215421549228,1.1266712259852305,-1.0,-5.999999999989676,3.3604148094425637e-12
1669909510251821088,0.4037811739959552,21.7215421549228,1.2930772614085093,-1.0,-5.999999999989676,3.3604148094425637e-12
1669909510268070291,0.4037811739959552,21.7215421549228,1.2930772614085093,-1.0,-5.999999999989676,3.3604148094425637e-12
1669909510268103880,0.371303652791512,21.730206700919968,1.2920352672994682,-1.0,-5.999999999989672,3.377056668841091e-12
1669909510282653770,0.371303652791512,21.730206700919968,1.2920352672994682,-1.0,-5.999999999989672,3.377056668841091e-12
1669909510303673633,0.371303652791512,21.730206700919968,1.2920352672994682,-1.0,-5.999999999989672,3.377056668841091e-12
1669909510316225855,0.371303652791512,21.730206700919968,1.2920352672994682,-1.0,-5.999999999989672,3.377056668841091e-12
1669909510336961485,0.371303652791512,21.730206700919968,1.2920352672994682,-1.0,-5.999999999989672,3.377056668841091e-12
1669909510365969883,0.371303652791512,21.730206700919968,1.2920352672994682,-1.0,-5.999999999989672,3.377056668841091e-12
1669909510382564379,0.371303652791512,21.730206700919968,1.2920352672994682,-1.0,-5.999999999989672,3.377056668841091e-12
1669909510398972057,0.31169074012574244,21.74520661296699,1.2215419135401415,-0.9999999999999999,-5.999999999989673,3.3805780733342883e-12
1669909510421025757,0.31169074012574244,21.74520661296699,1.2215419135401415,-0.9999999999999999,-5.999999999989673,3.3805780733342883e-12
1669909510441755320,0.298845908545134,21.75321559687293,1.2207928618513204,-0.9999999999999999,-5.999999999989676,3.385249430942972e-12
1669909510464350659,0.298845908545134,21.75321559687293,1.2207928618513204,-0.9999999999999999,-5.999999999989676,3.385249430942972e-12
1669909510478389478,0.298845908545134,21.75321559687293,1.2207928618513204,-0.9999999999999999,-5.999999999989676,3.385249430942972e-12
1669909510495967761,0.298845908545134,21.75321559687293,1.2207928618513204,-0.9999999999999999,-5.999999999989676,3.385249430942972e-12
1669909510513509373,0.298845908545134,21.75321559687293,1.2207928618513204,-0.9999999999999999,-5.999999999989676,3.385249430942972e-12
1669909510539154377,0.298845908545134,21.75321559687293,1.2207928618513204,-0.9999999999999999,-5.999999999989676,3.385249430942972e-12
1669909510561887440,0.298845908545134,21.75321559687293,1.2207928618513204,-0.9999999999999999,-5.999999999989676,-2.963565811511469
1669909510578687321,0.32103524105171344,21.78951366640086,1.2302150840300978,-1.0,-5.9999999999896785,-2.9635658115114674
1669909510598083333,0.32103524105171344,21.78951366640086,1.2302150840300978,-1.0,-5.9999999999896785,-2.9635658115114674
1669909510853361405,0.32103524105171344,21.78951366640086,1.5630277509231032,-1.0,-5.9999999999896785,-11.75058335065503
1669909510853403653,0.2968327180926361,21.820683385711565,1.5604511499101257,-1.0,-5.999999999989693,-11.750583350655024
1669909510853443442,0.2968327180926361,21.820683385711565,1.5604511499101257,-1.0,-5.999999999989693,-11.750583350655024
1669909510853483120,0.2968327180926361,21.820683385711565,1.5604511499101257,-1.0,-5.999999999989693,-11.750583350655024
1669909510853535279,0.2968327180926361,21.820683385711565,1.5604511499101257,-1.0,-5.999999999989693,-11.750583350655024
1669909510853583424,0.2968327180926361,21.820683385711565,1.5604511499101257,-1.0,-5.999999999989693,-11.750583350655024
1669909510853623196,0.2968327180926361,21.820683385711565,1.5604511499101257,-1.0,-5.999999999989693,-11.750583350655024
1669909510853662196,0.2968327180926361,21.820683385711565,1.5604511499101257,-1.0,-5.999999999989693,-11.750583350655024
1669909510853701087,0.2968327180926361,21.820683385711565,1.5604511499101257,-1.0,-5.999999999989693,-11.750583350655024
1669909510853739383,0.2968327180926361,21.820683385711565,1.5604511499101257,-1.0,-5.999999999989693,-11.750583350655024
1669909510853778736,0.24642151184947264,21.838479567957517,1.518996909242274,-1.0,-5.999999999989702,-11.750583350655022
1669909510860437450,0.24642151184947264,21.838479567957517,1.518996909242274,-1.0,-5.999999999989702,-11.750583350655022
1669909510860515531,0.24642151184947264,21.838479567957517,2.0182150155121104,-1.0,-5.999999999989702,-1.7654412612285053
1669909510872396005,0.24642151184947264,21.838479567957517,2.0182150155121104,-1.0,-5.999999999989702,-1.7654412612285053
1669909510899016219,0.24642151184947264,21.838479567957517,2.0182150155121104,-1.0,-5.999999999989702,-1.7654412612285053
1669909510948368583,0.23641875040662902,21.87847340562693,1.9882153183994271,-1.0,-5.999999999989761,-0.26778546161609923
1669909510963628575,0.21766477437518672,21.909988251046297,1.9855129894453354,-1.0,-5.999999999989761,-0.1679417537491325
1669909510981154429,0.18874598739155418,21.934890956315726,1.982884465549244,-1.0,-5.999999999989897,-0.16794175374912507
1669909510998356578,0.18874598739155418,21.934890956315726,1.982884465549244,-1.0,-5.999999999989897,-0.16794175374912507
1669909510998445919,0.18874598739155418,21.934890956315726,1.982884465549244,-1.0,-5.999999999989897,-0.16794175374912507
1669909511017497916,0.17485303753845222,21.942753572504618,1.9818808682697595,-1.0,-5.999999999989951,-0.16794175374912101
1669909511050808568,0.17485303753845222,21.942753572504618,1.9818808682697595,-1.0,-5.999999999989951,-0.16794175374912101
1669909511065815695,0.14286988121304495,21.95434904151866,1.9799751594313006,-1.0,-5.9999999999900515,-0.1679417537491109
1669909511105985389,0.14286988121304495,21.95434904151866,1.9799751594313006,-1.0,-5.9999999999900515,-0.1679417537491109
1669909511120108891,0.14286988121304495,21.95434904151866,1.9799751594313006,-1.0,-5.9999999999900515,-0.1679417537491109
1669909511120218987,0.14286988121304495,21.95434904151866,1.9799751594313006,-1.0,-5.9999999999900515,-0.06809803889722486
1669909511230706921,0.14286988121304495,21.95434904151866,1.9799751594313006,-1.0,-5.9999999999900515,-0.06809803889722486
1669909511243725856,0.14286988121304495,21.95434904151866,1.9799751594313006,-1.0,-5.9999999999900515,-0.06809803889722486
1669909511243792206,0.22199848728869043,22.538910127315607,2.018519816226461,-1.0,-5.999999999990132,-0.06809803889721357
1669909511243858273,0.22199848728869043,22.538910127315607,2.018519816226461,-1.0,-5.999999999990132,-0.06809803889721357
1669909511243917541,0.22199848728869043,22.538910127315607,2.018519816226461,-1.0,-5.999999999990132,-0.06809803889721357
1669909511243961097,0.1374432185516951,22.525016042430867,2.016126004718237,-1.0,-5.999999999990306,-0.06809803889718018
1669909511261774658,0.1374432185516951,22.525016042430867,2.016126004718237,-1.0,-5.999999999990306,-0.06809803889718018
1669909511277497109,0.11680537601774915,22.517016487826346,2.0157762914255093,-1.0,-5.999999999990342,-0.06809803889717198
1669909511331616852,0.11680537601774915,22.517016487826346,2.0157762914255093,-1.0,-5.999999999990342,-0.06809803889717198
1669909511348499866,0.08482054942510875,22.50183548861779,2.0153412444679457,-1.0,-5.999999999990394,-0.06809803889715961
1669909511348501997,0.08482054942510875,22.50183548861779,2.0153412444679457,-1.0,-5.999999999990394,-0.06809803889715961
1669909511370434583,0.08482054942510875,22.50183548861779,2.0153412444679457,-1.0,-5.999999999990394,-0.06809803889715961
1669909511386321538,0.08482054942510875,22.50183548861779,2.0153412444679457,-1.0,-5.999999999990394,-0.06809803889715961
1669909511402981736,0.08482054942510875,22.50183548861779,2.0153412444679457,-1.0,-5.999999999990394,-0.06809803889715961
1669909511426483160,0.08482054942510875,22.50183548861779,2.0153412444679457,-1.0,-5.999999999990394,3.4839800140848153e-12
1669909511442521154,0.08482054942510875,22.50183548861779,2.0153412444679457,-1.0,-5.999999999990394,3.4839800140848153e-12
1669909511458354754,0.08482054942510875,22.50183548861779,2.0153412444679457,-1.0,-5.999999999990394,3.4839800140848153e-12
1669909511481420408,0.08482054942510875,22.50183548861779,2.0153412444679457,-1.0,-5.999999999990394,3.4839800140848153e-12
1669909511497680193,0.08482054942510875,22.50183548861779,2.0153412444679457,-1.0,-5.999999999990394,3.4839800140848153e-12
1669909511521255229,0.08482054942510875,22.50183548861779,2.0153412444679457,-1.0,-5.999999999990394,3.4839800140848153e-12
1669909511543052109,0.08482054942510875,22.50183548861779,2.0153412444679457,-1.0,-5.999999999990394,3.4839800140848153e-12
1669909511560715551,-0.026227052156155395,22.665140801881748,2.0849441120309047,-1.0,-5.99999999999044,3.495162251419825e-12
1669909511581212566,-0.026227052156155395,22.665140801881748,2.0849441120309047,-1.0,-5.99999999999044,3.495162251419825e-12
1669909511605772731,-0.026227052156155395,22.665140801881748,2.0849441120309047,-1.0,-5.99999999999044,3.495162251419825e-12
1669909511623231925,-0.026227052156155395,22.665140801881748,2.0849441120309047,-1.0,-5.99999999999044,3.495162251419825e-12
1669909511643379656,-0.026227052156155395,22.665140801881748,2.0849441120309047,-1.0,-5.99999999999044,3.495162251419825e-12
1669909511892134041,-0.026227052156155395,22.665140801881748,2.0849441120309047,-1.0,-5.99999999999044,3.495162251419825e-12
1669909511913274030,-0.026227052156155395,22.665140801881748,2.0849441120309047,-1.0,-5.99999999999044,3.495162251419825e-12
1669909511913315078,-0.026227052156155395,22.665140801881748,2.0849441120309047,-1.0,-5.99999999999044,3.495162251419825e-12
1669909511913353628,-0.26503382687089516,22.533960854061462,2.079984585832344,-1.0,-5.999999999990666,3.543122500410767e-12
1669909511913419402,-0.26503382687089516,22.533960854061462,2.079984585832344,-1.0,-5.999999999990666,3.543122500410767e-12
1669909511913433021,-0.26503382687089516,22.533960854061462,2.079984585832344,-1.0,-5.999999999990666,3.543122500410767e-12
1669909511913438767,-0.26503382687089516,22.533960854061462,2.079984585832344,-1.0,-5.999999999990666,3.543122500410767e-12
1669909511913507358,-0.26503382687089516,22.533960854061462,2.079984585832344,-1.0,-5.999999999990666,3.543122500410767e-12
1669909511913546668,-0.26503382687089516,22.533960854061462,2.079984585832344,-1.0,-5.999999999990666,3.543122500410767e-12
1669909511913585346,-0.26503382687089516,22.533960854061462,2.079984585832344,-1.0,-5.999999999990666,3.543122500410767e-12
1669909511913625427,-0.26503382687089516,22.533960854061462,2.079984585832344,-1.0,-5.999999999990666,3.543122500410767e-12
1669909511919946866,-0.4573336083320324,22.376897347713783,2.044457299323522,-1.0,-5.999999999990772,3.557956448998633e-12
1669909511920027896,-0.4573336083320324,22.376897347713783,2.044457299323522,-1.0,-5.999999999990772,3.557956448998633e-12
1669909511920072645,-0.4573336083320324,22.376897347713783,2.044457299323522,-1.0,-5.999999999990772,3.557956448998633e-12
1669909511942568710,-0.4573336083320324,22.376897347713783,2.044457299323522,-1.0,-5.999999999990772,3.557956448998633e-12
1669909511965554067,-0.4573336083320324,22.376897347713783,2.044457299323522,-1.0,-5.999999999990772,3.557956448998633e-12
1669909511983687872,-0.4573336083320324,22.376897347713783,2.044457299323522,-1.0,-5.999999999990772,3.557956448998633e-12
1669909512008294287,-0.4573336083320324,22.376897347713783,2.044457299323522,-1.0,-5.999999999990772,3.557956448998633e-12
1669909512031289456,-0.5902503540421158,22.261919797709517,2.005480119559609,-1.0,-5.999999999990882,3.564671376217488e-12
1669909512051348800,-0.5902503540421158,22.261919797709517,2.005480119559609,-1.0,-5.999999999990882,3.564671376217488e-12
1669909512068147134,-0.5902503540421158,22.261919797709517,2.005480119559609,-1.0,-5.999999999990882,3.564671376217488e-12
1669909512085680946,-0.5902503540421158,22.261919797709517,2.005480119559609,-1.0,-5.999999999990882,3.564671376217488e-12
1669909512100287164,-0.5902503540421158,22.261919797709517,2.005480119559609,-1.0,-5.999999999990882,3.564671376217488e-12
1669909512123220528,-0.5902503540421158,22.261919797709517,2.005480119559609,-1.0,-5.999999999990882,3.564671376217488e-12
1669909512146320240,-0.6805310244277001,22.216479761769456,1.9579988694086312,-1.0,-5.999999999990963,3.5637134183411075e-12
1669909512162538206,-0.6805310244277001,22.216479761769456,1.9579988694086312,-1.0,-5.999999999990963,3.5637134183411075e-12
1669909512287134906,-0.6805310244277001,22.216479761769456,1.9579988694086312,-1.0,-5.999999999990963,3.5637134183411075e-12
1669909512305517423,-0.7115143974874204,22.275890336648878,1.9505068146353377,-1.0,-5.999999999991028,3.56174426099732e-12
1669909512305566967,-0.7115143974874204,22.275890336648878,1.9505068146353377,-1.0,-5.999999999991028,3.56174426099732e-12
1669909512305609923,-0.7115143974874204,22.275890336648878,1.9505068146353377,-1.0,-5.999999999991028,3.56174426099732e-12
1669909512305653527,-0.7115143974874204,22.275890336648878,1.9505068146353377,-1.0,-5.999999999991028,3.56174426099732e-12
1669909512305701956,-0.7115143974874204,22.275890336648878,1.9505068146353377,-1.0,-5.999999999991028,3.56174426099732e-12
1669909512321980317,-0.7115143974874204,22.275890336648878,1.9505068146353377,-1.0,-5.999999999991028,3.56174426099732e-12
1669909512322077641,-0.7115143974874204,22.275890336648878,1.9505068146353377,-1.0,-5.999999999991028,3.56174426099732e-12
1669909512348106564,-0.7610831560990181,22.235872822217083,1.9279580047632292,-1.0,-5.999999999991044,3.560551482563545e-12
1669909512364447432,-0.7610831560990181,22.235872822217083,0.5967085292841023,-1.0,-5.999999999991044,3.560551482563545e-12
1669909512386790551,-0.7748195678084142,22.26567490030221,0.5928686456025201,-1.0,-5.999999999991076,3.5587141845376375e-12
1669909512411128919,-0.7748195678084142,22.26567490030221,0.5928686456025201,-1.0,-5.999999999991076,3.5587141845376375e-12
1669909512429235201,-0.7748195678084142,22.26567490030221,-1.23759953219289,-1.0,-5.999999999991076,3.5587141845376375e-12
1669909512448465564,-0.7748195678084142,22.26567490030221,-1.23759953219289,-1.0,-5.999999999991076,3.5587141845376375e-12
1669909512466688201,-0.7748195678084142,22.26567490030221,-2.069630305355732,-1.0,-5.999999999991076,3.5587141845376375e-12
1669909512484660573,-0.7748195678084142,22.26567490030221,-2.069630305355732,-1.0,-5.999999999991076,3.5587141845376375e-12
1669909512505602993,-0.7748195678084142,22.26567490030221,-2.069630305355732,-1.0,-5.999999999991076,3.5587141845376375e-12
1669909512527774605,-0.7748195678084142,22.26567490030221,-2.568849007672016,-1.0,-5.999999999991076,3.5587141845376375e-12
1669909512551343625,-0.7694814111436215,22.266207567072968,-2.5602171644680514,-1.0,-5.999999999991084,3.55790227635744e-12
1669909512597596387,-0.7694814111436215,22.266207567072968,-2.5602171644680514,-1.0,-5.999999999991084,3.55790227635744e-12
1669909512618898098,-0.7694814111436215,22.266207567072968,-2.5602171644680514,-1.0,-5.999999999991084,3.55790227635744e-12
1669909512619332444,-0.7694814111436215,22.266207567072968,-2.5602171644680514,-1.0,-5.999999999991084,3.55790227635744e-12
1669909512634352492,-0.7843306198207062,22.30887861829786,-2.5654978461558713,-1.0,-5.9999999999911395,3.5511313799118336e-12
1669909512651205294,-0.7843306198207062,22.30887861829786,-2.5654978461558713,-1.0,-5.9999999999911395,3.5511313799118336e-12
1669909512688086296,-0.7843306198207062,22.30887861829786,-0.7350296683604611,-1.0,-5.9999999999911395,3.5511313799118336e-12
1669909512718458723,-0.7843306198207062,22.30887861829786,-0.7350296683604611,-1.0,-5.9999999999911395,3.5511313799118336e-12
1669909512718564505,-0.7843306198207062,22.30887861829786,-0.7350296683604611,-1.0,-5.9999999999911395,3.5511313799118336e-12
1669909513016049800,-0.7843306198207062,18.730182367382334,6.920297651738416,-1.0,-5.9999999999911395,3.5511313799118336e-12
1669909513016107741,-0.7843306198207062,18.730182367382334,6.920297651738416,-1.0,-5.9999999999911395,3.5511313799118336e-12
1669909513016147659,-0.7843306198207062,18.730182367382334,6.920297651738416,-1.0,-5.9999999999911395,3.5511313799118336e-12
1669909513016186779,-0.8060229697711296,18.765641614848313,6.909628286239343,-1.0,-5.99999999999115,3.549590335298487e-12
1669909513016277327,-0.8060229697711296,18.765641614848313,6.909628286239343,-1.0,-5.99999999999115,3.549590335298487e-12
1669909513016377651,-0.8060229697711296,18.765641614848313,6.909628286239343,-1.0,-5.99999999999115,3.549590335298487e-12
1669909513016422786,-0.8060229697711296,18.765641614848313,6.909628286239343,-1.0,-5.99999999999115,3.549590335298487e-12
1669909513016511669,-0.8060229697711296,18.765641614848313,6.909628286239343,-1.0,-5.99999999999115,3.549590335298487e-12
1669909513016557209,-0.8060229697711296,18.765641614848313,6.909628286239343,-1.0,-5.99999999999115,3.549590335298487e-12
1669909513016640815,-0.8060229697711296,18.765641614848313,6.909628286239343,-1.0,-5.99999999999115,3.549590335298487e-12
1669909513016761539,-0.8060229697711296,18.765641614848313,6.909628286239343,-1.0,-5.99999999999115,3.549590335298487e-12
1669909513021168333,-0.7745951945970379,18.789446600776206,6.859418999433002,-1.0,-5.999999999991178,3.5428261951512195e-12
1669909513021208948,-0.7745951945970379,18.789446600776206,6.859418999433002,-1.0,-5.999999999991178,3.5428261951512195e-12
1669909513021271069,-0.7745951945970379,18.789446600776206,6.859418999433002,-1.0,-5.999999999991178,3.5428261951512195e-12
1669909513021276722,-0.7745951945970379,18.789446600776206,6.859418999433002,-1.0,-5.999999999991178,3.5428261951512195e-12
1669909513021338935,-0.7603502383270091,18.795345641513865,6.860239731068459,-1.0,-5.999999999991209,3.524622906064998e-12
1669909513046321455,-0.7603502383270091,18.795345641513865,6.860239731068459,-1.0,-5.999999999991209,3.524622906064998e-12
1669909513073579275,-0.7603502383270091,13.636110640903516,28.720038162464945,-1.0,-5.999999999991209,3.524622906064998e-12
1669909513091232266,-0.7603502383270091,13.636110640903516,28.720038162464945,-1.0,-5.999999999991209,3.524622906064998e-12
1669909513119469982,-0.7603502383270091,13.636110640903516,28.720038162464945,-1.0,-5.999999999991209,3.524622906064998e-12
1669909513133872048,-0.7603502383270091,13.636110640903516,28.720038162464945,-1.0,-5.999999999991209,3.524622906064998e-12
1669909513179002446,-0.7603502383270091,13.636110640903516,28.720038162464945,-1.0,-5.999999999991209,3.524622906064998e-12
1669909513197933411,-0.752220716962754,13.639195504840174,28.620525308300053,-1.0,-5.999999999991217,3.5178727066056537e-12
1669909513197936664,-0.752220716962754,13.639195504840174,28.620525308300053,-1.0,-5.999999999991217,3.5178727066056537e-12
1669909513214682055,-0.752220716962754,13.639195504840174,28.620525308300053,-1.0,-5.999999999991217,3.5178727066056537e-12
1669909513233402346,-0.752220716962754,13.639195504840174,28.620525308300053,-1.0,-5.999999999991217,3.5178727066056537e-12
1669909513562367097,-0.752220716962754,13.639195504840174,28.620525308300053,-1.0,-5.999999999991217,3.5178727066056537e-12
1669909513562372658,-0.752220716962754,13.639195504840174,28.620525308300053,-1.0,-5.999999999991217,3.5178727066056537e-12
1669909513562375125,-0.752220716962754,13.639195504840174,28.620525308300053,-1.0,-5.999999999991217,3.5178727066056537e-12
1669909513562464796,-0.752220716962754,13.639195504840174,28.620525308300053,-1.0,-5.999999999991217,3.5178727066056537e-12
1669909513562485354,-0.752220716962754,13.639195504840174,28.620525308300053,-1.0,-5.999999999991217,3.5178727066056537e-12
1669909513562697308,-0.820166911184359,13.542196440725835,28.732256353513545,-1.0,-5.999999999991248,3.4942904874669e-12
1669909513562768684,-0.820166911184359,13.542196440725835,28.732256353513545,-1.0,-5.999999999991248,3.4942904874669e-12
1669909513562810863,-0.7698161743443809,13.58944829343216,28.732100803578078,-1.0,-5.999999999991308,3.4311928557249458e-12
1669909513562851814,-0.7698161743443809,13.58944829343216,28.732100803578078,-1.0,-5.999999999991308,3.4311928557249458e-12
1669909513562915444,-0.7698161743443809,13.58944829343216,28.732100803578078,-1.0,-5.999999999991308,3.4311928557249458e-12
1669909513562939708,-0.7698161743443809,13.58944829343216,28.732100803578078,-1.0,-5.999999999991308,3.4311928557249458e-12
1669909513563017027,-0.7698161743443809,13.58944829343216,28.732100803578078,-1.0,-5.999999999991308,3.4311928557249458e-12
1669909513566366918,-0.7698161743443809,13.58944829343216,28.732100803578078,-1.0,-5.999999999991308,3.4311928557249458e-12
1669909513566369061,-0.7599672025624297,13.502730028076252,28.909935818209156,-1.0,-5.398788744827171,3.3523903696938713e-12
1669909513566370896,-0.7599672025624297,13.502730028076252,28.909935818209156,-1.0,-5.398788744827171,3.3523903696938713e-12
1669909513566373012,-0.7599672025624297,13.502730028076252,28.909935818209156,-1.0,-5.999999999991374,3.3523903696938713e-12
1669909513579920920,-0.7599672025624297,13.502730028076252,28.909935818209156,-1.0,-5.999999999991374,3.3523903696938713e-12
1669909513590341715,-0.6297306935349033,13.629769614018453,28.90455338938509,-1.0,-5.99999999999146,3.2410450012205e-12
1669909513638461310,-0.6297306935349033,13.629769614018453,28.90455338938509,-1.0,-4.906258901661338,3.2410450012205e-12
1669909513655290220,-0.6297306935349033,13.629769614018453,28.90455338938509,-1.0,-4.906258901661338,3.2410450012205e-12
1669909513655373684,-0.6297306935349033,13.629769614018453,28.90455338938509,-1.0,-5.99999999999146,3.2410450012205e-12
1669909513666733908,-0.6297306935349033,13.629769614018453,28.90455338938509,-1.0,-5.99999999999146,3.2410450012205e-12
1669909513688387755,-0.6297306935349033,13.629769614018453,28.90455338938509,-1.0,-5.99999999999146,3.2410450012205e-12
1669909513711390163,-0.6297306935349033,13.629769614018453,28.90455338938509,-1.0,-5.99999999999146,3.2410450012205e-12
1669909513733450389,-0.6297306935349033,13.629769614018453,28.90455338938509,-1.0,-5.99999999999146,3.2410450012205e-12
1669909513761612337,-0.6329548250187695,13.525610945373975,29.177910592986407,-1.0,-5.999999999991518,3.1584969196857024e-12
1669909514108745194,-0.6329548250187695,13.525610945373975,29.177910592986407,-1.0,-5.0383292470040715,3.1584969196857024e-12
1669909514108786084,-0.6329548250187695,13.525610945373975,29.177910592986407,-1.0,-5.0383292470040715,3.1584969196857024e-12
1669909514108824032,-0.36014519156812824,13.735424957881632,29.158254309419394,-1.0,-2.4565653698159373,2.97120057425603e-12
1669909514108861977,-0.36014519156812824,13.735424957881632,29.158254309419394,-1.0,-2.4565653698159373,2.97120057425603e-12
1669909514108913152,-0.36014519156812824,13.735424957881632,29.158254309419394,-1.0,-5.999999999991637,2.97120057425603e-12
1669909514108962977,-0.36014519156812824,13.735424957881632,29.158254309419394,-1.0,-5.999999999991637,2.97120057425603e-12
1669909514109002029,-0.36014519156812824,13.735424957881632,29.158254309419394,-1.0,-5.999999999991637,2.97120057425603e-12
1669909514109041005,-0.36014519156812824,13.735424957881632,29.158254309419394,-1.0,-5.999999999991637,2.97120057425603e-12
1669909514109079581,-0.36014519156812824,13.735424957881632,29.158254309419394,-1.0,-5.999999999991637,2.97120057425603e-12
1669909514109117757,-0.36485237022363054,13.622056825359921,29.35972195067327,-1.0,-5.99999999999167,2.910921802809196e-12
1669909514109155460,-0.36485237022363054,13.622056825359921,29.35972195067327,-1.0,-4.3568834053923275,2.910921802809196e-12
1669909514109193597,-0.36485237022363054,13.622056825359921,29.35972195067327,-1.0,-4.3568834053923275,2.910921802809196e-12
1669909514126193401,-0.36485237022363054,13.622056825359921,29.35972195067327,-1.0,-5.99999999999167,2.910921802809196e-12
1669909514126224092,-0.36485237022363054,13.622056825359921,29.35972195067327,-1.0,-5.99999999999167,2.910921802809196e-12
1669909514126242388,-0.36485237022363054,13.622056825359921,29.35972195067327,-1.0,-5.99999999999167,2.910921802809196e-12
1669909514126388407,-0.36485237022363054,2.3599880768858013,9.442603401326341,-1.0,-5.99999999999167,2.910921802809196e-12
1669909514126490400,-0.36485237022363054,2.3599880768858013,9.442603401326341,-1.0,-5.99999999999167,2.910921802809196e-12
1669909514126516467,-0.36485237022363054,2.3599880768858013,9.442603401326341,-1.0,-5.99999999999167,2.910921802809196e-12
1669909514145523556,-0.1068996424800184,2.5969244002950997,9.56735821612424,-1.0,0.46695858271717533,2.7521295139654927e-12
1669909514157800844,-0.1068996424800184,2.5969244002950997,9.56735821612424,-1.0,0.46695858271717533,2.7521295139654927e-12
1669909514176089226,-0.1068996424800184,2.5969244002950997,9.56735821612424,-1.0,-5.71276293865553,2.7521295139654927e-12
1669909514191855465,0.3322586274714171,2.735211112049301,9.524741691506332,-1.0,6.000000000008151,2.5171982765709174e-12
1669909514219338419,0.3322586274714171,2.735211112049301,9.524741691506332,-1.0,-4.889644199309658,2.5171982765709174e-12
1669909514236174802,0.3322586274714171,2.735211112049301,9.524741691506332,-1.0,-4.889644199309658,2.5171982765709174e-12
1669909514257832043,0.3322586274714171,2.735211112049301,9.524741691506332,-1.0,-4.877291939891744,2.5171982765709174e-12
1669909514274200534,0.3322586274714171,2.735211112049301,9.524741691506332,-1.0,-4.877291939891744,2.5171982765709174e-12
1669909514586450270,0.3322586274714171,2.735211112049301,9.524741691506332,-1.0,-4.862793494281279,2.5171982765709174e-12
1669909514603749008,0.3322586274714171,2.735211112049301,9.524741691506332,-1.0,-4.855532057554472,2.5171982765709174e-12
1669909514603824311,0.3322586274714171,2.735211112049301,9.524741691506332,-1.0,-4.855532057554472,2.5171982765709174e-12
1669909514603833057,0.3322586274714171,2.735211112049301,9.524741691506332,-1.0,-4.84108294390009,2.5171982765709174e-12
1669909514603837696,0.3322586274714171,2.735211112049301,9.524741691506332,-1.0,-4.833650602885381,2.5171982765709174e-12
1669909514603841914,0.38001434837330667,2.813229105065564,9.681760654574623,-1.0,-4.833650602885397,2.456669491606961e-12
1669909514603913164,0.38001434837330667,2.813229105065564,9.681760654574623,-1.0,-2.424033983586364,2.456669491606961e-12
1669909514603944485,0.38001434837330667,2.813229105065564,9.681760654574623,-1.0,-4.553635739820876,2.456669491606961e-12
1669909514603975095,0.38001434837330667,2.813229105065564,9.681760654574623,-1.0,-4.553635739820876,2.456669491606961e-12
1669909514604005076,0.38001434837330667,2.813229105065564,9.681760654574623,-1.0,-4.534933797959093,2.456669491606961e-12
1669909514604035938,0.38001434837330667,2.813229105065564,9.681760654574623,-1.0,-4.534933797959093,2.456669491606961e-12
1669909514604066506,0.38001434837330667,2.813229105065564,9.681760654574623,-1.0,-4.517997578695518,2.456669491606961e-12
1669909514604151467,0.38001434837330667,2.813229105065564,9.681760654574623,-1.0,-4.508999936809494,2.456669491606961e-12
1669909514611232152,0.6018160725530153,2.782469894869439,9.832112478736736,-1.0,-4.508999936809452,2.392061217956971e-12
1669909514611286184,0.6018160725530153,2.782469894869439,9.832112478736736,-1.0,0.8978626439241394,2.392061217956971e-12
1669909514611332468,0.6018160725530153,2.782469894869439,9.832112478736736,-1.0,-3.8963186342296754,2.392061217956971e-12
1669909514611336420,0.6018160725530153,2.782469894869439,9.832112478736736,-1.0,-3.883491368243671,2.392061217956971e-12
1669909514631929456,0.6018160725530153,2.782469894869439,9.832112478736736,-1.0,-3.870676646701335,2.392061217956971e-12
1669909514661711011,0.6018160725530153,2.782469894869439,9.832112478736736,-1.0,-3.8568935120057026,2.392061217956971e-12
1669909514680183217,0.6018160725530153,2.782469894869439,9.832112478736736,-1.0,-3.8568935120057026,2.392061217956971e-12
1669909514696827470,0.6018160725530153,2.782469894869439,9.832112478736736,-1.0,-3.8316784051822683,2.392061217956971e-12
1669909514733342076,0.6018160725530153,2.782469894869439,9.832112478736736,-1.0,-3.8316784051822683,2.392061217956971e-12
1669909514778766502,0.6018160725530153,2.782469894869439,9.832112478736736,-1.0,-3.806940394502398,2.392061217956971e-12
1669909514778873447,1.0914444684940399,2.7696610640258745,9.89257113777467,0.9339818147583798,-3.1384004379317054,2.5539977534100724e-12
1669909514793951612,1.0914444684940399,2.7696610640258745,9.89257113777467,-1.0,-3.7436521519861174,2.5539977534100724e-12
1669909514794041800,1.0914444684940399,2.7696610640258745,9.89257113777467,-1.0,-3.7436521519861174,2.5539977534100724e-12
1669909514810452858,1.0914444684940399,2.7696610640258745,9.89257113777467,-1.0,-3.717613697902343,2.5539977534100724e-12
1669909515135829264,1.0914444684940399,2.7696610640258745,9.89257113777467,-1.0,-3.717613697902343,2.5539977534100724e-12
1669909515135870016,1.0914444684940399,2.7696610640258745,9.89257113777467,-1.0,-3.691652822672837,2.5539977534100724e-12
1669909515135909064,1.0914444684940399,2.7696610640258745,9.89257113777467,-1.0,-3.691652822672837,2.5539977534100724e-12
1669909515135947387,0.9794039441917577,2.18863297963773,9.97948201044967,0.18105717527873183,-5.999999999991622,2.7903708114619635e-12
1669909515135986712,0.9794039441917577,2.18863297963773,9.97948201044967,-1.0,-4.1816635112362235,2.7903708114619635e-12
1669909515136024834,0.9794039441917577,2.18863297963773,9.97948201044967,-1.0,-4.1816635112362235,2.7903708114619635e-12
1669909515136063251,0.9794039441917577,2.18863297963773,9.97948201044967,-1.0,-4.163503905852218,2.7903708114619635e-12
1669909515136101247,0.9794039441917577,2.18863297963773,9.97948201044967,-1.0,-4.163503905852218,2.7903708114619635e-12
1669909515136139515,0.9794039441917577,2.18863297963773,9.97948201044967,-1.0,-4.144647230787556,2.7903708114619635e-12
1669909515136177778,0.9794039441917577,2.18863297963773,9.97948201044967,-1.0,-4.144647230787556,2.7903708114619635e-12
1669909515136215706,0.9794039441917577,2.18863297963773,9.97948201044967,-1.0,-4.125540336061585,2.7903708114619635e-12
1669909515136253162,0.8078360566331475,1.5685267854668492,10.104841029620404,-1.0,-4.125540336061556,2.938071264995807e-12
1669909515136291379,0.8078360566331475,1.5685267854668492,10.104841029620404,-0.3109369849116378,-5.999999999991593,2.938071264995807e-12
1669909515141011469,0.8078360566331475,1.5685267854668492,10.104841029620404,-1.0,-4.53221946348252,2.938071264995807e-12
1669909515141105692,0.8078360566331475,1.5685267854668492,10.104841029620404,-1.0,-4.525242775230533,2.938071264995807e-12
1669909515141191078,0.8078360566331475,1.5685267854668492,10.104841029620404,-1.0,-4.518407986636332,2.938071264995807e-12
1669909515152032063,0.8078360566331475,1.5685267854668492,10.104841029620404,-1.0,-4.518407986636332,2.938071264995807e-12
1669909515208268806,0.47455522863395916,1.1203669901527031,10.254471072416722,-0.37822340383109876,-5.99999999999159,3.1070331134989257e-12
1669909515228193039,0.47455522863395916,1.1203669901527031,10.254471072416722,-1.0,-5.0102356038522196,3.1070331134989257e-12
1669909515228240624,0.47455522863395916,1.1203669901527031,10.254471072416722,-1.0,-5.0102356038522196,3.1070331134989257e-12
1669909515241867026,0.13474575903009528,0.9705312512925112,10.259707228128523,-0.6163589140787344,-5.999999999991638,3.2863309804494925e-12
1669909515255299957,0.13474575903009528,0.9705312512925112,10.259707228128523,-1.0,-5.636165861748855,3.2863309804494925e-12
1669909515273598667,0.13474575903009528,0.9705312512925112,10.259707228128523,-1.0,-5.6369684837489675,3.2863309804494925e-12
1669909515294894295,0.13474575903009528,0.9705312512925112,10.259707228128523,-1.0,-5.6378587521684205,3.2863309804494925e-12
1669909515322549831,0.13474575903009528,0.9705312512925112,10.259707228128523,-1.0,-5.6378587521684205,3.2863309804494925e-12
1669909515661224543,0.13474575903009528,12.232599999766633,27.514326826517195,-1.0,-5.639772570681254,3.2863309804494925e-12
1669909515697281480,0.13474575903009528,12.232599999766633,27.514326826517195,-1.0,-5.639772570681254,3.2863309804494925e-12
1669909515697296998,0.16820277399211017,11.949063102152875,20.916686700668112,-0.9585272391786761,-5.999999999991656,3.314149759378243e-12
1669909515697311790,0.16820277399211017,11.949063102152875,20.916686700668112,-0.9585272391786761,-5.999999999991656,3.314149759378243e-12
1669909515697326429,-0.09662268204859825,11.948997473711266,20.909280932158968,-1.0,-5.999999999991721,3.4343916011516466e-12
1669909515697364501,-0.09662268204859825,11.948997473711266,20.909280932158968,-1.0,-5.999999999991721,3.4343916011516466e-12
1669909515697417323,-0.09662268204859825,11.948997473711266,20.909280932158968,-1.0,-5.999999999991721,3.4343916011516466e-12
1669909515697423204,-0.09662268204859825,11.948997473711266,20.909280932158968,-1.0,-5.999999999991721,3.4343916011516466e-12
1669909515697442794,-0.19391449608220723,11.96784052386889,20.90471020580528,-1.0,-5.999999999991753,3.472327850262476e-12
1669909515697485532,-0.19391449608220723,11.96784052386889,20.90471020580528,-1.0,-5.999999999991753,3.472327850262476e-12
1669909515697488143,-0.19391449608220723,11.96784052386889,20.90471020580528,-1.0,-5.999999999991753,3.472327850262476e-12
1669909515697508375,-0.19391449608220723,11.96784052386889,20.90471020580528,-1.0,-5.999999999991753,3.472327850262476e-12
1669909515697523388,-0.19391449608220723,11.96784052386889,20.90471020580528,-1.0,-5.999999999991753,3.472327850262476e-12
1669909515697537791,-0.19391449608220723,11.96784052386889,20.90471020580528,-1.0,-5.999999999991753,3.472327850262476e-12
1669909515697553445,-0.19391449608220723,11.96784052386889,20.90471020580528,-1.0,-5.999999999991753,3.472327850262476e-12
1669909515714510067,-0.2877050276187782,11.796226220884309,20.907980231125478,-1.0,-5.999999999991789,3.498200024366984e-12
1669909515714532254,-0.2877050276187782,11.796226220884309,20.907980231125478,-1.0,-5.999999999991789,3.498200024366984e-12
1669909515714574250,-0.2877050276187782,11.796226220884309,20.907980231125478,-1.0,-5.999999999991789,3.498200024366984e-12
1669909515724240084,-0.2877050276187782,11.796226220884309,20.907980231125478,-1.0,-5.999999999991789,3.498200024366984e-12
1669909515732063469,-0.2877050276187782,11.796226220884309,20.907980231125478,-1.0,-5.999999999991789,3.498200024366984e-12
1669909515749763886,-0.2877050276187782,0.5341574724101879,10.310250548203117,-1.0,-5.999999999991789,3.498200024366984e-12
1669909515765547506,-0.5518513075479834,0.5120941388922172,10.253628961690572,-1.0,-5.999999999991901,3.547305666443584e-12
1669909515785429446,-0.5518513075479834,0.5120941388922172,10.253628961690572,-1.0,-5.999999999991901,3.547305666443584e-12
1669909515809371883,-0.5518513075479834,0.5120941388922172,10.253628961690572,-1.0,-5.999999999991901,3.547305666443584e-12
1669909515822262946,-0.6489628504727041,0.7025984384025519,10.239369525753443,-1.0,-5.99999999999202,3.5236945313396787e-12
1669909515840252648,-0.6489628504727041,0.7025984384025519,10.239369525753443,-1.0,-5.99999999999202,3.5236945313396787e-12
1669909515857848230,-0.6489628504727041,0.7025984384025519,10.239369525753443,-1.0,-5.99999999999202,3.5236945313396787e-12
1669909516099821711,-0.6489628504727041,0.7025984384025519,10.239369525753443,-1.0,-5.99999999999202,3.5236945313396787e-12
1669909516162511087,-0.6489628504727041,0.7025984384025519,10.239369525753443,-1.0,-5.99999999999202,3.5236945313396787e-12
1669909516162537317,-0.6489628504727041,0.7025984384025519,10.239369525753443,-1.0,-5.99999999999202,3.5236945313396787e-12
1669909516162563801,-0.8408547626175703,0.6218019475368738,10.30527379042457,-1.0,-5.999999999992052,3.502025032728767e-12
1669909516162589195,-0.8408547626175703,0.6218019475368738,10.30527379042457,-1.0,-5.999999999992052,3.502025032728767e-12
1669909516162614192,-0.839969707881664,0.7766285095349822,10.296955640156208,-1.0,-5.999999999992116,3.465265663265505e-12
1669909516162670928,-0.82678455153364,0.8563627454370388,10.292915403489818,-1.0,-5.99999999999214,3.4477742665495544e-12
1669909516162706482,-0.82678455153364,0.8563627454370388,10.292915403489818,-1.0,-5.99999999999214,3.4477742665495544e-12
1669909516162725306,-0.82678455153364,0.8563627454370388,10.292915403489818,-1.0,-5.99999999999214,3.4477742665495544e-12
1669909516162742697,-0.82678455153364,0.8563627454370388,10.292915403489818,-1.0,-5.99999999999214,3.4477742665495544e-12
1669909516162760677,-0.82678455153364,0.8563627454370388,10.292915403489818,-1.0,-5.99999999999214,3.4477742665495544e-12
1669909516162778174,-0.82678455153364,0.8563627454370388,10.292915403489818,-1.0,-5.99999999999214,3.4477742665495544e-12
1669909516162795752,-0.82678455153364,0.8563627454370388,10.292915403489818,-1.0,-5.99999999999214,3.4477742665495544e-12
1669909516176742619,-0.82678455153364,0.8563627454370388,10.739224515502205,-1.0,-5.99999999999214,3.4477742665495544e-12
1669909516176759512,-0.8591077894979056,0.9818836949893701,10.776631767251864,-1.0,-5.999999999992163,3.4282152545507586e-12
1669909516176776235,-0.8591077894979056,0.9818836949893701,10.776631767251864,-1.0,-5.999999999992163,3.4282152545507586e-12
1669909516199192980,-0.8591077894979056,0.9818836949893701,10.776631767251864,-1.0,-5.999999999992163,3.4282152545507586e-12
1669909516227220503,-0.7830938337379549,1.0383131691060454,10.779026033222207,-1.0,-5.999999999992193,3.3785235543273926e-12
1669909516249261600,-0.7830938337379549,1.0383131691060454,30.332716921209823,-1.0,-5.999999999992193,3.3785235543273926e-12
1669909516266089510,-0.7830938337379549,1.0383131691060454,30.332716921209823,-1.0,-5.999999999992193,3.3785235543273926e-12
1669909516286033941,-0.7830938337379549,1.0383131691060454,30.332716921209823,-1.0,-5.999999999992193,3.3785235543273926e-12
1669909516326907657,-0.7830938337379549,1.0383131691060454,30.332716921209823,-1.0,-5.999999999992193,3.3785235543273926e-12
1669909516347310848,-0.7830938337379549,1.0383131691060454,30.332716921209823,-1.0,-5.999999999992193,3.3785235543273926e-12
1669909516347336689,-0.7470612036059672,1.26623903242414,30.263403789945116,-1.0,-5.999999999992188,3.3773558076244396e-12
1669909516369087201,-0.7470612036059672,1.26623903242414,30.263403789945116,-1.0,-5.999999999992188,3.3773558076244396e-12
1669909516381289951,-0.7470612036059672,1.26623903242414,30.263403789945116,-1.0,-5.999999999992188,3.3773558076244396e-12
1669909516623938656,-0.6425823722592697,1.1896247419728831,30.27758308241346,-0.827206729946251,-4.157665427528729,3.3294458636380638e-12
1669909516679303525,-0.6425823722592697,1.1896247419728831,30.27758308241346,-0.827206729946251,-4.157665427528729,3.3294458636380638e-12
1669909516679320188,-0.6425823722592697,1.1896247419728831,30.27758308241346,-1.0,-5.999999999992193,3.3294458636380638e-12
1669909516679336573,-0.6425823722592697,1.1896247419728831,30.27758308241346,-1.0,-5.999999999992193,3.3294458636380638e-12
1669909516679352885,-0.6425823722592697,1.1896247419728831,30.27758308241346,-1.0,-5.999999999992193,3.3294458636380638e-12
1669909516679369688,-0.6425823722592697,1.1896247419728831,30.27758308241346,-1.0,-5.999999999992193,3.3294458636380638e-12
1669909516679579478,-0.643789785705411,1.221015832694297,30.244483829698638,-1.0,-5.999999999992193,3.3075393843663926e-12
1669909516679816759,-0.643789785705411,1.221015832694297,30.244483829698638,-1.0,-5.999999999992193,3.3075393843663926e-12
1669909516679821051,-0.5313958921005006,1.1579092138919715,30.255654349719965,-1.0,-5.999999999992219,3.230852706416878e-12
1669909516680363203,-0.5313958921005006,1.1579092138919715,30.255654349719965,-1.0,-5.294422081488987,3.230852706416878e-12
1669909516680394908,-0.5313958921005006,1.1579092138919715,30.255654349719965,-1.0,-5.999999999992219,3.230852706416878e-12
1669909516680397774,-0.5313958921005006,1.1579092138919715,30.255654349719965,-1.0,-5.999999999992219,3.230852706416878e-12
1669909516680420359,-0.5313958921005006,1.1579092138919715,30.255654349719965,-1.0,-5.999999999992219,3.230852706416878e-12
1669909516680439869,-0.5313958921005006,1.1579092138919715,30.255654349719965,-1.0,-5.999999999992219,3.230852706416878e-12
1669909516693043671,-0.5313958921005006,1.1579092138919715,30.255654349719965,-1.0,-5.999999999992219,3.230852706416878e-12
1669909516712134251,-0.5313958921005006,1.1579092138919715,30.255654349719965,-1.0,-5.999999999992219,3.230852706416878e-12
1669909516727578290,-0.5313958921005006,1.1579092138919715,30.255654349719965,-1.0,-5.999999999992219,3.230852706416878e-12
1669909516749399842,-0.6010318897368958,1.106980328698858,30.30959538809778,-1.0,-5.1726766629751415,3.1954779094264933e-12
1669909516798334728,-0.6010318897368958,1.106980328698858,30.30959538809778,-1.0,-5.1726766629751415,3.1954779094264933e-12
1669909516798367514,-0.6010318897368958,1.106980328698858,30.30959538809778,-1.0,-5.999999999992234,3.1954779094264933e-12
1669909516819928192,-0.31227176783857025,1.1593821636366473,30.316837939624836,-1.0,1.4204301989592862,3.0035023086786647e-12
1669909516833971492,-0.31227176783857025,1.1593821636366473,30.316837939624836,-1.0,1.4204301989592862,3.0035023086786647e-12
1669909516855718302,-0.31227176783857025,1.1593821636366473,30.316837939624836,-1.0,-5.9999999999923235,3.0035023086786647e-12
1669909516878374316,-0.31227176783857025,1.1593821636366473,30.316837939624836,-1.0,-5.9999999999923235,3.0035023086786647e-12
1669909516894495010,-0.31227176783857025,1.1593821636366473,30.316837939624836,-1.0,-5.9999999999923235,3.0035023086786647e-12
1669909516914023696,-0.31227176783857025,1.1593821636366473,30.316837939624836,-1.0,-5.9999999999923235,3.0035023086786647e-12
1669909517178271963,-0.26788700754691464,0.9524282136910552,30.465732773240035,-1.0,-5.999999999992355,2.9352909736356284e-12
1669909517178427353,-0.26788700754691464,0.9524282136910552,30.465732773240035,-1.0,-4.451606294293673,2.9352909736356284e-12
1669909517178432143,-0.0076236784780521205,1.0601244840629802,30.45676846592697,-1.0,-4.45160629429374,2.7757911913401077e-12
1669909517178434206,-0.0076236784780521205,1.0601244840629802,30.45676846592697,-1.0,-1.635448343118877,2.7757911913401077e-12
1669909517178436608,-0.0076236784780521205,1.0601244840629802,30.45676846592697,-1.0,-1.635448343118877,2.7757911913401077e-12
1669909517178455855,-0.0076236784780521205,1.0601244840629802,30.45676846592697,-1.0,-5.694170444114364,2.7757911913401077e-12
1669909517181608322,-0.0076236784780521205,1.0601244840629802,30.45676846592697,-1.0,-5.694170444114364,2.7757911913401077e-12
1669909517181685949,-0.0076236784780521205,1.0601244840629802,30.45676846592697,-1.0,-5.6900487065202885,2.7757911913401077e-12
1669909517181692534,0.09355294384671478,1.047690168034162,30.49858754108648,-1.0,-5.690048706520315,2.706631659925377e-12
1669909517181694832,0.09355294384671478,1.047690168034162,30.49858754108648,-1.0,-3.172352421226927,2.706631659925377e-12
1669909517181696733,0.34596567983194076,1.1321013535139874,30.479775255831058,-1.0,-3.172352421226976,2.5672212190219483e-12
1669909517181699090,0.34596567983194076,1.1321013535139874,30.479775255831058,-1.0,-1.104745986522387,2.5672212190219483e-12
1669909517193588833,0.4424838900618918,1.1603220538816934,30.4710510544101,-1.0,-1.1047459865224039,2.5171788580763578e-12
1669909517193620864,0.4424838900618918,1.1603220538816934,30.4710510544101,-1.0,-3.296726683969854,2.5171788580763578e-12
1669909517230488699,0.5997772186532678,1.1974109000669328,30.45550580708403,-1.0,-3.2967266839698777,2.4373477244115327e-12
1669909517252205582,0.5997772186532678,1.1974109000669328,30.45550580708403,-1.0,-2.078088867829954,2.4373477244115327e-12
1669909517252226138,0.5997772186532678,1.1974109000669328,10.45550580708403,-1.0,-2.078088867829954,2.4373477244115327e-12
1669909517273680535,0.5997772186532678,1.1974109000669328,10.45550580708403,-1.0,-4.42413522847,2.4373477244115327e-12
1669909517296632327,0.5997772186532678,1.1974109000669328,10.45550580708403,-1.0,-4.42413522847,2.4373477244115327e-12
1669909517317102507,0.5997772186532678,1.1974109000669328,10.45550580708403,-1.0,-4.4044278944652655,2.4373477244115327e-12
1669909517337806336,0.5997772186532678,1.1974109000669328,10.45550580708403,-1.0,-4.394322310550307,2.4373477244115327e-12
1669909517361107320,0.5997772186532678,1.1974109000669328,10.45550580708403,-1.0,-4.394322310550307,2.4373477244115327e-12
1669909517379281662,0.5997772186532678,1.1974109000669328,10.45550580708403,-1.0,-4.372784567839866,2.4373477244115327e-12
1669909517405706987,0.6695693202680387,1.2473363384669016,10.5055261925395,-1.0,-4.3727845678398625,2.4451296645124843e-12
1669909517429020751,0.6695693202680387,1.2473363384669016,10.5055261925395,-1.0,-4.357736875396274,2.4451296645124843e-12
1669909517429073242,0.6695693202680387,1.2473363384669016,10.5055261925395,-1.0,-4.357736875396274,2.4451296645124843e-12
1669909517671067826,0.6695693202680387,1.2473363384669016,10.5055261925395,-1.0,-4.3346952600803075,2.4451296645124843e-12
1669909517709018568,0.6695693202680387,1.2473363384669016,10.5055261925395,-1.0,-4.3346952600803075,2.4451296645124843e-12
1669909517709063098,0.6695693202680387,1.2473363384669016,10.5055261925395,-1.0,-4.315536692018615,2.4451296645124843e-12
1669909517709103089,0.6695693202680387,1.2473363384669016,10.5055261925395,-1.0,-4.3044105424890216,2.4451296645124843e-12
1669909517709142594,1.071427910510007,1.318474388119539,10.559650824075945,-1.0,-4.304410542489076,2.267205191503386e-12
1669909517709181710,1.071427910510007,1.318474388119539,10.559650824075945,-1.0,2.65582238215338,2.267205191503386e-12
1669909517709220324,1.071427910510007,1.318474388119539,10.559650824075945,-1.0,2.65582238215338,2.267205191503386e-12
1669909517709282188,1.071427910510007,1.318474388119539,10.559650824075945,-1.0,-3.5431504310875908,2.267205191503386e-12
1669909517709324746,1.3117927728805845,1.3195175211409689,10.52691140330322,-1.0,-3.5431504310876223,2.193095397834099e-12
1669909517709364443,1.3117927728805845,1.3195175211409689,10.52691140330322,-1.0,0.24871044507661416,2.193095397834099e-12
1669909517709403034,1.3117927728805845,1.3195175211409689,10.52691140330322,-1.0,0.24871044507661416,2.193095397834099e-12
1669909517709442327,1.3117927728805845,1.3195175211409689,10.52691140330322,-1.0,-3.0280330572882477,2.193095397834099e-12
1669909517727668443,1.3117927728805845,1.3195175211409689,10.52691140330322,-1.0,-3.010264924196324,2.193095397834099e-12
1669909517727696854,1.3117927728805845,1.3195175211409689,10.52691140330322,-1.0,-2.99240487845497,2.193095397834099e-12
1669909517727730065,1.3117927728805845,1.3195175211409689,10.52691140330322,-1.0,-2.99240487845497,2.193095397834099e-12
1669909517739607309,1.5711465324982485,1.366834388918074,10.640826271146208,-1.0,-2.09864348157194,2.1917478023949526e-12
1669909517764557246,1.5711465324982485,1.366834388918074,10.640826271146208,-1.0,-2.09864348157194,2.1917478023949526e-12
1669909517786755868,1.5711465324982485,1.366834388918074,10.640826271146208,-1.0,-2.8255813135055305,2.1917478023949526e-12
1669909517809545641,1.5711465324982485,1.366834388918074,10.640826271146208,-1.0,-2.8255813135055305,2.1917478023949526e-12
1669909517835283640,1.5711465324982485,1.366834388918074,10.640826271146208,-1.0,-2.792057278800393,2.1917478023949526e-12
1669909517851135539,1.5711465324982485,1.366834388918074,10.640826271146208,-1.0,-2.7684401873360662,2.1917478023949526e-12
1669909517901705855,1.5711465324982485,1.366834388918074,10.640826271146208,-1.0,-2.7684401873360662,2.1917478023949526e-12
1669909517927904595,1.8207645655819338,1.3077614450385857,29.43421063921597,-1.0,-1.9419029027046661,2.2447248989295194e-12
1669909517928018900,1.8207645655819338,1.3077614450385857,29.43421063921597,-1.0,-2.6429136930031354,2.2447248989295194e-12
1669909517949171926,1.8207645655819338,1.3077614450385857,29.43421063921597,-1.0,-2.6429136930031354,2.2447248989295194e-12
1669909517949263116,1.6948265491561816,2.6248646155510587,18.81454991292349,-0.9166183467514732,-4.879110240245931,2.3872179483085215e-12
1669909518202197417,1.6948265491561816,2.6248646155510587,18.81454991292349,-1.0,-2.826655517835427,2.3872179483085215e-12
1669909518236793835,1.6288758403384973,2.5542200236701635,10.728147473556632,-0.8776242515521238,-4.939773027817099,2.4494030038618924e-12
1669909518236801886,1.6288758403384973,2.5542200236701635,10.728147473556632,-0.8776242515521238,-4.939773027817099,2.4494030038618924e-12
1669909518236804843,1.6288758403384973,2.5542200236701635,10.728147473556632,-1.0,-2.8983546202113226,2.4494030038618924e-12
1669909518236807185,1.6288758403384973,2.5542200236701635,10.728147473556632,-1.0,-2.8983546202113226,2.4494030038618924e-12
1669909518236836474,1.6288758403384973,2.5542200236701635,10.728147473556632,-1.0,-2.8665462407025393,2.4494030038618924e-12
1669909518237201894,1.6288758403384973,2.5542200236701635,10.728147473556632,-1.0,-2.8665462407025393,2.4494030038618924e-12
1669909518237207489,1.8268516086237707,2.5113979368173127,10.778063450361444,-0.9387214017820599,-4.442936819570251,2.5295963600449626e-12
1669909518237209742,1.8268516086237707,2.5113979368173127,10.778063450361444,-0.9387214017820599,-4.442936819570251,2.5295963600449626e-12
1669909518237212102,1.8268516086237707,2.5113979368173127,10.778063450361444,-1.0,-2.9760369576548675,2.5295963600449626e-12
1669909518237214088,1.5516039012396505,2.219205184650932,10.825123762333861,-1.0,-2.9760369576548165,2.7163720763429504e-12
1669909518237271439,1.5516039012396505,2.219205184650932,10.825123762333861,-0.4715925667945106,-5.999999999992513,2.7163720763429504e-12
1669909518237311006,1.5516039012396505,2.219205184650932,10.825123762333861,-0.4715925667945106,-5.999999999992513,2.7163720763429504e-12
1669909518253279894,1.5516039012396505,2.219205184650932,10.825123762333861,-1.0,-3.436863460979423,2.7163720763429504e-12
1669909518253282488,1.5516039012396505,0.7757440049176556,10.825123762333861,-1.0,-3.436863460979423,2.7163720763429504e-12
1669909518267001346,1.5516039012396505,0.7757440049176556,10.825123762333861,-1.0,-3.414309607491414,2.7163720763429504e-12
1669909518287640095,1.5516039012396505,0.7757440049176556,10.825123762333861,-1.0,-3.4018973458219155,2.7163720763429504e-12
1669909518306852840,1.59897957993814,0.9091764462109232,10.84441603508462,-1.0,-3.40189734582191,2.753196493017403e-12
1669909518349035504,1.59897957993814,0.9091764462109232,10.84441603508462,-0.9244410912342977,-4.646399018814137,2.753196493017403e-12
1669909518372520142,1.59897957993814,0.9091764462109232,10.84441603508462,-1.0,-3.502137358273156,2.753196493017403e-12
1669909518372660529,1.1818891981117179,0.6578349442402971,10.878404520691932,-1.0,-3.5021373582731585,2.9596104945366353e-12
1669909518396866319,1.1818891981117179,0.6578349442402971,10.878404520691932,-0.3274847876664466,-5.99999999999251,2.9596104945366353e-12
1669909518421002670,1.1818891981117179,0.6578349442402971,10.878404520691932,-0.3274847876664466,-5.99999999999251,2.9596104945366353e-12
1669909518442071232,1.1818891981117179,0.6578349442402971,10.878404520691932,-1.0,-4.247013415256773,2.9596104945366353e-12
1669909518460004851,1.1818891981117179,0.6578349442402971,10.878404520691932,-1.0,-4.240927952253889,0.5665456317394766
1669909518484321962,0.8952486518852034,0.20474587128074082,10.87459809599721,-1.0,-4.240927952253901,0.5665456317395596
1669909518731272907,0.8952486518852034,0.20474587128074082,10.87459809599721,-0.8647743561166201,-5.9999999999925215,11.35043799877471
1669909518777560440,0.6359179173180808,0.18092758377754337,10.879775789711072,-0.8764266501499518,-5.999999999992554,11.350437998774835
1669909518777716789,0.6359179173180808,0.18092758377754337,10.879775789711072,-0.8764266501499518,-5.999999999992554,11.350437998774835
1669909518777727425,0.6359179173180808,0.18092758377754337,10.879775789711072,-0.9971433370507596,-4.976110718552043,12.000000178817102
